stop_id,stop_name,stop_lat,stop_lon
6610401773,Avenida Paseo de los Olivos,19.984163,-102.2567371
6610401768,Avenida Paseo de los Olivos,19.9845563,-102.2576536
6610401761,Avenida Paseo de los Olivos,19.9850285,-102.2587198
6610427407,Avenida Paseo de los Olivos,19.9855645,-102.2598965
6610220777,Avenida Paseo de los Olivos,19.9859436,-102.2607673
6610220769,Avenida Paseo de los Olivos,19.9864542,-102.2619198
6321421234,Avenida Olimpia y Avenida Paseo de los Olivos,19.9874851,-102.2623156
2985466472,Avenida Olimpia,19.9884919,-102.2621695
6806145167,Avenida Olimpia,19.9896234,-102.2620519
2985467476,Avenida Olimpia,19.9907427,-102.2619305
3219340906,Avenida Olimpia y Avenida Paseo Corintio,19.9917154,-102.2618359
2985461746,Avenida Paseo Corintio,19.9924429,-102.2632192
6806145183,Avenida Paseo Corintio,19.9930183,-102.2643639
8506149608,Calzada 20 de Noviembre,19.9940777,-102.2640967
6321448862,Calzada 20 de Noviembre,19.9945956,-102.2631069
8506149609,Innominada,19.9944089,-102.2643451
6321448865,Innominada,19.9926966,-102.2675014
8503434888,Calzada 20 de Noviembre,19.9918157,-102.2680914
1658612902,Calzada 20 de Noviembre,19.9910711,-102.269228
8506437102,Calzada 20 de Noviembre,19.9902777,-102.2705587
2000658038,Calzada 20 de Noviembre,19.9897983,-102.2714452
2975115635,Calzada 20 de Noviembre,19.9890615,-102.2732282
2002147333,Calzada 20 de Noviembre,19.9885759,-102.2744013
2002147309,Calzada 20 de Noviembre,19.9881291,-102.2758559
8431267578,Calzada 20 de Noviembre,19.9876081,-102.2778339
1408202176,Calzada 20 de Noviembre y Avenida Benito Juárez Oriente,19.9871267,-102.2794505
2003530962,Avenida Benito Juárez Oriente y Avenida 5 de Mayo y Prolongación 5 de Mayo,19.9874547,-102.2806331
2003530961,Avenida 5 de Mayo,19.9865717,-102.2810208
2945134676,Avenida 5 de Mayo,19.9853849,-102.2815761
2133351778,Avenida 5 de Mayo,19.9841882,-102.282086
2958012125,Avenida 5 de Mayo,19.983332,-102.2824849
8430899789,Avenida 5 de Mayo,19.9824964,-102.2828641
2133351776,Avenida 5 de Mayo,19.9813717,-102.2833017
2944908689,Avenida 5 de Mayo,19.980488,-102.2835294
2003530953,Avenida 5 de Mayo,19.9790307,-102.2839443
2003530930,Avenida 5 de Mayo,19.9770889,-102.2845063
2117501641,Avenida 5 de Mayo y Calle Benito Díaz de Gamarra y Benito Díaz de Gamarra,19.9759839,-102.2847843
1659438957,Avenida 5 de Mayo y Avenida Virrey de Mendoza Oriente,19.9749808,-102.2850731
2003822083,Avenida Virrey de Mendoza Oriente y Calle Salubridad,19.975143,-102.2863073
2003822084,Avenida Virrey de Mendoza Oriente,19.9752865,-102.287302
2003822086,Avenida Virrey de Mendoza Oriente y Calle Doctor Alonso Martínez y Avenida Educación,19.9753879,-102.2879586
8496402090,Calle Doctor Alonso Martínez,19.9755476,-102.2879311
2117501652,Calle Doctor Alonso Martínez y Benito Díaz de Gamarra,19.9767369,-102.2876074
2117501656,Calle Doctor Alonso Martínez,19.9777814,-102.2873047
2003822104,Calle Doctor Alonso Martínez y Martínez de Navarrete Oriente,19.9795109,-102.2867986
2003822093,Martínez de Navarrete Oriente,19.9791294,-102.2853996
8496895024,Martínez de Navarrete Oriente,19.978863,-102.2842284
6610158746,Avenida 5 de Mayo,19.9800048,-102.2836583
8430805394,Avenida 5 de Mayo,19.9823804,-102.2829167
1408202174,Avenida Benito Juárez Oriente,19.9871375,-102.2798063
1408202173,Avenida Benito Juárez Oriente,19.9868784,-102.2792219
2107182062,Calzada 20 de Noviembre,19.9873585,-102.2783039
2002147291,Calzada 20 de Noviembre,19.9878006,-102.2767431
2002147302,Calzada 20 de Noviembre,19.9880501,-102.2758231
2002147328,Calzada 20 de Noviembre,19.9884793,-102.274399
2002147349,Calzada 20 de Noviembre,19.9888168,-102.2735017
2000658036,Calzada 20 de Noviembre,19.9897098,-102.2713714
2002147361,Calzada 20 de Noviembre,19.9901525,-102.2703992
6806203586,Calzada 20 de Noviembre,19.9907555,-102.2693917
2002147362,Calzada 20 de Noviembre,19.9918489,-102.2677303
1658616557,Calzada 20 de Noviembre,19.9927545,-102.2665226
1658616556,Calzada 20 de Noviembre,19.9934873,-102.2651853
6806186985,Avenida Paseo Corintio,19.9930205,-102.2645087
3219340912,Avenida Paseo Corintio,19.9923538,-102.2632874
8503434861,Avenida Paseo Corintio,19.9916781,-102.2619662
2985467472,Avenida Olimpia,19.9903544,-102.262087
2985466468,Avenida Olimpia,19.9892368,-102.2622208
8506212549,Avenida Olimpia,19.9883222,-102.2621998
6321421235,Avenida Paseo de los Olivos,19.9872632,-102.2624254
6321421239,Avenida Paseo de los Olivos,19.986483,-102.2623799
6610220782,Avenida Paseo de los Olivos,19.9860105,-102.2611968
6321421240,Avenida Paseo de los Olivos y Paseo de los Olivos,19.9851568,-102.2592997
6610401777,Avenida Paseo de los Olivos,19.9847934,-102.2584958
6610427390,Avenida Paseo de los Olivos,19.9843222,-102.2574092
6610427391,Avenida Paseo de los Olivos,19.9840516,-102.2567905
4473510099,Calle Francisco I. Madero Norte,20.0613439,-102.1878597
3629488880,Aquiles Serdán-Atacheo de Regalado,20.0594964,-102.1880972
4473509979,Aquiles Serdán-Atacheo de Regalado,20.0583223,-102.1882474
7812179231,Aquiles Serdán-Atacheo de Regalado,20.0571129,-102.1884459
6845494930,Aquiles Serdán-Atacheo de Regalado,20.0561354,-102.1891111
7812179233,Aquiles Serdán-Atacheo de Regalado,20.0550293,-102.1899587
4473509954,Aquiles Serdán-Atacheo de Regalado y Calle República de Brasil,20.0539005,-102.1906722
6935188181,Aquiles Serdán-Atacheo de Regalado,20.0527138,-102.1914795
7812179234,Aquiles Serdán-Atacheo de Regalado,20.050562,-102.1926034
7812179235,Aquiles Serdán-Atacheo de Regalado,20.0496751,-102.1930593
3629489048,Aquiles Serdán-Atacheo de Regalado,20.0480776,-102.1939284
7812179236,Aquiles Serdán-Atacheo de Regalado,20.0469765,-102.1945506
3629488887,Aquiles Serdán-Atacheo de Regalado,20.045762,-102.1952158
7812179237,Aquiles Serdán-Atacheo de Regalado,20.0446533,-102.1958354
7896773146,Aquiles Serdán-Atacheo de Regalado,20.043745,-102.196337
7812179238,Aquiles Serdán-Atacheo de Regalado,20.0429462,-102.1967849
7896773145,Aquiles Serdán-Atacheo de Regalado,20.0411811,-102.1979463
7896773144,Aquiles Serdán-Atacheo de Regalado,20.0403949,-102.1985042
7896773143,Aquiles Serdán-Atacheo de Regalado,20.0392358,-102.1992767
7896773142,Aquiles Serdán-Atacheo de Regalado,20.0382632,-102.1999338
7896773140,Aquiles Serdán-Atacheo de Regalado,20.0366164,-102.2010483
7896773141,Aquiles Serdán-Atacheo de Regalado,20.0355845,-102.2017282
3629489020,Aquiles Serdán-Atacheo de Regalado,20.0338596,-102.2029113
3629488890,Aquiles Serdán-Atacheo de Regalado,20.0323085,-102.2038826
8510055925,Aquiles Serdán-Atacheo de Regalado,20.0303077,-102.2051637
3629488891,Aquiles Serdán-Atacheo de Regalado,20.029105,-102.2059337
8510061512,Aquiles Serdán-Atacheo de Regalado,20.0283885,-102.2065842
3629488892,Aquiles Serdán-Atacheo de Regalado,20.0254539,-102.2092485
8510236237,Aquiles Serdán-Atacheo de Regalado,20.0240537,-102.2105457
8510055924,Aquiles Serdán-Atacheo de Regalado,20.0233179,-102.2112273
3629488993,Aquiles Serdán-Atacheo de Regalado,20.0220891,-102.2123259
3629488994,Aquiles Serdán-Atacheo de Regalado,20.0199118,-102.2143107
3629488995,Aquiles Serdán-Atacheo de Regalado,20.0183494,-102.2152207
3629488996,Aquiles Serdán-Atacheo de Regalado,20.015073,-102.2171659
6610385762,Aquiles Serdán-Atacheo de Regalado,20.0118023,-102.2190982
3629488997,Aquiles Serdán-Atacheo de Regalado,20.0101159,-102.2200591
3629488998,Aquiles Serdán-Atacheo de Regalado,20.0081574,-102.2211067
8444430898,Aquiles Serdán-Atacheo de Regalado,20.0069969,-102.2217254
4463804814,Zamora-La Ladera,20.0072435,-102.227881
1262237337,Zamora-La Ladera,20.0072648,-102.2301403
6610385754,Zamora-La Ladera,20.0069921,-102.2317509
6831345046,Zamora-La Ladera,20.0064354,-102.2365754
2132091851,Calle Principal,20.0063634,-102.2378066
6610385740,Calle Principal,20.0066435,-102.2411209
6610371980,Calle Principal,20.0067532,-102.2427003
6610521192,Calle Principal,20.0068641,-102.2439221
4463804686,Calle Principal,20.0069435,-102.2449574
2132091854,Calle Principal,20.0070014,-102.2459391
8436888706,Calle Principal,20.0067456,-102.2482029
4463804660,Calle Principal,20.0065957,-102.2495842
8436888705,Calle Principal,20.006394,-102.2513209
1262237294,Calle Principal,20.0062214,-102.2526741
319104587,Calle Principal y Avenida Miguel Regalado,20.005763,-102.2537395
6610371934,Avenida Miguel Regalado,20.0020981,-102.2560001
2985472672,Avenida Miguel Regalado,20.0008716,-102.2567567
6610529516,Avenida Miguel Regalado,19.9991657,-102.2578469
6610529514,Avenida Miguel Regalado,19.9980587,-102.2585586
2132091840,Avenida Miguel Regalado,19.9966772,-102.2594693
319104586,Avenida Miguel Regalado,19.9958668,-102.2602994
3460330780,Avenida Miguel Regalado,19.9947125,-102.2628363
1658611280,Avenida Miguel Regalado,19.9956299,-102.2606602
8436888704,Calle Principal,20.0061943,-102.2528934
4463804656,Calle Principal,20.0063499,-102.2516964
8437025928,Calle Principal,20.0067062,-102.2485665
2132091853,Calle Principal,20.0069964,-102.2460383
8436977599,Calle Principal,20.0063894,-102.2381146
1262237253,Zamora-La Ladera,20.006389,-102.2370234
319104590,Zamora-La Ladera,20.0068564,-102.2325855
6610385759,Zamora-La Ladera,20.0072803,-102.2286039
319104591,Aquiles Serdán-Atacheo de Regalado y Zamora-La Ladera,20.0069317,-102.2217568
8460814005,Aquiles Serdán-Atacheo de Regalado,20.0194337,-102.2145892
6610353215,Aquiles Serdán-Atacheo de Regalado,20.0214708,-102.2129214
3629489028,Aquiles Serdán-Atacheo de Regalado,20.0350868,-102.2021366
3629488888,Aquiles Serdán-Atacheo de Regalado,20.0421903,-102.1972436
7812179228,Aquiles Serdán-Atacheo de Regalado,20.0478786,-102.1940464
3629488885,Aquiles Serdán-Atacheo de Regalado,20.0520788,-102.1918121
4473509958,Calle República de Brasil,20.0538781,-102.1871158
4473509955,Calle República de Brasil y Calle República de Argentina,20.0538678,-102.1857825
4473509964,Calle República de Argentina,20.0557877,-102.1855711
4473509982,Calle República de Argentina,20.0582291,-102.1853212
4473509961,Calle República de Argentina y Calle Guatemala,20.0594196,-102.1852354
4473509985,Calle Guatemala y Calle Ignacio Allende,20.0594965,-102.1862171
6845494982,Calle Ignacio Allende,20.0603731,-102.1864369
4473510093,Calle Ignacio Allende,20.0613179,-102.1864002
4473510106,Calle Ignacio Allende,20.0622315,-102.1863339
4473510090,Calle Ignacio Allende,20.0631181,-102.1862707
12017369163,Avenida Olmo,20.0033726,-102.2720303
2974102633,Avenida Olmo,20.0023626,-102.2724313
2974089182,Avenida Olmo,20.0014656,-102.2727726
2974089169,Avenida Olmo,20.0005861,-102.2731055
2974089170,Avenida Olmo,19.9996809,-102.2734689
3219340987,Avenida Olmo y Avenida del Vergel,19.9983767,-102.2739306
3219340990,Avenida del Vergel,19.9987064,-102.2749029
8414337475,Avenida del Vergel,19.996797,-102.27598
3219340919,Avenida del Vergel,19.9945188,-102.276302
2107182072,Avenida del Vergel,19.9928045,-102.2767933
8418124363,Avenida del Vergel,19.9895474,-102.277954
2000658035,Avenida del Vergel,19.9880306,-102.2784472
8418124362,Avenida del Vergel,19.9888565,-102.2780988
6805849347,Avenida del Vergel,19.9897937,-102.2777862
2000658049,Avenida del Vergel,19.9924948,-102.2768692
2956632659,Avenida del Vergel,19.9935245,-102.276465
2974071668,Avenida del Vergel,19.9945196,-102.2761804
6867082257,Avenida del Vergel,19.996519,-102.2759584
2974074832,Avenida del Vergel,19.9987412,-102.2757279
2974098185,Avenida del Vergel,19.9985111,-102.2745741
2974089172,Avenida Olmo,19.9992433,-102.2736389
2974098189,Avenida Olmo,20.0001568,-102.2732835
2974098176,Avenida Olmo,20.0010579,-102.2729232
2974089196,Avenida Olmo,20.001913,-102.272595
2974102429,Avenida Olmo,20.0031544,-102.2721098
6042684682,Calle Nogal,19.9964341,-102.1814964
6658395426,Calle Nogal,19.9982063,-102.1821037
6042684675,Calle Ficus,19.998674,-102.1827489
6042684673,Calle Ficus y Calle Pino,19.9994755,-102.1832827
6042684671,Calle Pino,20.0004144,-102.1830668
7802589224,Calle Tabachín,20.001473,-102.1834718
7802589227,Calle Tabachín,20.0016091,-102.1848726
7802589228,Innominada,20.0005039,-102.1862921
7802589229,Innominada,19.999783,-102.1871048
6845061997,Innominada,19.9986791,-102.1883655
7802521352,Zamora-La Ladera,19.9994327,-102.1909672
7802521353,Zamora-La Ladera,20.0005039,-102.193526
7802521354,Zamora-La Ladera,20.0011945,-102.1952266
3629489009,Zamora-La Ladera,20.0022404,-102.1977991
6845111251,Zamora-La Ladera,20.0049171,-102.2044855
319104592,Zamora-La Ladera,20.0048872,-102.2139612
6658377687,Zamora-La Ladera,20.0051343,-102.2152037
2132091847,Zamora-La Ladera,20.0055835,-102.2171523
2132091849,Zamora-La Ladera,20.0059943,-102.2188602
2132091852,Zamora-La Ladera,20.0068224,-102.2212854
2003530955,Innominada,19.9790367,-102.2840069
4463804847,Zamora-La Ladera,20.00619,-102.2194239
8445437531,Zamora-La Ladera,20.0057743,-102.2179454
6658373253,Zamora-La Ladera,20.0052573,-102.2157974
4473509890,Zamora-La Ladera,20.0049986,-102.2146103
6845111252,Zamora-La Ladera,20.0050381,-102.205022
6658392517,Innominada,19.9998715,-102.1969855
3629489011,Innominada,19.9983232,-102.1961676
6845111247,Innominada,19.9975877,-102.1955538
6042684656,Calle 16 de Septiembre,19.9965626,-102.1960964
8484568902,Calle 16 de Septiembre,19.9957913,-102.1967713
6042684643,Calle 16 de Septiembre,19.9947338,-102.1975173
6042684635,Calle 16 de Septiembre,19.993418,-102.1983401
6042684660,Calle 16 de Septiembre,19.9924508,-102.1989186
6845283204,Calle 16 de Septiembre,19.9932159,-102.1984599
6042684642,Calle 16 de Septiembre,19.9943762,-102.1977231
3629489013,Calle 16 de Septiembre,19.9952579,-102.1971553
6845111257,Calle 16 de Septiembre,19.9974152,-102.1955163
3629489010,Innominada,19.9991801,-102.1968348
6658392520,Zamora-La Ladera,19.9985266,-102.1888858
6658377380,Innominada,20.0012285,-102.1854794
6042684710,Calle Tabachín,20.0016592,-102.1841917
7802589225,Calle Tabachín,20.0012046,-102.1832156
7802589199,Calle Pino,20.0001119,-102.1830802
6042684674,Calle Ficus,19.9991995,-102.1832223
7802589194,Calle Ficus,19.9986312,-102.1824136
6042684661,Calle Nogal,19.9970548,-102.1816957
6042684685,Calle Nogal,19.995662,-102.1812442
8436853374,Libramiento Zamora-Jacona Norte,20.0072157,-102.2367015
8436853375,Libramiento Zamora-Jacona Norte,20.0081142,-102.2365627
8436853376,Libramiento Zamora-Jacona Norte,20.0092011,-102.2365078
8436977575,Libramiento Zamora-Jacona Norte,20.0103346,-102.2366385
8436853361,Libramiento Zamora-Jacona Norte,20.0114328,-102.2369785
8436853363,Libramiento Zamora-Jacona Norte,20.0124239,-102.2374881
8436853381,Libramiento Zamora-Jacona Norte,20.0133488,-102.2382123
8436853382,Libramiento Zamora-Jacona Norte,20.0140103,-102.2388768
8436853383,Libramiento Zamora-Jacona Norte,20.0146278,-102.2396909
8436853370,Libramiento Zamora-Jacona Norte,20.0150814,-102.2405183
6610327208,Libramiento Zamora-Jacona Norte,20.0172485,-102.2459511
8417437700,Libramiento Zamora-Jacona Norte,20.0183829,-102.2488305
8498892094,Libramiento Zamora-Jacona Norte,20.0187754,-102.2498417
12050019204,Libramiento Zamora-Jacona Norte,20.0192741,-102.2510266
8498892080,Libramiento Zamora-Jacona Norte,20.0196471,-102.2519289
604967071,Libramiento Zamora-Jacona Norte,20.0201571,-102.2530389
4463802877,Libramiento Zamora-Jacona Norte y Calle Licenciado Luis Donaldo Colosio Murrieta,20.0206813,-102.2538838
4463804653,Calle Licenciado Luis Donaldo Colosio Murrieta,20.0218462,-102.253679
2985478878,Camino a Linda Vista,19.9958028,-102.2596715
3460330794,Camino a Linda Vista,19.9953567,-102.2587384
3460330779,Camino a Linda Vista,19.9945276,-102.2571559
3460330771,Camino a Linda Vista,19.9940527,-102.2562549
3460330764,Camino a Linda Vista,19.993488,-102.255159
3460330757,Camino a Linda Vista,19.9929448,-102.2541759
8503453809,Camino a Linda Vista,19.9921794,-102.2526514
4429164402,Central 2,19.9916808,-102.2515904
4429164396,Central 2,19.9912026,-102.2506152
8457209937,Central 2,19.9907822,-102.2496687
2985478885,Central 2,19.9898535,-102.2484286
2985478902,Camino a Chaparaco,19.988986,-102.2479902
2985478901,Camino a Chaparaco,19.9882605,-102.2485992
2985478900,Camino a Chaparaco,19.9871777,-102.2493964
2985478899,Camino a Chaparaco,19.9856981,-102.2505096
3460330638,Avenida Paseo de los Olmos,19.984981,-102.2507174
3460330624,Avenida Paseo de los Olmos,19.984231,-102.2498444
3460330610,Avenida Paseo de los Olmos,19.9835916,-102.2490791
3460330082,Avenida Paseo de los Olmos,19.9828941,-102.2482043
2985484005,Avenida Paseo de los Olmos,19.9820658,-102.2472418
6838687187,Avenida Paseo de los Olmos,19.9813221,-102.2463716
8474725514,Libramiento Zamora-Jacona Norte,19.9808936,-102.2454188
8474740117,Libramiento Zamora-Jacona Norte,19.9818275,-102.2441286
8528144492,Libramiento Zamora-Jacona Norte,19.9825321,-102.2430825
8474620838,Libramiento Zamora-Jacona Norte,19.9841885,-102.2404792
2985478897,Libramiento Zamora-Jacona Norte y Calle Lateral Derecha,19.9849132,-102.2394594
2985478891,Central,19.9856448,-102.2390623
8528144494,Calle Central,19.9863059,-102.2403091
12050002727,Calle Central,19.9869254,-102.2417183
6871006644,Calle Licenciado Luis Donaldo Colosio Murrieta,20.0208473,-102.2538232
6610334496,Innominada,20.0196282,-102.2522047
8417437703,Innominada,20.0191011,-102.2512955
8498892086,Libramiento Zamora-Jacona Norte,20.0187767,-102.2499262
8436877024,Libramiento Zamora-Jacona Norte,20.0152868,-102.2410226
8436853335,Libramiento Zamora-Jacona Norte,20.0147425,-102.2399604
1262237412,Libramiento Zamora-Jacona Norte,20.0139398,-102.2388487
604967053,Libramiento Zamora-Jacona Norte,20.0132669,-102.2381922
8436853339,Libramiento Zamora-Jacona Norte,20.0123098,-102.2375183
8436853341,Libramiento Zamora-Jacona Norte,20.011405,-102.2370583
8436853321,Libramiento Zamora-Jacona Norte,20.0105194,-102.2367762
8436853344,Libramiento Zamora-Jacona Norte,20.0096188,-102.2366023
8436853346,Libramiento Zamora-Jacona Norte,20.0084897,-102.2365829
8436853347,Libramiento Zamora-Jacona Norte,20.0075074,-102.2367136
6831345045,Innominada,20.0066385,-102.237116
1659337363,Calle Vasco de Quiroga,19.9861124,-102.2798999
1659242618,Calle Vasco de Quiroga,19.9849216,-102.2804013
2003530959,Avenida 5 de Mayo y Calle José Esaúl Robles Jiménez,19.9849085,-102.2817825
2946962395,Avenida 5 de Mayo,19.9837482,-102.2822961
2958013203,Avenida 5 de Mayo,19.9826444,-102.2827969
1859171493,Avenida 5 de Mayo,19.9817644,-102.2831792
2985484021,Avenida Paseo de los Olmos,19.981043,-102.2460517
6465850372,Calle Central,19.9877725,-102.2436346
2985478887,Calle Central y Camino a Chaparaco,19.9894238,-102.247423
4429164386,Central 2,19.9906189,-102.2493205
4429164394,Central 2,19.9910519,-102.2502763
3460330745,Central 2,19.9915062,-102.2512002
2985478882,Camino a Linda Vista y Central 2,19.9921753,-102.2526374
6610481423,Camino a Linda Vista,19.9926792,-102.253657
3460330760,Camino a Linda Vista,19.9931237,-102.2544951
3460330766,Camino a Linda Vista,19.9936554,-102.2554682
3460330775,Camino a Linda Vista,19.9942974,-102.2567398
2985478881,Camino a Linda Vista,19.9952385,-102.2584888
2985472668,Avenida Miguel Regalado,19.9957458,-102.2604496
2000509225,Avenida Benito Juárez Poniente y Avenida Doctor Verduzco Sur y Doctor Verduzco,19.9896897,-102.2882474
1942784149,Avenida Benito Juárez Poniente y Pino Suárez Sur y Calle Pino Suárez Sur,19.9893723,-102.2872133
1408202162,Avenida Benito Juárez Poniente y Avenida Benito Juárez Oriente,19.9887998,-102.2854172
1659353925,Avenida Benito Juárez Oriente,19.9884544,-102.2842477
1408202154,Avenida Benito Juárez Oriente,19.9881148,-102.2829622
1942784147,Avenida Benito Juárez Oriente,19.9877519,-102.2819957
2107182057,Avenida 5 de Mayo y Avenida Benito Juárez Oriente,19.987352,-102.280693
2962077981,Avenida 5 de Mayo,19.9858022,-102.2813878
2944960889,Martínez de Navarrete Oriente,19.9786046,-102.2833322
2944908684,Martínez de Navarrete Oriente,19.9783072,-102.2821529
2946818045,Martínez de Navarrete Oriente,19.9780496,-102.2810612
2946818038,Avenida del Árbol,19.9775119,-102.2806541
2946814197,Avenida del Árbol,19.9766107,-102.2809488
2946814194,Avenida del Árbol,19.9755962,-102.2808487
2117501626,Avenida del Árbol y Virrey de Mendoza Oriente y Avenida Virrey de Mendoza Oriente,19.9738555,-102.2806324
2946631490,Virrey de Mendoza Oriente,19.9732549,-102.2790393
8495958276,Virrey de Mendoza Oriente,19.9728702,-102.2780058
2958113628,Virrey de Mendoza Oriente,19.9724106,-102.2764886
1659438875,Virrey de Mendoza Oriente y Calle Virrey de Mendoza Oriente y Avenida del Bosque,19.9717005,-102.2741644
2003822070,Calle Virrey de Mendoza Oriente,19.9712438,-102.2726095
2946787441,Calle La Lima y Calle Virrey de Mendoza Oriente,19.9710132,-102.2717445
6638858539,Calle Virrey de Mendoza Oriente,19.9714961,-102.273436
8496859549,Avenida del Bosque,19.9720068,-102.2741482
6813086426,Avenida del Bosque,19.9733189,-102.2740379
2960582895,Avenida del Bosque,19.9751399,-102.2739446
3165783899,Avenida del Bosque,19.9763943,-102.2738786
2946787138,Avenida del Bosque,19.9773557,-102.2738341
3165783913,Avenida del Bosque y Avenida Benito Juárez Oriente,19.9784462,-102.2728819
6840921287,Avenida Benito Juárez Oriente,19.9775135,-102.2721439
8495958261,Avenida Benito Juárez Oriente,19.9765854,-102.2712685
3219340881,Avenida Benito Juárez Oriente,19.9743882,-102.2695515
6813086418,Avenida Benito Juárez Oriente,19.9732442,-102.2686292
8528360341,Innominada,19.9734219,-102.2684146
12049981739,Innominada,19.9738955,-102.2688003
2956620117,Avenida Benito Juárez Oriente,19.974622,-102.2695218
2960598298,Avenida Benito Juárez Oriente,19.9757697,-102.2704284
6840909784,Avenida Benito Juárez Oriente,19.9779462,-102.2721223
2946512345,Avenida Benito Juárez Oriente y Avenida del Bosque,19.9787039,-102.2727192
2946512346,Avenida del Bosque,19.977873,-102.2735035
2946648563,Avenida del Bosque,19.9764046,-102.2739604
2946605501,Avenida del Bosque,19.9751481,-102.2740392
2946661619,Avenida del Bosque,19.9738174,-102.2741096
2946512337,Avenida del Bosque,19.972895,-102.2741627
8496069134,Calle Virrey de Mendoza Oriente,19.9711469,-102.2723017
2003822069,Calle Virrey de Mendoza Oriente,19.9711315,-102.272228
8495958301,Avenida del Bosque,19.9710521,-102.2742084
3165783882,Avenida del Bosque,19.9695118,-102.2743086
2958095794,Avenida del Bosque,19.9707052,-102.2742301
2958113630,Virrey de Mendoza Oriente,19.9723904,-102.2764223
1659439000,Virrey de Mendoza Oriente y Calle Primavera,19.9727823,-102.2777695
2117501620,Virrey de Mendoza Oriente y Avenida del Árbol,19.9738234,-102.280493
2117501635,Avenida del Árbol y Calle Benito Díaz de Gamarra,19.9749565,-102.2806148
2117501644,Avenida del Árbol,19.9761412,-102.2807422
2117501661,Avenida del Árbol y Calle Martínez de Navarrete Oriente,19.9779277,-102.2801946
2946818048,Martínez de Navarrete Oriente,19.9781249,-102.2813772
2944960893,Martínez de Navarrete Oriente,19.9784582,-102.2827447
2003530944,Martínez de Navarrete Oriente,19.978777,-102.2838693
2003822099,Calle Leonardo Castellanos Oriente,19.9793991,-102.2846102
2003822120,Calle Leonardo Castellanos Oriente,19.9804191,-102.285829
8428740607,Calle Leonardo Castellanos Oriente,19.9813142,-102.2869368
2003822127,Calle Leonardo Castellanos Oriente,19.9819583,-102.2876978
8430805397,Leonardo Castellanos Poniente,19.9826028,-102.2894576
2945193347,Leonardo Castellanos Poniente y Avenida Doctor Verduzco Sur,19.9830321,-102.2906541
2945086116,Avenida Doctor Verduzco Sur,19.9841156,-102.2902383
2000509186,Avenida Doctor Verduzco Sur y Calle Vicente Guerrero Poniente,19.985518,-102.2899962
2000509192,Avenida Doctor Verduzco Sur,19.9864276,-102.2898177
2000509200,Avenida Doctor Verduzco Sur,19.9873512,-102.2893192
2000509207,Avenida Doctor Verduzco Sur,19.988206,-102.2889307
12051001719,Innominada,19.974437,-102.2688924
6813086402,Avenida Benito Juárez Oriente,19.9751562,-102.2699596
8528360344,Avenida Benito Juárez Oriente,19.9762799,-102.2708255
6840921285,Avenida Benito Juárez Oriente,19.9777903,-102.2721092
3219340885,Avenida Benito Juárez Oriente,19.9785924,-102.2727299
2946814192,Calle Benito Díaz de Gamarra,19.9754315,-102.2825473
2944960891,Calle Benito Díaz de Gamarra,19.9756737,-102.2835262
2117501648,Benito Díaz de Gamarra,19.976385,-102.2861989
2003822121,Calle Leonardo Castellanos Oriente y Calle Doctor Alonso Martínez,19.9808745,-102.2864251
2935037310,Calle Leonardo Castellanos Oriente y Calle Morelos Sur,19.9817426,-102.2874306
1659971322,Calle Leonardo Castellanos Oriente y Leonardo Castellanos,19.9822253,-102.2883278
8430626881,Avenida Francisco I. Madero Sur,19.9815695,-102.2890215
8430626878,Avenida Francisco I. Madero Sur y Calle Martínez de Navarrete,19.9801749,-102.2899201
5319528463,Avenida Francisco I. Madero Sur,19.9793474,-102.2904088
1659398311,Avenida Francisco I. Madero Sur,19.9785619,-102.2909023
11430225976,Avenida Francisco I. Madero Sur,19.9776778,-102.2914968
11430225977,Avenida Francisco I. Madero Sur,19.9768658,-102.2920833
1659384811,Avenida Francisco I. Madero Sur y Calle Paseo de los Almendros,19.9774086,-102.2916788
1942784082,Calle Paseo de los Almendros,19.9780481,-102.2927303
1942784090,Calle Paseo de los Almendros,19.9786562,-102.2936416
1659384837,Calle Paseo de los Almendros y Paseo de los Almendros,19.979219,-102.2944581
2985037612,Calle Los Espinos,19.980013,-102.2944631
2985037604,Calle Los Espinos,19.9808708,-102.2941652
2985040140,Calle Los Espinos,19.9816529,-102.2935423
2985040143,Calle Los Espinos,19.9823367,-102.2929539
2985040142,Calle Los Espinos,19.9833261,-102.2928748
2945182435,Calle Los Espinos y Circunvalación Poniente,19.984302,-102.2927513
2945182445,Circunvalación Poniente,19.984315,-102.2917742
2945165811,Calle Galeana Sur y Calle Vicente Guerrero Poniente,19.9858617,-102.2909564
6840921286,Avenida Benito Juárez Oriente,19.9774065,-102.2719403
3219340882,Avenida Benito Juárez Oriente,19.9744464,-102.269499
6638858525,Avenida Benito Juárez Oriente,19.9731357,-102.2686372
6813086399,Avenida Benito Juárez Oriente,19.9723001,-102.2680056
6813086422,Benito Juárez Oriente,19.9713976,-102.2672398
6813086397,Carretera Morelia - Jiquilpan,19.9704825,-102.266346
8523723699,Carretera Morelia - Jiquilpan,19.9696254,-102.2656587
8523723697,Carretera Morelia - Jiquilpan,19.9687746,-102.2649948
8523723695,Carretera Morelia - Jiquilpan,19.967988,-102.2643779
8524463111,Carretera Morelia - Jiquilpan,19.9668724,-102.2634411
6954355303,Carretera Morelia - Jiquilpan,19.9660331,-102.2627914
3622592158,Carretera Morelia - Jiquilpan,19.9647305,-102.2617666
1408203032,Carretera Morelia - Jiquilpan,19.9638045,-102.261048
1408203023,Innominada,19.9631668,-102.2603253
8437365552,LIBRAMIENTO y Carretera Morelia - Jiquilpan,19.963108,-102.2593193
8437365555,Libramiento Zamora-Jacona Norte,19.9642437,-102.2593717
604967014,Libramiento Zamora-Jacona Norte,19.9659624,-102.2596881
6638858521,Libramiento Zamora-Jacona Norte,19.9675557,-102.260368
6638825663,Libramiento Zamora-Jacona Norte,19.9684683,-102.2607824
604967013,Libramiento Zamora-Jacona Norte,19.9698599,-102.2614074
6638842856,Libramiento Zamora-Jacona Norte,19.9707775,-102.2617695
6638845590,Libramiento Zamora-Jacona Norte,19.9718842,-102.2617802
604967008,Libramiento Zamora-Jacona Norte,19.9729599,-102.2612913
604967039,Libramiento Zamora-Jacona Norte,19.973588,-102.2605205
6838720875,Libramiento Zamora-Jacona Norte,19.97395,-102.2593126
6838720877,Libramiento Zamora-Jacona Norte,19.9736286,-102.2572795
604967035,Libramiento Zamora-Jacona Norte,19.9733538,-102.2557211
604967032,Libramiento Zamora-Jacona Norte,19.9735416,-102.254526
6610437445,Libramiento Zamora-Jacona Norte,19.9747914,-102.2528242
6610437459,Libramiento Zamora-Jacona Norte,19.9760312,-102.2513328
6610415212,Libramiento Zamora-Jacona Norte,19.977649,-102.2493866
6610415191,Libramiento Zamora-Jacona Norte,19.9789879,-102.2477811
8474725512,Libramiento Zamora-Jacona Norte,19.9800996,-102.2464232
8474725513,Libramiento Zamora-Jacona Norte,19.9807833,-102.245571
8474725516,Libramiento Zamora-Jacona Norte,19.9814519,-102.2446919
6610409430,Libramiento Zamora-Jacona Norte,19.9820311,-102.2438684
6610409411,Libramiento Zamora-Jacona Norte,19.9827854,-102.2426453
6610473427,Libramiento Zamora-Jacona Norte,19.9860679,-102.238174
6948748189,Libramiento Zamora-Jacona Norte,19.9871639,-102.2369577
8474414058,Libramiento Zamora-Jacona Norte,19.9879629,-102.2360867
6610373739,Libramiento Zamora-Jacona Norte,19.9894387,-102.2344479
604967027,Libramiento Zamora-Jacona Norte,19.9904064,-102.2334201
604967023,Libramiento Zamora-Jacona Norte,19.9914208,-102.2328189
604967021,Libramiento Zamora-Jacona Norte,19.9927947,-102.2327096
2132091836,Libramiento Zamora-Jacona Norte,19.9945458,-102.2331013
2132091837,Libramiento Zamora-Jacona Norte,19.9958313,-102.2336114
2132091839,Libramiento Zamora-Jacona Norte,19.9966081,-102.2343355
2132091841,Libramiento Zamora-Jacona Norte,19.9971153,-102.2353876
2132091842,Libramiento Zamora-Jacona Norte,19.9973785,-102.2367676
8436854785,Libramiento Zamora-Jacona Norte,19.9979292,-102.2378965
8436854788,Libramiento Zamora-Jacona Norte,19.9986917,-102.2385563
8436854789,Libramiento Zamora-Jacona Norte,19.9995612,-102.2388607
8436854791,Libramiento Zamora-Jacona Norte,20.0004774,-102.2388205
8436854793,Libramiento Zamora-Jacona Norte,20.002621,-102.2381794
8437025973,Libramiento Zamora-Jacona Norte,20.00467,-102.2375483
8436853356,Libramiento Zamora-Jacona Norte,20.0055384,-102.2372353
4463804809,Libramiento Zamora-Jacona Norte,20.0068742,-102.2368088
3460330041,Avenida Paseo de los Olmos,19.9817707,-102.2466612
2985479140,Avenida Paseo de los Olmos,19.982366,-102.2472926
3460330594,Avenida Paseo de los Olmos,19.9831458,-102.2479789
2985479133,Avenida Paseo de los Olmos,19.9838928,-102.2488344
2985478911,Avenida Paseo de los Olmos,19.9844751,-102.2496131
2985478907,Avenida Paseo de los Olmos,19.9851108,-102.2506182
8408126575,Innominada,19.9505344,-102.3305212
6611045549,Calle Libramiento Sur,19.9496778,-102.3299621
6611045551,Calle Libramiento Sur,19.9480765,-102.3293915
6611024452,Calle Libramiento Sur,19.9471232,-102.3290662
1387300148,Calle Libramiento Sur,19.9461872,-102.3286388
1387300142,Calle Libramiento Sur,19.9452973,-102.3279831
4576326519,Calle Libramiento Sur,19.9430067,-102.3260646
4575493441,Calle Libramiento Sur,19.9407767,-102.3242246
1262240203,Calle Libramiento Sur,19.9398949,-102.3233961
1262240184,Calle Libramiento Sur,19.9390414,-102.3227628
6610967506,Calle Libramiento Sur,19.9381862,-102.3221856
1262240161,Calle Libramiento Sur,19.9370753,-102.3218002
1262240207,Buenavista Tomatlán - Jacona,19.9371714,-102.3203667
8496057373,Buenavista Tomatlán - Jacona,19.9378625,-102.3195162
3725217358,Avenida Francisco I. Madero,19.9394443,-102.3187474
3725217355,Avenida Francisco I. Madero,19.9402036,-102.3180762
3725217352,Avenida Francisco I. Madero,19.9407559,-102.3172152
3725217350,Avenida Francisco I. Madero,19.9413342,-102.3160035
8496057365,Avenida Francisco I. Madero,19.9419167,-102.3147525
3429315042,Avenida Francisco I. Madero,19.9424435,-102.313814
3725354674,Avenida Francisco I. Madero,19.9432471,-102.312313
4705646598,Avenida Francisco I. Madero,19.9444327,-102.3111267
299801975,Avenida Francisco I. Madero,19.9454178,-102.3101748
1262240148,Avenida Francisco I. Madero,19.9470504,-102.3093571
4481569183,Avenida Francisco I. Madero,19.9478297,-102.3088643
1262240178,Avenida Francisco I. Madero,19.9485587,-102.3082445
6611021541,Avenida Francisco I. Madero,19.9492379,-102.3076018
2935029136,Avenida Francisco I. Madero,19.950944,-102.3070171
2935029134,Avenida Francisco I. Madero,19.9519872,-102.3068911
2935029135,Avenida Francisco I. Madero,19.9531341,-102.3067902
2935023113,Avenida Morelos Sur,19.9546186,-102.3062597
2935035192,Avenida Morelos Sur,19.9557005,-102.3058113
2935028130,Avenida Morelos Norte,19.9572026,-102.3051593
2935018053,Avenida Morelos Norte,19.958933,-102.3044831
2935025037,Avenida Morelos Norte,19.9598649,-102.3040687
8503543268,Avenida Morelos Norte,19.9609392,-102.3036215
2935007241,Avenida Morelos Norte y Calle Lerdo de Tejada Poniente,19.9622155,-102.3030593
6817790039,Avenida Morelos Norte,19.9631928,-102.3026513
2934991668,Avenida Morelos Norte,19.9641191,-102.3022551
1659438996,Avenida Morelos Norte,19.9652314,-102.3014283
12976013946,Avenida Morelos Norte,19.9659147,-102.3007833
1659438953,Calzada Zamora-Jacona y Calle Constitución Norte,19.9665552,-102.3001038
8477808955,Calzada Zamora-Jacona,19.9672204,-102.2992775
10024973219,Calzada Zamora-Jacona,19.9681762,-102.2984834
6638748384,Calzada Zamora-Jacona,19.9698989,-102.2970554
11430163568,Calzada Zamora-Jacona,19.9707278,-102.2964226
6638749386,Calzada Zamora-Jacona,19.9715905,-102.2957966
1659438906,Calzada Zamora-Jacona,19.9724426,-102.2951212
1659438982,Calzada Zamora-Jacona,19.9732631,-102.2944321
12282243110,Calzada Zamora-Jacona,19.9742275,-102.2936288
11430225969,Calzada Zamora-Jacona,19.9751948,-102.2928233
8478572686,Avenida Francisco I. Madero Sur,19.9759679,-102.2921916
1659962656,Avenida Francisco I. Madero Sur,19.9768203,-102.2916415
1659968284,Avenida Francisco I. Madero Sur,19.9778685,-102.2910001
2003530943,Avenida Francisco I. Madero Sur,19.9788044,-102.2904257
1659971338,Avenida Francisco I. Madero Sur y Martínez de Navarrete Oriente y Calle Martínez de Navarrete,19.9800604,-102.2896754
2003822108,Martínez de Navarrete Oriente,19.9795567,-102.2881839
2003822112,Martínez de Navarrete Oriente,19.9795717,-102.2872153
2003822094,Martínez de Navarrete Oriente,19.9793072,-102.2861275
8495881788,Martínez de Navarrete Oriente,19.9790481,-102.2850655
2003530940,Innominada,19.9787986,-102.2841239
1942784148,Avenida Benito Juárez Oriente,19.987838,-102.2818867
1659365066,Avenida Benito Juárez Oriente,19.9881846,-102.2829128
1659354036,Avenida Benito Juárez Oriente,19.9885482,-102.2842167
299800201,Avenida Benito Juárez Oriente y Avenida Francisco I. Madero Norte y Avenida Benito Juárez Poniente,19.9888954,-102.2853754
1659353980,Avenida Francisco I. Madero Norte,19.9903352,-102.2847306
299800203,Avenida Francisco I. Madero Norte,19.9916161,-102.2841325
299800204,Avenida Francisco I. Madero Norte,19.9927592,-102.2837615
2000658090,Avenida Francisco I. Madero Norte,19.994528,-102.2840019
8460964717,Avenida Francisco I. Madero Norte,19.995442,-102.2840699
8460920613,Avenida Francisco I. Madero Norte,19.9965411,-102.2841948
8460965557,Avenida Francisco I. Madero Norte,19.9978517,-102.2841498
8460920607,Avenida Francisco I. Madero Norte,19.99923,-102.2839499
8460920582,Avenida Francisco I. Madero Norte,20.0001831,-102.2838058
2975070456,Avenida Francisco I. Madero Norte,20.0013089,-102.283568
6610076829,Avenida Francisco I. Madero Norte,20.002273,-102.2834348
2975070465,Avenida Francisco I. Madero Norte,20.0033226,-102.2832929
2975070467,Avenida Francisco I. Madero Norte,20.0042418,-102.2831673
2975070463,Avenida Francisco I. Madero Norte,20.0051989,-102.2830365
2975070461,Avenida Francisco I. Madero Norte,20.006473,-102.2828624
2975070459,Avenida Francisco I. Madero Norte,20.0074265,-102.2827322
12289580403,Calle Santiago,20.0079083,-102.2833415
2226944870,Calle Santiago,20.0081858,-102.284392
2226944880,Calle Santiago,20.0087632,-102.2854542
2226944877,Calle Santiago,20.0088864,-102.2868837
2961979733,Calle Valencia,20.0089537,-102.2887796
2961979737,Calle Valencia y Calle Valladolid y Calle de Aragón,20.0089661,-102.2900544
2961979735,Calle Valencia,20.0089784,-102.291316
8498978249,Calle Valencia,20.0090139,-102.2925746
2961969616,Valencia,20.0090239,-102.2939092
2961974560,Valencia,20.0090202,-102.2949052
2226944875,Valencia y Calle Labastida,20.0090192,-102.2955875
6610019324,Calle Labastida,20.0080547,-102.2957121
2961974557,Avenida Barcelona,20.0074955,-102.2953906
2961974566,Avenida Barcelona,20.0075067,-102.2941373
2960778594,Avenida Barcelona,20.0074828,-102.2930738
2960899153,Avenida Barcelona,20.0073367,-102.2920584
2961957304,Avenida Barcelona,20.0071533,-102.2908959
2961957301,Avenida Valladolid,20.0076296,-102.2902655
2960751088,Avenida Valladolid y Calle Valencia y Calle Valladolid,20.0088425,-102.2900671
2961991666,Calle Valencia,20.0088948,-102.2887793
2961957737,Calle Valencia,20.0088753,-102.2878137
6610076833,Calle Santiago,20.0088313,-102.2861317
8495905127,Calle Santiago,20.0084391,-102.284858
12289580407,Calle Santiago,20.0080701,-102.283954
2975075888,Calle Santiago y Avenida Francisco I. Madero Norte,20.0077963,-102.2829177
2975075519,Avenida Francisco I. Madero Norte,20.0068047,-102.2830574
2975075517,Avenida Francisco I. Madero Norte,20.0055186,-102.2832386
2975075513,Avenida Francisco I. Madero Norte,20.0042346,-102.2834237
3219341015,Avenida Francisco I. Madero Norte,20.0029519,-102.2836056
2975075511,Avenida Francisco I. Madero Norte,20.0016459,-102.2837907
3219340997,Avenida Francisco I. Madero Norte,20.0002213,-102.2839955
8495685366,Avenida Francisco I. Madero Norte,19.9992424,-102.2840452
8460965558,Avenida Francisco I. Madero Norte,19.9982065,-102.2841941
8427765814,Avenida Francisco I. Madero Norte,19.996984,-102.2843315
2000658106,Avenida Francisco I. Madero Norte,19.9959802,-102.2842464
8428255954,Innominada,19.9950133,-102.2841974
2000658102,Ferrocarril Poniente,19.995467,-102.2853934
2000658093,Ferrocarril Poniente y Avenida Pino Suárez Norte,19.9947696,-102.2846603
1659365002,Avenida Pino Suárez Norte,19.9939493,-102.2851675
1659365081,Avenida Pino Suárez Norte,19.9925282,-102.2858974
1659365073,Avenida Pino Suárez Norte y Calle López Rayón,19.9911997,-102.2864711
1659365096,Avenida Pino Suárez Norte,19.9902398,-102.2868855
6610158745,Calle Leonardo Castellanos Oriente,19.9796405,-102.2849035
8430899782,Avenida Francisco I. Madero Sur,19.9818831,-102.288812
8430626879,Avenida Francisco I. Madero Sur,19.9808847,-102.2894566
8430626877,Avenida Francisco I. Madero Sur,19.9798834,-102.2901195
1942784092,Avenida Francisco I. Madero Sur,19.9786488,-102.2908446
1659377384,Avenida Francisco I. Madero Sur y Calzada Zamora-Jacona y Virrey de Mendoza,19.9760719,-102.2926964
2946851979,Calzada Zamora-Jacona,19.9749542,-102.2936391
10024973223,Calzada Zamora-Jacona,19.973595,-102.2947576
1985888792,Calzada Zamora-Jacona,19.9728232,-102.2953548
10024973224,Calzada Zamora-Jacona,19.9720708,-102.2959632
8475606783,Calzada Zamora-Jacona,19.9710964,-102.2967441
8478028643,Calzada Zamora-Jacona,19.9698636,-102.2977151
2946851975,Calzada Zamora-Jacona,19.9691308,-102.2982795
2946869733,Calzada Zamora-Jacona,19.9681108,-102.2991039
11430225979,Calzada Zamora-Jacona,19.9672171,-102.2997821
2957827041,Calle Constitución Norte,19.9655209,-102.3005119
2946898637,Calle Constitución Norte,19.9638976,-102.3010806
2935004927,Calle Constitución Norte,19.9628911,-102.3014702
2935004919,Calle Constitución Norte,19.9619585,-102.3021892
2935018219,Calle Constitución Norte,19.9610988,-102.3026167
3165783866,Calle Constitución Norte,19.9595394,-102.3032092
2935004923,Calle Constitución Norte,19.9586088,-102.3036153
2935004924,Calle Constitución Norte y Calle Zaragoza Oriente,19.9569297,-102.3043604
2935004926,Calle Constitución Norte y Calle Amado Nervo Oriente,19.9560732,-102.3050962
2935025027,Avenida Morelos Sur,19.9547253,-102.3062233
2935028397,Avenida Morelos Sur,19.9538713,-102.3065824
2957960309,Avenida Francisco I. Madero,19.9524238,-102.3068517
2935029137,Avenida Francisco I. Madero,19.9514446,-102.3069439
299801976,Avenida Francisco I. Madero,19.9499162,-102.3071503
2957960305,Avenida Francisco I. Madero,19.9491088,-102.3077195
4481573388,Avenida Francisco I. Madero,19.9457823,-102.3099891
3429315081,Avenida Francisco I. Madero y Calle 2 de Abril Poniente,19.94504,-102.31055
3725354678,Avenida Francisco I. Madero y Calle 18 de Julio Oriente,19.943812,-102.3117056
3725333178,Avenida Francisco I. Madero,19.9427405,-102.3131312
3429315034,Avenida Francisco I. Madero,19.9422704,-102.3144126
3429315022,Avenida Francisco I. Madero,19.9417028,-102.315665
6610967500,Avenida Francisco I. Madero,19.9409534,-102.3173006
2957976260,Avenida Francisco I. Madero,19.9403056,-102.3182592
1262240150,Avenida Francisco I. Madero,19.9395285,-102.3189378
299801973,Avenida Francisco I. Madero y Jacona - Buenavista Tomatlán,19.9384278,-102.3193728
6820725269,Innominada,19.9376453,-102.3199399
1262240190,Calle Libramiento Sur,19.9378891,-102.3211783
4705646441,Calle Libramiento Sur,19.938506,-102.3219275
1262240140,Calle Libramiento Sur,19.9392047,-102.3226131
6616619720,Calle Libramiento Sur y Calle La Paz,19.9425618,-102.3256791
6610936084,Calle Libramiento Sur,19.9449096,-102.327657
6610847714,Calle Libramiento Sur,19.9460965,-102.3285869
6611045547,Calle Libramiento Sur,19.9492794,-102.329826
8408126604,Calle Libramiento Sur,19.9506221,-102.3302811
8498892088,Libramiento Zamora-Jacona Norte,20.0191982,-102.2510487
8457269421,Libramiento Zamora-Jacona Norte,20.0212508,-102.2547662
8457244761,Libramiento Zamora-Jacona Norte,20.02197,-102.25591
6871006645,Libramiento Zamora-Jacona Norte,20.0225234,-102.2567713
8457269419,Libramiento Zamora-Jacona Norte,20.0234105,-102.2581458
8457269418,Libramiento Zamora-Jacona Norte,20.0242144,-102.2594386
6871006647,Libramiento Zamora-Jacona Norte,20.0250133,-102.2606885
6606673155,Libramiento Zamora-Jacona Norte,20.0261479,-102.2624598
8457269417,Libramiento Zamora-Jacona Norte,20.0269638,-102.2637302
8457229216,Libramiento Zamora-Jacona Norte,20.0275182,-102.2646153
8457229215,Libramiento Zamora-Jacona Norte,20.0282641,-102.2658008
4463802883,Libramiento Zamora-Jacona Norte,20.0288178,-102.2666808
8457229214,Libramiento Zamora-Jacona Norte,20.0301465,-102.2687593
8457229213,Libramiento Zamora-Jacona Norte,20.0307917,-102.2697464
8457229212,Libramiento Zamora-Jacona Norte,20.0314922,-102.2708353
8457229211,Libramiento Zamora-Jacona Norte,20.0323087,-102.2721577
8431613044,Libramiento Zamora-Jacona Norte,20.0333128,-102.2738595
7856043222,Libramiento Zamora-Jacona Norte,20.0340109,-102.2752516
7856043215,Libramiento Zamora-Jacona Norte,20.034472,-102.2761448
7856043237,Libramiento Zamora-Jacona Norte,20.035003,-102.2771553
2975137305,Carretera Zamora-La Barca,20.0347059,-102.2778676
1884429861,Carretera Zamora-La Barca,20.0333596,-102.277954
1884429851,Carretera Zamora-La Barca,20.0319583,-102.2778189
1884429921,Carretera Zamora-La Barca,20.0304601,-102.2779551
2975137299,Carretera Zamora-La Barca,20.0286818,-102.2783396
3725493691,Carretera Zamora-La Barca,20.0270059,-102.2787244
2975148030,Carretera Zamora-La Barca,20.0260627,-102.2789315
2975137297,Carretera Zamora-La Barca,20.0246303,-102.2792552
6606651344,Carretera Zamora-La Barca,20.0214774,-102.2799879
2975137295,Carretera Zamora-La Barca,20.0175021,-102.2808661
2975085548,Carretera Zamora-La Barca,20.0164202,-102.2811106
2975139213,Carretera Zamora-La Barca,20.0154198,-102.2813355
8495685363,Carretera Zamora-La Barca,20.0139437,-102.2816692
8496445767,Avenida Francisco I. Madero Norte,20.0130498,-102.2818163
3219341053,Avenida Francisco I. Madero Norte,20.011476,-102.2822702
2975082099,Avenida Francisco I. Madero Norte,20.0102463,-102.2825182
6610076815,Avenida Francisco I. Madero Norte,20.0092679,-102.2826971
2975074601,Avenida Francisco I. Madero Norte y Calle Clavel,20.0079284,-102.2828984
2975075515,Avenida Francisco I. Madero Norte,20.0044628,-102.2832707
2947142824,Avenida Francisco I. Madero Norte,20.0029184,-102.2835094
2974004835,Avenida Francisco I. Madero Norte,20.0016381,-102.2836965
2975063332,Avenida Francisco I. Madero Norte,20.0002846,-102.2839037
2000658094,Avenida Francisco I. Madero Norte,19.9947946,-102.2841058
2000658085,Ferrocarril Oriente,19.9937891,-102.2825421
2000658068,Ferrocarril Oriente,19.9935502,-102.2815863
2000658055,Ferrocarril Oriente,19.9934281,-102.2804987
2000658071,Ferrocarril Oriente,19.9935504,-102.2792498
2945362284,Prolongación 5 de Mayo,19.9922796,-102.2787618
8414625903,Prolongación 5 de Mayo,19.9905443,-102.2791729
2003530965,Prolongación 5 de Mayo,19.9896904,-102.2794734
2003530963,Prolongación 5 de Mayo,19.9884552,-102.2801312
4576326505,Calle Libramiento Sur,19.9427004,-102.3258063
6610963950,Calle La Paz,19.9417401,-102.3265166
12303059333,Prolongación 5 de Mayo,19.9896361,-102.2795026
2945362275,Prolongación 5 de Mayo,19.9921906,-102.2787827
2003530967,Prolongación 5 de Mayo,19.9932324,-102.2784929
2000658079,Avenida Ferrocarril,19.99367,-102.2790314
8414617216,Avenida Ferrocarril,19.9935446,-102.2801329
12294259763,Avenida Ferrocarril,19.9935747,-102.2812201
2000658086,Avenida Ferrocarril,19.9938695,-102.2822004
8428255953,Avenida Ferrocarril,19.9944077,-102.2833423
1884470019,Avenida Francisco I. Madero Norte,19.9953179,-102.2840592
8460920603,Avenida Francisco I. Madero Norte,20.0011756,-102.2836737
8460920587,Avenida Francisco I. Madero Norte,20.0025933,-102.283489
8460920600,Avenida Francisco I. Madero Norte,20.0045693,-102.2831976
8460920586,Avenida Francisco I. Madero Norte,20.0059155,-102.2830324
8460920590,Avenida Francisco I. Madero Norte,20.0068524,-102.2828902
8460920599,Calle Clavel y Avenida Francisco I. Madero Norte,20.0077708,-102.2827484
8460920597,Avenida Francisco I. Madero Norte,20.0089484,-102.2825988
8460920583,Avenida Francisco I. Madero Norte,20.0100926,-102.2823755
8460920596,Avenida Francisco I. Madero Norte,20.0114372,-102.2820959
8460920595,Avenida Francisco I. Madero Norte,20.0130079,-102.2817492
8485728783,Carretera Zamora-La Barca,20.0140809,-102.2814506
8495685359,Carretera Zamora-La Barca,20.015382,-102.2811606
2975093704,Carretera Zamora-La Barca,20.0163454,-102.2809435
2975137296,Carretera Zamora-La Barca,20.0174617,-102.2806885
2975148028,Carretera Zamora-La Barca,20.0212248,-102.279829
2975148029,Carretera Zamora-La Barca,20.0234218,-102.2793272
6606653986,Carretera Zamora-La Barca,20.0243779,-102.2791162
8448707346,Carretera Zamora-La Barca,20.0255949,-102.2788201
8433213733,Carretera Zamora-La Barca,20.0270262,-102.2785023
2975137300,Carretera Zamora-La Barca,20.0286358,-102.2781363
6864821921,Carretera Zamora-La Barca,20.0298131,-102.2778682
2975137302,Carretera Zamora-La Barca,20.0307438,-102.2777214
6606651334,Carretera Zamora-La Barca,20.0316648,-102.2776575
2975137303,Carretera Zamora-La Barca,20.0326707,-102.2776662
6868454246,Carretera Zamora-La Barca,20.0335917,-102.2778736
1884429933,Carretera Zamora-La Barca,20.0345186,-102.2778527
6606706909,Libramiento Zamora-Jacona Norte,20.0348913,-102.277181
7856043214,Libramiento Zamora-Jacona Norte,20.0344418,-102.2761689
604967046,Libramiento Zamora-Jacona Norte,20.0327446,-102.2728846
8448828168,Libramiento Zamora-Jacona Norte,20.0319685,-102.2716266
6871006646,Libramiento Zamora-Jacona Norte,20.0236288,-102.2585117
6610334494,Innominada,20.0190294,-102.2511144
4576406695,Calle Estado de Sinaloa,19.9470435,-102.3179525
4576406763,Calle Estado de Sinaloa,19.947126,-102.3167364
4576402380,Calle Estado de Sinaloa,19.9471296,-102.3153977
4705646426,Calle Estado de Sinaloa,19.9475275,-102.3143109
6610951073,Calle 12 de Octubre,19.947739,-102.3134217
4576406740,Calle 12 de Octubre y Calle La Peñita y Calle Paseo de San Pablo,19.9473447,-102.3122538
6610951079,Calle La Peñita,19.9479955,-102.3113939
6611033999,Calle La Peñita,19.9483353,-102.3102978
6611034000,Calle La Peñita,19.9490961,-102.3096402
6611034001,Calle La Peñita,19.9493979,-102.3084689
2957960306,Calle Mariano Matamoros,19.9513525,-102.3081121
2957960307,Calle Mariano Matamoros,19.9522765,-102.3082174
2957960303,Calle Mariano Matamoros y Carretera Morelia - Jiquilpan,19.9533062,-102.3083063
2957960311,Carretera Morelia - Jiquilpan,19.9533208,-102.3071457
11926658564,Calle Santiago,20.0089181,-102.2872623
2961957332,Avenida Valladolid,20.007967,-102.290208
3219341036,Avenida Barcelona y Avenida Valladolid,20.0070753,-102.2903599
2961957302,Avenida Barcelona,20.0072276,-102.2913243
2961957313,Avenida Barcelona,20.0074231,-102.2926094
6610005525,Avenida Barcelona,20.0075118,-102.2937347
2961974561,Avenida Barcelona,20.0074949,-102.2948836
4576451536,Avenida Arquitectura,19.9491819,-102.3353935
4576451564,Bugambilias,19.948911,-102.3345497
4576451572,Bugambilias,19.9482201,-102.3337934
6611092692,Bugambilias,19.9475122,-102.3330096
4576451571,Bugambilias,19.9468298,-102.3322391
6610908083,Bugambilias,19.9460757,-102.3313411
6610847655,Innominada,19.9458779,-102.3306851
6610847711,Innominada,19.9465701,-102.3300489
1387300134,Calle Libramiento Sur,19.9474005,-102.3291674
3219341038,Avenida Francisco I. Madero Norte,20.0088716,-102.2825126
2975063639,Avenida Francisco I. Madero Norte,20.0100813,-102.2822806
2975077303,Avenida Francisco I. Madero Norte,20.0114178,-102.2820006
8485728772,Avenida Francisco I. Madero Norte,20.0124679,-102.2817831
8460920616,Avenida Francisco I. Madero Norte,20.0135123,-102.2815746
8485728790,Carretera Zamora-La Barca,20.0145686,-102.2813426
7856043240,Libramiento Zamora-Jacona Norte,20.035436,-102.2779954
7856043232,Libramiento Zamora-Jacona Norte,20.0360469,-102.2787693
604967042,Libramiento Zamora-Jacona Norte,20.0367707,-102.2793768
7856057968,Libramiento Zamora-Jacona Norte,20.0377415,-102.2802123
604967041,Libramiento Zamora-Jacona Norte,20.0385429,-102.2811243
604967087,Libramiento Zamora-Jacona Norte,20.0390846,-102.2819397
604970916,Libramiento Zamora-Jacona Norte,20.0395457,-102.282798
4773197995,Libramiento Zamora-Jacona Norte y Zamora-La Piedad,20.0399683,-102.2838707
7871261722,Zamora-La Piedad,20.0417229,-102.2835369
7871479596,Zamora-La Piedad,20.0428416,-102.2830367
7856141740,Zamora-La Piedad,20.0437374,-102.282633
6606679229,Zamora-La Piedad,20.0465649,-102.2813318
6868454243,Zamora-La Piedad,20.0480852,-102.2806513
6606704125,Zamora-La Piedad,20.0502478,-102.2796912
6606704130,Zamora-La Piedad,20.0515543,-102.279084
604967083,Zamora-La Piedad,20.0532132,-102.2783745
6606704136,Zamora-La Piedad,20.056012,-102.2770887
6641805970,Zamora-La Piedad,20.0604451,-102.2751258
8002386013,Zamora-La Piedad,20.0625891,-102.2741385
8743227369,Zamora-La Piedad,20.0638272,-102.2736244
6641850773,Zamora-La Piedad,20.065097,-102.2730603
6868397261,Zamora-La Piedad,20.0660304,-102.2726316
6868397258,Zamora-La Piedad,20.0671453,-102.2721365
6868397263,Zamora-La Piedad,20.0690668,-102.2712705
7026911388,Zamora-La Piedad,20.070007,-102.2708466
6867988986,Zamora-La Piedad,20.0713088,-102.2702286
7026911389,Zamora-La Piedad,20.0721492,-102.2698851
604967081,Zamora-La Piedad,20.0730055,-102.269512
1884429964,Zamora-La Piedad,20.0739552,-102.2691971
6641809082,Zamora-La Piedad,20.0751451,-102.2690311
1884429896,Zamora-La Piedad,20.0761458,-102.269
604967076,Zamora-La Piedad,20.0771962,-102.2690647
6868214928,Zamora-La Piedad,20.0781287,-102.269341
6868198630,Zamora-La Piedad,20.0791243,-102.2694649
1884429876,Zamora-La Piedad,20.0800166,-102.2697204
6641809532,Zamora-La Piedad,20.081619,-102.269184
8002386022,Zamora-La Piedad,20.0831426,-102.2685152
3748151293,Zamora-La Piedad,20.0852364,-102.2673284
3748151300,Zamora-La Piedad,20.0863149,-102.2666786
8002386024,Zamora-La Piedad,20.087153,-102.2661871
604967102,Zamora-La Piedad,20.0882582,-102.2655842
7962724790,Zamora-La Piedad,20.0892822,-102.2651564
6868198667,Zamora-La Piedad,20.0901242,-102.2648145
6868198666,Zamora-La Piedad,20.0910852,-102.2644403
6868198665,Zamora-La Piedad,20.0921186,-102.2642002
7962707781,Zamora-La Piedad,20.0930846,-102.2640641
6868198641,Zamora-La Piedad,20.0941772,-102.2639092
6641870998,Calle 16 de Septiembre,20.0947717,-102.2642103
6641870992,Calle 16 de Septiembre,20.0949131,-102.2650896
8499007460,Calle Labastida,20.0090171,-102.2957048
2961974562,Valencia,20.0090126,-102.2947349
2961969620,Valencia,20.009018,-102.2935244
8498978248,Calle Valencia,20.0089093,-102.29257
2961991664,Calle Valencia,20.0088966,-102.2913279
12337869800,Avenida Valladolid,20.0078754,-102.2902236
2960899142,Avenida Valladolid,20.0062706,-102.2904969
2960899136,Avenida Valladolid,20.0053819,-102.2906444
12337917151,Avenida Valladolid,20.0043696,-102.2908167
2960893909,Avenida Valladolid,20.0033935,-102.2909921
3219341007,Avenida Valladolid,20.0021648,-102.2911946
2960813046,Avenida Valladolid,20.0009651,-102.2913864
2960801177,Avenida Valladolid,19.9997638,-102.2915956
2961991115,Calle Oviedo y Atenas,19.998703,-102.2917753
4771926133,Calle Murcia,19.9985524,-102.2926718
2962037630,Calle Murcia y Calle Córdoba,19.9974075,-102.2933064
2962037605,Alfonso Iñiguez y Calle Guadalupe Victoria,19.9964668,-102.2932738
3206970199,Calle Guadalupe Victoria,19.9955462,-102.2938408
3206970193,Calle Guadalupe Victoria,19.9944825,-102.2944425
2962037606,Calle Guadalupe Victoria y Avenida Benito Juárez Poniente,19.9931889,-102.295187
6952743345,Avenida Benito Juárez Poniente,19.9926075,-102.2941736
2975172373,Avenida Benito Juárez Poniente,19.9917204,-102.2924734
2975172375,Avenida Benito Juárez Poniente,19.9912211,-102.2915164
2975172377,Avenida Benito Juárez Poniente,19.9906864,-102.2905335
2945282803,Avenida Benito Juárez Poniente,19.9898439,-102.2886229
6952101798,Calzada Zamora-Jacona,19.9662792,-102.30049
8477808943,Avenida Morelos Norte,19.9654481,-102.3012328
1262240139,Avenida Morelos Norte,19.9646281,-102.3019322
2934991667,Avenida Morelos Norte,19.9637662,-102.3024194
2935008316,Calle Abasolo Norte,19.9617339,-102.3042564
2935008317,Calle Abasolo Norte,19.9592256,-102.3053286
2935008319,Calle Abasolo Norte,19.958338,-102.3057209
2935008320,Calle Abasolo Norte,19.9574254,-102.30615
2935008322,Calle Abasolo Sur,19.9561043,-102.3065631
2935023116,Avenida Morelos Sur y Calle Miguel Hidalgo Poniente,19.955277,-102.3060011
3429315085,Calle 2 de Abril Poniente,19.9453447,-102.3120474
6610951084,Calle Paseo de San Pablo,19.9459477,-102.3128988
6610951083,Calle Paseo de San Pablo,19.9468712,-102.3126
6610951077,Calle 12 de Octubre,19.9475862,-102.3129305
4576406720,Calle Estado de Sinaloa,19.9477766,-102.3139458
4705646424,Calle Estado de Sinaloa,19.9471919,-102.3150161
4576406746,Calle Estado de Sinaloa,19.9473064,-102.3159485
4576406816,Calle Estado de Sinaloa,19.9469784,-102.3170959
4705646409,Calle Estado de Sinaloa,19.9469598,-102.3175109
6641870999,Zamora-La Piedad y Calle 16 de Septiembre,20.0947213,-102.2638361
6868198640,Zamora-La Piedad,20.0934014,-102.2640192
7962707783,Zamora-La Piedad,20.0923825,-102.2641613
6946115507,Zamora-La Piedad,20.0913214,-102.2643638
7962724793,Zamora-La Piedad,20.0883873,-102.2655219
8046848963,Zamora-La Piedad,20.0873558,-102.2660677
604967073,Zamora-La Piedad,20.0835141,-102.2683343
8002386021,Zamora-La Piedad,20.0823466,-102.268872
1884429892,Zamora-La Piedad,20.0807284,-102.2695739
1884429960,Zamora-La Piedad,20.0792468,-102.2694856
8002386016,Zamora-La Piedad,20.0783487,-102.2693977
1884429867,Zamora-La Piedad,20.0774237,-102.2691203
6867988989,Innominada,20.0734122,-102.2697531
6867988993,Innominada,20.0729726,-102.2708327
6867988998,Reforma,20.0731402,-102.2717996
6867989003,Reforma,20.0742802,-102.2720343
5413719931,Innominada,20.075121,-102.2718363
6867988999,Reforma,20.0732963,-102.2719525
6867988994,Innominada,20.0729209,-102.2710231
6867988991,Innominada,20.0733001,-102.270138
6641809228,Zamora-La Piedad,20.0676759,-102.2718986
604967082,Zamora-La Piedad,20.0667718,-102.2723039
8002386012,Zamora-La Piedad,20.0609653,-102.2748707
6868454242,Zamora-La Piedad,20.0482605,-102.2805734
6606679204,Zamora-La Piedad,20.044461,-102.2822602
7856141749,Zamora-La Piedad,20.043464,-102.2827645
604967085,Zamora-La Piedad,20.0423692,-102.2832486
7871261723,Zamora-La Piedad,20.040686,-102.284001
4773197984,Libramiento Zamora-Jacona Norte,20.0398578,-102.2835325
7856057971,Libramiento Zamora-Jacona Norte,20.0394072,-102.2825164
7856057969,Libramiento Zamora-Jacona Norte,20.0386764,-102.2813121
1262237396,Libramiento Zamora-Jacona Norte,20.0379683,-102.280435
7862004836,Libramiento Zamora-Jacona Norte,20.0372328,-102.2797566
7856043245,Libramiento Zamora-Jacona Norte,20.0363795,-102.2790743
1884429905,Carretera Zamora-La Barca,20.0353394,-102.2785259
7856141724,Carretera Zamora-La Barca,20.0344947,-102.2781833
3219341052,Avenida Francisco I. Madero Norte,20.0114517,-102.2821637
8460920592,Avenida Francisco I. Madero Norte,20.0101039,-102.282448
2974033667,Avenida Francisco I. Madero Norte,20.0090694,-102.2826411
2975074602,Avenida Francisco I. Madero Norte y Calle Clavel,20.0079144,-102.2828141
8460920589,Avenida Francisco I. Madero Norte,20.0059883,-102.2830944
6611092693,Calle Economía,19.9467301,-102.333346
6611092700,Calle Economía,19.9460597,-102.3339971
6610976683,Avenida Arquitectura,19.9458155,-102.3347028
6610976680,Avenida Arquitectura,19.9464546,-102.3354651
4576451574,Avenida Arquitectura,19.9485731,-102.335445
6610951078,Calle Paseo de San Pablo,19.9463008,-102.3128153
3429315082,Calle 2 de Abril Poniente,19.9451295,-102.3107847
2000509232,Avenida Benito Juárez Poniente y Calle Galeana Norte,19.9903938,-102.2897336
2946892305,Avenida Benito Juárez Poniente,19.991118,-102.2911916
2227033530,Avenida Benito Juárez Poniente,19.9915704,-102.2921026
2227023929,Avenida Benito Juárez Poniente y Alfonso Iñiguez,19.9922569,-102.2934055
2227023927,Alfonso Iñiguez y Calle López Rayón,19.9938932,-102.2933135
2962037602,Alfonso Iñiguez,19.995001,-102.2933051
2962037603,Alfonso Iñiguez,19.9959184,-102.293285
2227023925,Calle Córdoba y Alfonso Iñiguez,19.9973909,-102.2932281
4771926130,Calle Murcia,19.998217,-102.2928381
2960801172,Avenida Valladolid,19.9997074,-102.2915993
2960813049,Avenida Valladolid,20.0008126,-102.2914213
2960893900,Avenida Valladolid,20.0017719,-102.2912592
2960845187,Avenida Valladolid,20.0028567,-102.2910672
3219341023,Avenida Valladolid,20.003793,-102.2909211
3219341026,Avenida Valladolid,20.0051162,-102.2906885
2960751089,Avenida Valladolid,20.0061823,-102.2905115
2961986735,Calle San Agustín,20.0032374,-102.2958438
3219341016,Calle San Agustín,20.0030403,-102.2945294
6610005519,Calle Bilbao,20.0022524,-102.2940579
2960893917,Calle Alicante,20.0017225,-102.2936549
3219341002,Calle Alicante y Avenida Las Palmas,20.0015599,-102.2926109
3219341001,Avenida Valladolid y Calle Alicante,20.0013722,-102.2913221
2961957317,Calle Valencia,20.0088398,-102.2896118
2961957739,Calle Valencia,20.0088841,-102.2882563
8496268463,Calle Santiago,20.00892,-102.2872851
1659242420,Calle Pino Suárez Sur,19.9876552,-102.287721
1659354011,Calle Pino Suárez Sur,19.9867667,-102.2881046
1659364992,Calle Pino Suárez Sur,19.9857833,-102.288518
1942784128,Calle Pino Suárez Sur,19.9840299,-102.2891757
8430805399,Calle Pino Suárez Sur,19.9828563,-102.2897507
1659365080,Calle Pino Suárez Sur y Purepero Poniente,19.9819507,-102.2901134
8430626880,Avenida Francisco I. Madero Sur y Purepero Poniente,19.9815185,-102.2890579
6610967509,Calle Libramiento Sur,19.9384104,-102.321814
2975085546,Avenidas Las Torres,20.0162765,-102.2852204
2975085545,Avenidas Las Torres,20.0151862,-102.283825
2975085544,Avenidas Las Torres y Calle Cerro de Tancítaro,20.0139436,-102.2842785
6896160372,Avenida Francisco I. Madero Norte y Calle Cerro de Tancítaro,20.0131365,-102.2818036
2961957315,Calle Galicia,20.0081049,-102.2875011
2961957326,Calle Galicia,20.0071487,-102.2876562
2960778592,Avenida Barcelona,20.0068149,-102.288569
2960899145,Avenida Barcelona,20.0069547,-102.2895302
2960899149,Avenida Barcelona,20.0071378,-102.2907891
2960899150,Avenida Las Palmas,20.0068542,-102.2917042
2960899134,Avenida Las Palmas,20.0056638,-102.291917
2960893916,Avenida Las Palmas,20.0047614,-102.292071
3219341022,Avenida Las Palmas,20.0035857,-102.2922616
2960893880,Avenida Las Palmas,20.0023417,-102.2924685
2960813050,Avenida Las Palmas,20.0011666,-102.2926614
2960758276,Avenida Las Palmas y Calle Cartagena,19.9995903,-102.2929346
2960751087,Avenida Valladolid y Calle Oviedo y Calle Cartagena,19.9989622,-102.2917295
2227025717,Atenas y Calle Murcia,19.998994,-102.2923873
4771926122,Calle Murcia,19.9978612,-102.2930762
1884477074,Alfonso Iñiguez y Michoacán Poniente,19.9966173,-102.293272
1884477091,Alfonso Iñiguez,19.9952574,-102.2933002
2962037597,Alfonso Iñiguez,19.9941188,-102.2933026
2227008120,Calle López Rayón,19.9934506,-102.2925073
2227033528,Calle López Rayón,19.9929295,-102.2914369
2946892304,Calle López Rayón,19.9925037,-102.2904742
3219340911,Calle López Rayón,19.9920995,-102.2894311
2946894243,Calle López Rayón,19.9917836,-102.2884016
6610179036,Calle López Rayón,19.9915189,-102.2874838
8475511671,Avenida Virrey de Mendoza Oriente,19.975837,-102.2916727
1659962640,Avenida Virrey de Mendoza Oriente,19.9757096,-102.2905662
1659962628,Avenida Virrey de Mendoza Oriente,19.9755407,-102.2891938
6952526725,Avenida Educación,19.9740982,-102.288381
6952526728,Avenida Educación,19.9731125,-102.2886551
6952526727,Avenida Educación,19.9720515,-102.2889581
2946835055,Educación,19.9705875,-102.2893247
2946835058,Río Mayo,19.9693988,-102.2887355
6638741466,Calle Río Mayo,19.9686066,-102.2874744
6610967507,Innominada,19.9383043,-102.3220845
1262240181,Calle Libramiento Sur,19.9373878,-102.3219462
12337917176,Avenida Valladolid,20.004206,-102.2908464
2960845185,Avenida Valladolid,20.0030243,-102.2910351
2960893895,Calle Alicante,20.0014805,-102.2921616
2960893883,Calle Alicante,20.0016721,-102.2932559
8499202107,Calle San Agustín,20.0029884,-102.294019
3219341018,Calle San Agustín,20.003105,-102.2949709
3219341020,Calle San Agustín,20.0033063,-102.2962609
2961986509,Calle Labastida,20.0046147,-102.2966221
8499430381,Calle Labastida,20.0052868,-102.2964283
2945120270,Calle Río Mayo y Prolongación Salubridad,19.9682888,-102.2865029
2946835064,Prolongación Salubridad,19.9693634,-102.2864419
2946835062,Prolongación Salubridad,19.9707165,-102.2863601
2958122391,Avenida Salubridad,19.9716952,-102.2862959
2958123442,Avenida Salubridad,19.97267,-102.2862236
2958123466,Avenida Salubridad,19.9736598,-102.2861502
2003822077,Avenida Salubridad y Calle Recursos Hidráulicos,19.9745625,-102.2860797
2003822082,Avenida Virrey de Mendoza Oriente,19.9751727,-102.2865274
1659353963,Calle Galeana Norte,19.9914614,-102.2891758
6823065033,Alfonso Iñiguez,19.9951639,-102.2933051
2960801174,Calle Cartagena,19.9993731,-102.2925224
3219340999,Avenida Las Palmas,20.000325,-102.2928139
3219341019,Avenida Las Palmas,20.0032014,-102.2923268
2960893920,Avenida Las Palmas,20.0044221,-102.2921271
2960893925,Avenida Las Palmas,20.0053226,-102.2919739
3219341031,Avenida Las Palmas,20.0064733,-102.291787
2961957322,Avenida Barcelona,20.0068866,-102.2890623
2960778595,Calle Galicia y Avenida Barcelona,20.0066813,-102.2877321
6638980294,Calle Miguel Hidalgo,19.9337219,-102.2535431
6638965293,Calle Miguel Hidalgo,19.932624,-102.2535104
6638965294,Calle Miguel Hidalgo y Constitución,19.9317137,-102.2538393
6638980309,Constitución,19.9320426,-102.2547849
3139357274,Constitución,19.9323396,-102.2557473
3139357268,Constitución,19.9326213,-102.2572875
3139357266,Constitución,19.9328759,-102.2582477
3139357263,Constitución,19.9334795,-102.2600528
3139357262,Constitución,19.9337894,-102.2611761
2972559211,Constitución y Jacona-El Platanal,19.9348074,-102.2658947
2972559208,Jacona-El Platanal,19.935312,-102.2672488
6638788692,Jacona-El Platanal,19.9358418,-102.2680485
2972559203,Jacona-El Platanal,19.9366344,-102.2699401
2972559201,Jacona-El Platanal,19.9371006,-102.2712329
2972559199,Jacona-El Platanal,19.937213,-102.2724172
2972559196,Jacona-El Platanal,19.9372,-102.2735258
2972559193,Jacona-El Platanal,19.9374981,-102.2749
2972559190,Jacona-El Platanal,19.9381284,-102.2759251
2972559187,Jacona-El Platanal,19.9391103,-102.2764605
2972559183,Jacona-El Platanal,19.9403491,-102.2774287
2972559180,Jacona-El Platanal,19.9422811,-102.2794995
2972559174,Jacona-El Platanal,19.9436972,-102.2797322
2972559169,Jacona-El Platanal,19.9446523,-102.2804127
2972559167,Jacona-El Platanal,19.9450685,-102.2814848
2972559164,Jacona-El Platanal,19.9459135,-102.282356
8417235145,Jacona-El Platanal,19.9470626,-102.2828236
2972559160,Jacona-El Platanal,19.9481606,-102.2832261
2972559155,Jacona-El Platanal,19.9487414,-102.2839334
6638403503,Jacona-El Platanal,19.949322,-102.2858979
6638403524,Jacona-El Platanal,19.9496495,-102.2870547
6638403527,Jacona-El Platanal,19.9500965,-102.2887498
6638450488,Jacona-El Platanal,19.9504077,-102.28993
2972559152,Jacona-El Platanal,19.9507363,-102.2909748
6638403563,Jacona-El Platanal,19.9517434,-102.2920567
2957907418,Jacona-El Platanal y Avenida Isabel La Católica,19.9526528,-102.2933198
2957914615,Avenida Isabel La Católica,19.9530641,-102.294391
2957914609,Avenida Isabel La Católica,19.9534376,-102.2954215
2957931210,Avenida Isabel La Católica,19.9538832,-102.2967782
8503380361,Avenida Isabel La Católica,19.9541916,-102.2978369
2957907427,Avenida Isabel La Católica,19.9544964,-102.2990924
6817790047,Avenida Isabel La Católica,19.9544329,-102.3007005
2957879994,Javier Mina,19.9552049,-102.3010359
2957879986,Javier Mina,19.9561684,-102.3007282
2957879987,Javier Mina,19.9573054,-102.3003392
2935018059,Calle Arista Oriente,19.9577097,-102.3013535
2935018054,Calle Arista Oriente y Álvaro Obregón Norte,19.9583163,-102.3027743
2935028131,Álvaro Obregón Norte y Calle Zaragoza Oriente,19.9566394,-102.3034554
2935004928,Álvaro Obregón Norte y Calle Amado Nervo Oriente,19.9555477,-102.3039302
2226981218,Calle Juan de la Barrera,19.9924413,-102.2924725
1884477076,Calle Juan de la Barrera,19.9941589,-102.2913676
2226985527,Calle Juan de la Barrera y Michoacán Poniente,19.9951982,-102.2907136
2227028761,Michoacán Poniente,19.9957353,-102.2917307
3206970201,Michoacán Poniente,19.9962086,-102.2925818
2961979744,Calle de Aragón,20.0101154,-102.2897544
2961979756,Calle de Salamanca,20.0106713,-102.2904262
3219341048,Calle de Salamanca,20.0109741,-102.2916736
2227040826,Calle Castilla,20.0116457,-102.2924948
2961966285,Calle Castilla y Avenida Real Valencia,20.0117749,-102.2924902
2961966282,Avenida Real Valencia,20.0119726,-102.2926663
2227040832,Calle de Salamanca y Calle Castilla,20.0111694,-102.2925176
2961979764,Calle de Salamanca,20.0108828,-102.2912814
2961979758,Calle de Salamanca,20.0105946,-102.2900643
2961979740,Calle de Aragón,20.0097226,-102.2898562
6817790050,Calle Zaragoza Oriente,19.9561937,-102.3020084
2935028139,Javier Mina y Calle Zaragoza Oriente,19.9557526,-102.300929
2957879997,Javier Mina,19.9548412,-102.3010545
6952225558,Calle Isabel La Católica,19.9544562,-102.2995694
6952225559,Calle Isabel La Católica,19.9543035,-102.2983467
2957907422,Avenida Isabel La Católica,19.9539334,-102.2969612
2957931207,Avenida Isabel La Católica,19.9536427,-102.2959345
2957914617,Avenida Isabel La Católica,19.9532438,-102.2948983
2957907419,Avenida Isabel La Católica,19.9528709,-102.2938841
2972559147,Jacona-El Platanal,19.9523657,-102.2926231
2972559149,Jacona-El Platanal,19.9510726,-102.2914627
6638448499,Jacona-El Platanal,19.9489671,-102.284689
2972559157,Jacona-El Platanal,19.9486381,-102.2836223
6638448549,Jacona-El Platanal,19.9477434,-102.2830502
6638448571,Jacona-El Platanal,19.9467007,-102.2827032
2972559165,Jacona-El Platanal,19.9451797,-102.2817218
2972559168,Jacona-El Platanal,19.9448587,-102.2808112
2972559172,Jacona-El Platanal,19.9442333,-102.2798996
2972559177,Jacona-El Platanal,19.942907,-102.2797646
6638788736,Jacona-El Platanal,19.9360404,-102.268412
6638788689,Jacona-El Platanal,19.9354787,-102.2675013
8439817515,Constitución,19.9339072,-102.261689
3139357265,Constitución,19.9330953,-102.2589625
3139357271,Constitución,19.9323931,-102.2562857
6638813160,Constitución,19.9320766,-102.2553268
6638965291,Constitución,19.9317728,-102.2543605
6638980310,Calle Miguel Hidalgo,19.9339476,-102.2534318
2985373760,Calle Morelos,20.0280976,-102.357297
2985373757,Calle Morelos,20.0282012,-102.3561707
6864369305,Calle Francisco I. Madero,20.0283649,-102.3548824
8437117460,Calle Francisco I. Madero,20.028035,-102.3531053
2985275923,Calle Francisco I. Madero,20.027757,-102.3520547
2985333628,Calle Francisco I. Madero,20.0274843,-102.3509288
2985237603,Calle Francisco I. Madero,20.0271308,-102.3496742
2985237616,Calle Francisco I. Madero,20.0268304,-102.3486746
2985237617,Calle Francisco I. Madero,20.0263235,-102.3470056
2985245240,Calle Francisco I. Madero,20.0257852,-102.345231
2985122430,Calle Francisco I. Madero y Avenida Juárez Eje Poniente,20.0254379,-102.3440843
2985129887,Avenida Juárez Eje Poniente,20.0249578,-102.3430967
8414665040,Avenida Juárez Eje Poniente,20.0238919,-102.3423135
2985353501,Avenida Juárez Eje Poniente,20.0226356,-102.3413586
6606540745,Avenida Juárez Eje Poniente,20.0213718,-102.3404145
8407149566,Avenida Juárez Eje Poniente,20.0195875,-102.339111
6606520479,Avenida Juárez Eje Poniente,20.0188264,-102.3385182
8414665038,Avenida Juárez Eje Poniente,20.0179545,-102.3378825
8407149569,Avenida Juárez Eje Poniente,20.0167675,-102.3369277
8407149570,Avenida Juárez Eje Poniente,20.0155779,-102.3359755
8407149571,Avenida Juárez Eje Poniente,20.0146202,-102.335203
1387296986,Avenida Juárez Eje Poniente,20.0139272,-102.3343071
6606563944,Avenida Juárez Eje Poniente,20.013378,-102.333477
8437604485,Avenida Juárez Eje Poniente,20.0120748,-102.3308364
8437604486,Avenida Juárez Eje Poniente,20.0115027,-102.3296696
8437604489,Avenida Juárez Eje Poniente,20.0109583,-102.3287416
8437709291,Avenida Juárez Eje Poniente,20.0101468,-102.3278698
1387296540,Avenida Juárez Eje Poniente,20.0066673,-102.324224
1387296948,Avenida Juárez Eje Poniente y Zeus,20.006838,-102.323215
3460340063,Avenida Juárez Eje Poniente,20.0064946,-102.3220813
4772001226,Avenida Juárez Eje Poniente,20.0060684,-102.3207191
4772000897,Avenida Juárez Eje Poniente y Calle Luis Méndez,20.0054477,-102.3186448
2985110191,Avenida Juárez Eje Poniente,20.0051242,-102.3175636
3460339982,Avenida Juárez Eje Poniente y Avenida Lázaro Cárdenas,20.0045278,-102.3160897
3460339946,Avenida Juárez Eje Poniente,20.0032232,-102.3138739
8499390811,Avenida Juárez Eje Poniente,20.0022162,-102.3121173
2985110190,Avenida Juárez Eje Poniente,20.0006097,-102.3093344
8499358102,Avenida Juárez Eje Poniente,20.0000907,-102.3083844
2985110188,Avenida Juárez Eje Poniente,19.9994566,-102.3071659
3429251744,Avenida Juárez Eje Poniente,19.9982972,-102.3049289
3429251737,Avenida Juárez Eje Poniente y Calle Toma de Tixtla,19.9975133,-102.3034416
3429251724,Avenida Juárez Eje Poniente y Calle Sitio de Coscomatepec,19.9965282,-102.3016094
3429251704,Avenida Juárez Eje Poniente,19.9958866,-102.3003826
4771926156,Avenida Juárez Eje Poniente,19.9953456,-102.2993121
8520040439,Avenida Juárez Eje Poniente,19.9945559,-102.2978256
2975169907,Avenida Benito Juárez Poniente,19.9936734,-102.2962166
6810246709,Avenida Benito Juárez Poniente,19.9931865,-102.2952833
2945291543,Avenida Benito Juárez Oriente,19.987115,-102.2797651
8431267577,Avenida Benito Juárez Oriente,19.9848613,-102.2778782
6465849952,Avenida Benito Juárez Oriente,19.9835569,-102.2768184
8345728261,Avenida Benito Juárez Oriente,19.9817495,-102.2753641
6818027591,Avenida Benito Juárez Oriente,19.9803358,-102.2742536
3219340884,Avenida del Bosque y Avenida Benito Juárez Oriente,19.9785703,-102.2728558
8523232939,Innominada,19.9736013,-102.2685564
6813086406,Innominada,19.9742832,-102.2691274
2960587629,Avenida Benito Juárez Oriente,19.9800683,-102.2738017
2960595189,Avenida Benito Juárez Oriente,19.9810097,-102.2745538
6818027593,Avenida Benito Juárez Oriente,19.9817546,-102.275149
2002146999,Avenida Benito Juárez Oriente,19.9830033,-102.2761474
1659224257,Avenida Benito Juárez Oriente,19.9840177,-102.2769393
2002147073,Avenida Benito Juárez Oriente,19.9850345,-102.2777699
2002147120,Avenida Benito Juárez Oriente,19.9859036,-102.2784635
8417814559,Avenida Benito Juárez Oriente,19.9866969,-102.279124
1942784150,Avenida Pino Suárez Norte y Pino Suárez Sur y Avenida Benito Juárez Poniente,19.9894681,-102.2871878
2000509227,Doctor Verduzco y Avenida Benito Juárez Poniente,19.9897759,-102.2882142
2962037600,Avenida Benito Juárez Poniente,19.9929357,-102.2946996
2962037608,Avenida Benito Juárez Poniente,19.9934641,-102.2957069
2962037613,Avenida Benito Juárez Poniente,19.9939903,-102.2967101
2000509239,Avenida Benito Juárez Poniente,19.9944703,-102.2976252
2985110189,Avenida Juárez Eje Poniente,19.9982241,-102.3047881
3429251748,Avenida Juárez Eje Poniente,19.9991164,-102.3064993
8499887593,Avenida Juárez Eje Poniente,19.9997453,-102.3077206
8499382527,Avenida Juárez Eje Poniente,20.0003325,-102.3088489
8522958617,Avenida Juárez Eje Poniente,20.0030331,-102.3135489
8522958620,Avenida Juárez Eje Poniente,20.0041071,-102.3153887
1387296638,Avenida Juárez Eje Poniente,20.0048411,-102.3167067
4772000906,Avenida Juárez Eje Poniente,20.0053619,-102.3183488
4772001221,Avenida Juárez Eje Poniente,20.0058312,-102.3199381
4772001234,Avenida Juárez Eje Poniente,20.0062801,-102.3213816
6606417200,Avenida Juárez Eje Poniente,20.0098885,-102.3275999
8437604490,Avenida Juárez Eje Poniente,20.0106559,-102.3284358
8437604487,Avenida Juárez Eje Poniente,20.0113389,-102.3292995
6606540746,Avenida Juárez Eje Poniente,20.0212281,-102.3403153
8414665039,Avenida Juárez Eje Poniente,20.0222639,-102.3411012
2985353499,Avenida Juárez Eje Poniente,20.0235062,-102.3420198
2985353497,Avenida Juárez Eje Poniente,20.0243354,-102.3426542
2985129888,Avenida Juárez Eje Poniente,20.025119,-102.3432911
2985254440,Calle Francisco I. Madero,20.0255543,-102.3444687
2985150912,Calle Francisco I. Madero,20.0260755,-102.3461893
2985150918,Calle Francisco I. Madero,20.0265797,-102.3478493
2985237601,Calle Francisco I. Madero,20.0270897,-102.3495283
8437117463,Calle Francisco I. Madero,20.0273486,-102.3504471
6606616373,Calle Francisco I. Madero,20.0283411,-102.3542987
1387296738,Calle Morelos y Calle Francisco I. Madero,20.02831,-102.3554389
8437841182,Calle Morelos,20.0287997,-102.3596548
1387296676,Calle Morelos,20.0293603,-102.3613103
8436894876,Calle Morelos,20.0301377,-102.3626634
1387296979,Calle Morelos,20.0303746,-102.3636706
8436894879,Calle Morelos,20.0299752,-102.3654637
1387296880,Calle Morelos,20.0299603,-102.3675363
7819576134,Calle Morelos,20.029737,-102.3687668
1387296757,Calle Morelos,20.0295092,-102.3697076
1387296605,Calle Morelos,20.0293093,-102.371242
7819796141,Calle Morelos,20.0280847,-102.3753497
6606354672,Calle Morelos,20.027444,-102.3774184
6606354670,Calle Morelos,20.0268214,-102.3793253
5851311727,Avenida Lázaro Cárdenas,20.0269026,-102.3801133
5851310734,Avenida Lázaro Cárdenas,20.0281912,-102.3794513
5851311689,Avenida Lázaro Cárdenas,20.0291417,-102.3789457
5851311726,Avenida Lázaro Cárdenas,20.0302448,-102.3783759
5851311717,Calle J. Refugio Ríos y Avenida Lázaro Cárdenas,20.0306422,-102.3782569
5851310757,Calle J. Refugio Ríos,20.0308537,-102.3793429
7819576128,Calle J. Refugio Ríos,20.0308546,-102.3805873
5851310735,Calle J. Refugio Ríos,20.0307184,-102.3824342
7819796140,Calle J. Refugio Ríos,20.0306077,-102.3834023
1387296925,Calle J. Refugio Ríos y Calle Morelos,20.0297491,-102.3864675
7819796136,Calle Morelos,20.0293377,-102.3878212
6606632360,Calle Morelos,20.0282192,-102.391451
1387296756,Calle Morelos,20.0268254,-102.3960535
7819796171,Calle Morelos,20.0268907,-102.3969823
1387296848,Calle Morelos,20.0284909,-102.3977762
1387296818,Calle Morelos,20.0299903,-102.3984173
6605795472,Calle Morelos,20.0305686,-102.3994888
1387296914,Calle Morelos,20.0311142,-102.4002774
1387296801,Calle Morelos,20.0335485,-102.4011062
7824874282,Calle Morelos,20.0346005,-102.4010767
6605947815,Calle Morelos,20.0408258,-102.4039762
7824874284,Calle Morelos,20.0424334,-102.4047567
6605907010,Calle Morelos,20.0444555,-102.4047205
1387296730,Calle Morelos,20.0458439,-102.404628
1387296594,Calle Morelos,20.0518155,-102.4098583
7824817234,Calle Morelos,20.0522313,-102.4115507
1387296981,Calle Morelos,20.0519944,-102.4125304
7824817238,Calle Morelos,20.0517487,-102.4135309
6606035750,Calle Morelos,20.0523257,-102.4166818
7824817240,Calle Morelos,20.0526168,-102.4178854
7824817245,Calle Morelos,20.052562,-102.418837
7824817247,Calle Morelos,20.0519541,-102.4196584
7824817248,Calle Morelos,20.0496864,-102.422061
7828910017,Calle Morelos,20.0490351,-102.422989
1387296820,Calle Morelos,20.0481034,-102.4247754
1387296709,Calle Morelos y General Lázaro Cárdenas,20.048196,-102.4259394
8077201864,Calle Morelos,20.0477879,-102.4281845
6867258299,Calle Morelos,20.0474603,-102.429421
6605947255,Calle Morelos,20.0465774,-102.4324372
8077201865,Calle Morelos,20.0462685,-102.4336937
6867258298,Calle Morelos,20.0458653,-102.4351582
1387296759,Calle Morelos,20.0455151,-102.4363276
1387296602,Calle Morelos,20.0451711,-102.4373777
6605933588,Calle Morelos,20.0445248,-102.4385002
8077201867,Calle Morelos,20.0430999,-102.4406862
1387296810,Calle Morelos,20.0414999,-102.4431351
8077201868,Calle Morelos,20.040856,-102.4440336
8077201869,Calle Morelos,20.0392509,-102.4459782
6605947969,Calle Morelos,20.0381561,-102.4472737
8077201870,Calle Morelos,20.0361994,-102.4496314
1387296906,Calle Morelos,20.0350566,-102.4509685
8077201871,Calle Morelos,20.0329399,-102.4519381
1387296561,Calle Morelos,20.0291335,-102.4534482
1387296923,Calle Morelos,20.02523,-102.4547142
6863911768,Calle Morelos,20.0243707,-102.4544862
1387296758,Calle Morelos,20.0234609,-102.4542904
8107708134,Calle Morelos,20.0225512,-102.4544218
1387296918,Calle Morelos,20.0214978,-102.4550173
6606035733,Calle Morelos,20.0182947,-102.455889
6606035722,Calle Morelos,20.016901,-102.4562725
6606035721,Calle Morelos,20.0158148,-102.4565622
4076978673,Calle Morelos,20.01366,-102.4571094
4076989629,Calle Morelos y Privada 18 de Marzo,20.0125965,-102.4573723
6823065038,Prolongación Zaragoza y Calle Oviedo,19.9985602,-102.2917837
2961966284,Calle Castilla,20.0120685,-102.2924881
1406799330,La Esperanza-San José del Mezquite,20.0527484,-102.4112463
4077031707,La Esperanza-San José del Mezquite,20.0533103,-102.4100024
1406799130,La Esperanza-San José del Mezquite,20.0539685,-102.4086935
1406799142,La Esperanza-San José del Mezquite,20.0545776,-102.4078728
1406799339,La Esperanza-San José del Mezquite,20.0559439,-102.4067341
6641036628,La Esperanza-San José del Mezquite,20.0587021,-102.401988
1406799256,La Esperanza-San José del Mezquite,20.0592233,-102.4010579
7824817221,La Esperanza-San José del Mezquite,20.059628,-102.4001486
7824817219,La Esperanza-San José del Mezquite,20.0602731,-102.3992964
1406799370,La Esperanza-San José del Mezquite,20.061158,-102.3983502
7824817216,La Esperanza-San José del Mezquite,20.0655657,-102.3974846
7824817214,La Esperanza-San José del Mezquite,20.067939,-102.3971057
4077032745,La Esperanza-San José del Mezquite,20.0704672,-102.3966913
6867323502,La Esperanza-San José del Mezquite,20.0715355,-102.3965219
6867323504,Innominada,20.072005,-102.397357
6641042844,Innominada,20.0715839,-102.3979016
4077032749,Innominada,20.0712154,-102.3980552
4077032786,Innominada,20.0721646,-102.3976602
7824817213,La Esperanza-San José del Mezquite,20.0680007,-102.397097
7824817215,La Esperanza-San José del Mezquite,20.0656508,-102.3974711
1406798891,La Esperanza-San José del Mezquite,20.0615051,-102.3981564
1406799022,La Esperanza-San José del Mezquite,20.056393,-102.4060576
7825135162,La Esperanza-San José del Mezquite,20.0551691,-102.4072646
7824817229,La Esperanza-San José del Mezquite,20.0540347,-102.4085916
7824817230,La Esperanza-San José del Mezquite,20.0528013,-102.411145
1387296590,Calle Morelos y La Esperanza-San José del Mezquite,20.0521985,-102.4120422
1933427200,Calle Morelos,20.0521191,-102.410455
7824881787,Calle Morelos,20.0463063,-102.4047942
6605859284,Calle Morelos,20.0450741,-102.404691
1387296774,Calle Morelos,20.0425884,-102.4047902
7824874283,Calle Morelos,20.0349798,-102.4011666
7824874279,Calle Morelos,20.0339605,-102.4011478
7819796145,Calle Morelos,20.0302019,-102.3985568
1387296874,Calle Morelos,20.0274187,-102.3973122
7819796143,Calle Morelos,20.0267357,-102.3966269
5851310707,Calle J. Refugio Ríos,20.030449,-102.3842365
5851311693,Calle J. Refugio Ríos,20.0308356,-102.3811874
5851310777,Calle J. Refugio Ríos,20.0308459,-102.379985
6927487839,Calle J. Refugio Ríos,20.0308408,-102.3788948
5851311725,Avenida Lázaro Cárdenas,20.0302813,-102.3784483
5851311710,Avenida Lázaro Cárdenas,20.0291875,-102.3790579
5851310754,Avenida Lázaro Cárdenas,20.028199,-102.3795721
5851311724,Avenida Lázaro Cárdenas,20.0269417,-102.3802279
6606354659,Calle Morelos,20.0271504,-102.3783114
6606354673,Calle Morelos,20.0278908,-102.3760043
1387296633,Calle Morelos,20.0291362,-102.3720156
7819576129,Calle Morelos,20.0294082,-102.3704043
1387296573,Calle Morelos,20.0299046,-102.3659679
8436894878,Calle Morelos,20.0302171,-102.3644646
8436894877,Calle Morelos,20.0303557,-102.3633903
8436894875,Calle Morelos,20.0296362,-102.3618239
7839098043,Calle Morelos,20.029005,-102.3603219
2985373762,Calle Morelos,20.0281167,-102.3574351
2961979767,Calle de Salamanca,20.0110545,-102.2920572
3219341047,Calle de Salamanca,20.0107773,-102.2908551
3219341045,Calle de Aragón y Calle de Salamanca,20.0104999,-102.2896547
6948745582,Calle Miguel Hidalgo,19.9345918,-102.2528994
6638980319,Calle Miguel Hidalgo,19.9356685,-102.2519834
3460340161,Calle George Washington y Zeus,20.009756,-102.323255
4772001265,Francisco Javier Cuevas,20.0094365,-102.322183
3460340156,Francisco Javier Cuevas,20.009119,-102.3211673
4772001231,Calle Francisco Javier Cuevas,20.0088292,-102.3201988
4772000919,Calle Francisco Javier Cuevas,20.0084713,-102.3190502
4772000908,Calle Francisco Javier Cuevas y Calle Compositor Fernando Méndez V.,20.0080917,-102.3178213
4772000907,Calle Compositor Fernando Méndez V. y Diputado José Álvarez A.,20.0065847,-102.318325
4772000898,Calle Luis Méndez,20.0058277,-102.3182836
2956620125,Innominada,19.9743863,-102.2682473
6813086411,Avenida Benito Juárez Oriente,19.9737446,-102.2691321
6813086419,Avenida Benito Juárez Oriente,19.9728635,-102.2684307
6813086400,Avenida Benito Juárez Oriente,19.9720909,-102.2678246
6813086423,Benito Juárez Oriente,19.9712268,-102.267023
3429080092,Carretera Morelia - Jiquilpan,19.9622016,-102.2597892
3429080084,Carretera Morelia - Jiquilpan,19.9611655,-102.258931
3429080075,Carretera Morelia - Jiquilpan,19.9601867,-102.2581257
6639095422,Carretera Morelia - Jiquilpan,19.9594544,-102.2575665
8475082206,Carretera Morelia - Jiquilpan,19.9586307,-102.2568858
3429080039,Carretera Morelia - Jiquilpan,19.9576993,-102.2560986
8488331616,Carretera Morelia - Jiquilpan,19.9568737,-102.2554198
8474414541,Carretera Morelia - Jiquilpan,19.9558963,-102.2546331
8474990799,Carretera Morelia - Jiquilpan,19.955105,-102.2540073
6639059018,Carretera Morelia - Jiquilpan,19.9533141,-102.252591
8527475956,Carretera Morelia - Jiquilpan,19.9524424,-102.2519472
6465850351,Libramiento Sur,19.9514055,-102.2513866
6465850348,Libramiento Sur,19.95045,-102.2513491
604966996,Libramiento Sur,19.949797,-102.2522087
6852215234,Libramiento Sur,19.9493129,-102.2544041
8475476224,Libramiento Sur,19.948982,-102.256167
6465850334,Innominada,19.9498547,-102.256467
6639013019,Avenida Las Adjuntas,19.9506403,-102.2549701
6639013032,Calle Paseo de Pátzcuaro,19.9515228,-102.2559679
6465850363,Calle Paseo de Pátzcuaro,19.9518102,-102.2570649
6465850318,Calle Paseo de Pátzcuaro y Avenida Camécuaro,19.9516098,-102.2579661
4076986682,Calle Morelos y Calle Reforma,20.008932,-102.4582708
4076979138,Calle Morelos,20.0098503,-102.4580514
8110104298,Calle Morelos,20.0108903,-102.4577558
4076981940,Calle Morelos,20.0119765,-102.4575198
4076989633,Calle Morelos,20.0130564,-102.4572623
1387296969,Calle Morelos,20.0210366,-102.455197
1387296777,Calle Morelos,20.0222941,-102.4545237
8110121025,Calle Morelos,20.0232921,-102.4542891
6863911767,Calle Morelos,20.0242245,-102.4543802
6863911766,Calle Morelos,20.0250738,-102.4547356
8107708136,Calle Morelos,20.0283095,-102.4537459
1387296831,Calle Morelos y Chavinda-San Pedro Cahro,20.0345426,-102.4513091
6605950547,Calle Morelos,20.0403634,-102.4446116
1387296853,Calle Morelos,20.0411735,-102.4436206
8077201866,Calle Morelos,20.0450439,-102.4376741
8077501501,Calle Morelos,20.0473041,-102.4299547
1387296791,Calle Morelos,20.0481582,-102.4265644
1387296698,Calle Morelos,20.0480417,-102.4252977
7824817250,Calle Morelos,20.0489784,-102.4230909
1387296735,Calle Morelos,20.0495415,-102.4222273
1387296958,Calle Morelos,20.0518228,-102.4144566
1387296761,Calle Morelos,20.0517525,-102.4133921
1659242475,Avenida Benito Juárez Oriente,19.9851277,-102.2782185
1659242436,Avenida Benito Juárez Oriente,19.9836204,-102.276998
1942784125,Avenida Benito Juárez Oriente,19.9828332,-102.276361
8345728260,Avenida Benito Juárez Oriente,19.9817046,-102.2754745
1857966301,Avenida Benito Juárez Oriente,19.980277,-102.2743697
4771948209,Avenida Benito Juárez Oriente,19.9794701,-102.2736951
3165783914,Avenida del Bosque y Avenida Benito Juárez Oriente,19.9784946,-102.2729245
4077016993,Innominada,20.0668676,-102.4927687
8076681164,Innominada,20.0663083,-102.4919144
4077015342,Innominada,20.0656218,-102.4907148
4077018507,Innominada,20.0650713,-102.4897867
8076681159,Innominada,20.0645473,-102.4888674
8076681155,Innominada,20.0641322,-102.4878596
4077017496,Innominada,20.0638267,-102.4865802
4077015334,Innominada,20.0635222,-102.4854277
6632017850,Innominada,20.0632258,-102.4842151
8076681149,Innominada,20.062972,-102.4829941
8076681146,Innominada,20.0626382,-102.4817884
8076681143,Innominada,20.0622162,-102.4796198
4077018330,Innominada,20.0618735,-102.4777503
8077294285,Innominada,20.0586599,-102.4785322
8077294287,Innominada,20.0569366,-102.4788728
4077017495,Innominada,20.0552863,-102.4790499
4077017285,Innominada,20.0537569,-102.4791518
6858811785,Innominada,20.0548592,-102.4790512
4077018328,Innominada,20.0583803,-102.4786529
4077018329,Innominada,20.0617047,-102.476825
8077201900,Innominada,20.061386,-102.4752089
4077016992,Innominada,20.060998,-102.4732375
8077501500,Innominada,20.0606881,-102.4715826
8077201899,Innominada,20.0600809,-102.4685222
4077016991,Innominada,20.0596702,-102.4664301
6640822291,Innominada,20.0582656,-102.45929
4077018323,Chavinda-San Pedro Cahro,20.0576748,-102.4562417
8077201897,Chavinda-San Pedro Cahro,20.0567678,-102.4558917
8077201895,Chavinda-San Pedro Cahro,20.0558758,-102.4558541
3620456741,Chavinda-San Pedro Cahro,20.0544321,-102.4560982
8077201894,Chavinda-San Pedro Cahro,20.0522451,-102.4562699
8077201892,Chavinda-San Pedro Cahro,20.0511806,-102.4563798
3620456739,Chavinda-San Pedro Cahro,20.0500281,-102.456983
6605947966,Chavinda-San Pedro Cahro,20.0485564,-102.4577719
8077201878,Chavinda-San Pedro Cahro,20.0474351,-102.45837
3620456738,Chavinda-San Pedro Cahro,20.0454823,-102.4594563
3620456737,Chavinda-San Pedro Cahro,20.0436656,-102.4604595
6606220857,Chavinda-San Pedro Cahro,20.0414482,-102.4616718
3620456735,Chavinda-San Pedro Cahro,20.0402414,-102.4606844
8077449130,Chavinda-San Pedro Cahro,20.0391859,-102.4591311
3620456734,Chavinda-San Pedro Cahro,20.0375805,-102.4567684
8077201873,Chavinda-San Pedro Cahro,20.0366202,-102.4551111
6858831587,Chavinda-San Pedro Cahro,20.0356828,-102.4534053
8077201872,Chavinda-San Pedro Cahro,20.0348639,-102.4519703
6863911765,Calle Morelos,20.0347454,-102.4512152
1387296903,Calle Morelos,20.0263694,-102.3848762
7819529609,Calle Morelos,20.0255198,-102.3843062
5851311720,Avenida Lázaro Cárdenas y Calle Morelos,20.0265161,-102.3803475
6813086409,Avenida Benito Juárez Oriente,19.9735584,-102.2686805
6813086407,Avenida Benito Juárez Oriente,19.9738857,-102.2689605
1408202170,Avenida Benito Juárez Oriente,19.9717597,-102.2674417
1408202179,Benito Juárez Oriente y Carretera Morelia - Jiquilpan y Avenida Benito Juárez Oriente,19.9707947,-102.2666112
6465850328,Avenida Camécuaro,19.9506366,-102.2577301
6465850338,Calle Noria,19.9500245,-102.256638
8474356541,Innominada,19.9491432,-102.2564286
8437330568,Libramiento Sur,19.9491314,-102.2545825
1986429236,Libramiento Sur,19.9497239,-102.2505927
8527475957,Carretera Morelia - Jiquilpan,19.9511401,-102.2508614
8527475955,Carretera Morelia - Jiquilpan,19.9524163,-102.2518877
8437365565,Carretera Morelia - Jiquilpan,19.9576404,-102.2560081
8474956399,Carretera Morelia - Jiquilpan,19.9584434,-102.256646
8437365560,Carretera Morelia - Jiquilpan,19.9595079,-102.2574979
8437365546,Carretera Morelia - Jiquilpan,19.9607275,-102.2584831
8523723713,Carretera Morelia - Jiquilpan,19.9615128,-102.2589988
8523723692,Carretera Morelia - Jiquilpan,19.9626309,-102.2592857
8405641143,Carretera Morelia - Jiquilpan,19.9632003,-102.2599293
6638825652,Carretera Morelia - Jiquilpan,19.9637994,-102.2608937
10303027829,Carretera Morelia - Jiquilpan,19.9646457,-102.2615726
6813086396,Carretera Morelia - Jiquilpan,19.9655767,-102.2623368
8523723707,Carretera Morelia - Jiquilpan,19.9676578,-102.264099
8523723704,Carretera Morelia - Jiquilpan,19.9686876,-102.2648339
8523723702,Carretera Morelia - Jiquilpan,19.9696783,-102.2656238
6813086417,Avenida Benito Juárez Oriente,19.971345,-102.267012
8528360347,Avenida Benito Juárez Oriente,19.9729892,-102.2683182
3460340133,Zeus,20.0080767,-102.3232224
1387296659,Calle Morelos,20.0254393,-102.383777
7819529611,Calle Morelos,20.0260188,-102.3847005
5851310715,Calle Morelos,20.0293805,-102.3857626
8077201874,Chavinda-San Pedro Cahro,20.0409417,-102.4617858
8077449140,Chavinda-San Pedro Cahro,20.0484077,-102.4578497
3620456740,Chavinda-San Pedro Cahro,20.0509273,-102.4564858
8076681144,Innominada,20.0624769,-102.4809797
4077018336,Innominada,20.0627289,-102.4822859
8076681150,Innominada,20.0630627,-102.483391
8076681142,Innominada,20.0632989,-102.4845182
6632017847,Innominada,20.0636308,-102.4858613
8076681152,Innominada,20.0639275,-102.4869356
4077015337,Innominada,20.0641776,-102.4880058
4077018340,Innominada,20.0646997,-102.4891276
8076681161,Innominada,20.0652508,-102.4900918
8076681163,Innominada,20.0658637,-102.4911574
4077018513,Innominada,20.0665307,-102.4922886
6813086415,Benito Juárez Oriente,19.9713838,-102.2669528
6813086414,Avenida Benito Juárez Oriente,19.972469,-102.2677924
8528360342,Innominada,19.9732782,-102.2683328
4574279628,Calle Paseo de Tzierondaro,19.9356647,-102.3032344
4574279619,Calle Paseo de Tzierondaro y Itzi,19.9369262,-102.3037504
8407390420,Calle Jacaranda,19.9377963,-102.3042003
4705646524,Calle Jacaranda,19.9388211,-102.3044994
3429314479,Calle Jacaranda,19.9398068,-102.3048836
6611021533,Calle Jacaranda,19.9411107,-102.3053769
4705646477,Prolongación 16 de Septiembre y Calle Nogal,19.9419258,-102.3060596
6611021530,Calle Eucalipto,19.9409966,-102.3064402
4705646520,Calle Eucalipto y Calle Puerto Rico,19.9400029,-102.3065892
5319528457,Calle Guatemala,19.9392597,-102.307525
4705646516,Calle Nicaragua,19.9393289,-102.3089897
4574254376,Calle Nicaragua y Calle Uruguay,19.9400005,-102.3114661
3429315012,Calle Uruguay y Calle Puerto Rico,19.9410475,-102.3113016
13023577817,Calle Uruguay,19.9420495,-102.3112001
4705646472,Calle Uruguay,19.9430539,-102.3110983
2947142832,Calle Clavel,20.0076636,-102.2814423
2974033671,Calle Clavel,20.0074537,-102.2804828
2974017980,Avenida Las Flores,20.0068492,-102.2799584
2974012214,Avenida Las Flores,20.0059296,-102.2797569
2974012932,Avenida Las Flores,20.0055502,-102.2796738
1387296877,Calle Morelos,20.0518086,-102.4130729
1387296885,Calle Morelos,20.0517765,-102.4141049
6867258321,General Lázaro Cárdenas,20.0491787,-102.426331
4077031007,General Lázaro Cárdenas,20.0495718,-102.427235
4077031163,General Lázaro Cárdenas,20.0497548,-102.4283205
4077031164,General Lázaro Cárdenas,20.0501096,-102.4305384
4077031165,General Lázaro Cárdenas,20.0503108,-102.4316621
6605947810,Innominada,20.0494168,-102.4318786
6605947259,Innominada,20.0467722,-102.4325006
4076986227,Privada 18 de Marzo y Calle Rivera del Canal,20.0122878,-102.4559762
4076978980,Calle Rivera del Canal,20.0111499,-102.4563906
4076979140,Calle Rivera del Canal,20.0102406,-102.4567324
4076979132,Calle Rivera del Canal,20.0092533,-102.4567339
4077031697,General Lázaro Cárdenas,20.0498514,-102.4289455
4077031162,General Lázaro Cárdenas,20.0496574,-102.4277338
8077294252,General Lázaro Cárdenas,20.0493501,-102.4266341
6867258318,Calle Morelos,20.048036,-102.424949
3219341028,Avenida Las Flores,20.0061581,-102.279807
2975063762,Avenida Francisco I. Madero Norte y Calle Clavel,20.0078946,-102.2826682
6818335365,Calle Uruguay,19.9433424,-102.3110081
3429315001,Calle Puerto Rico,19.9406505,-102.3096072
4705646517,Calle Puerto Rico,19.9402063,-102.3079951
4705646519,Calle Puerto Rico,19.9400387,-102.3069933
6611021531,Calle Nogal,19.9409653,-102.3060422
3429314492,Calle Jacaranda,19.9402658,-102.3050384
3429314468,Calle Jacaranda,19.9392968,-102.3046628
8407390426,Calle Jacaranda,19.938324,-102.3043129
8407390421,Itzi y Calle Jacaranda y Calle Garzas,19.9371574,-102.3044191
2946640067,Calle Martínez de Navarrete Oriente,19.9778396,-102.2789384
2946605496,Calle Martínez de Navarrete Oriente,19.9777493,-102.2775798
2946648565,Calle Martínez de Navarrete Oriente,19.9776613,-102.2757804
2946720064,Calle Martínez de Navarrete Oriente,19.9775737,-102.2739068
3429080301,Calle Francisco I. Madero y Calle Allende,19.9635108,-102.2622042
3429080294,Calle Morelos,19.9624961,-102.2617025
3429080082,Calle Morelos,19.9607565,-102.2623073
3429080068,Calle Lázaro Cárdenas,19.9595604,-102.2616511
3429080064,Calle Lázaro Cárdenas,19.9592287,-102.2606872
3429080050,Calle Benito Juárez y Calle Emiliano Zapata,19.9580993,-102.2601977
3429080042,Calle Emiliano Zapata y Calle Tejo,19.9575862,-102.2588928
3429080028,Calle Loma Alta,19.9569131,-102.258587
3429080011,Calle Loma Alta,19.956274,-102.2575463
3429080010,Avenida de las Lomas,19.9562487,-102.2567618
8488354419,Avenida de las Lomas,19.9573959,-102.255941
6465850330,Calle Paseo de Pátzcuaro y Avenida Camécuaro,19.951635,-102.2578682
3891070918,Estancia de Igartua,19.9347533,-102.2397514
3891070913,Carretera Morelia - Jiquilpan,19.935036,-102.238088
3891070910,Carretera Morelia - Jiquilpan,19.9363108,-102.2391047
8498816943,Carretera Morelia - Jiquilpan,19.9372198,-102.2398365
3891077278,Carretera Morelia - Jiquilpan,19.9394589,-102.2416065
8503651136,Carretera Morelia - Jiquilpan,19.940238,-102.2422094
8503651137,Carretera Morelia - Jiquilpan,19.9412048,-102.2429647
6638980914,Carretera Morelia - Jiquilpan,19.9427718,-102.2442179
8502444975,Carretera Morelia - Jiquilpan,19.9438598,-102.2450752
10925179687,Carretera Morelia - Jiquilpan,19.9447439,-102.2457718
10925179691,Carretera Morelia - Jiquilpan,19.9456655,-102.246515
10925179693,Carretera Morelia - Jiquilpan,19.9469222,-102.2475306
8527475963,Carretera Morelia - Jiquilpan y Morelia - Jiquilpan,19.9481695,-102.2485073
8527475961,Carretera Morelia - Jiquilpan,19.9490655,-102.2492008
8527475959,Carretera Morelia - Jiquilpan,19.9500016,-102.2499339
3219340879,Avenida Benito Juárez Oriente,19.9732332,-102.2684276
6813086405,Avenida Benito Juárez Oriente,19.9742164,-102.2692106
12051052507,Avenidas Las Torres,20.0157186,-102.2845064
3206970203,Michoacán Poniente,19.996426,-102.2929563
2962037592,Michoacán Poniente,19.9947086,-102.2897063
1884477118,Michoacán Poniente y Calle Galeana Norte,19.9940605,-102.2882423
1884477030,Calle Galeana Norte,19.9928477,-102.2885822
2000509233,Calle López Rayón y Calle Galeana Norte,19.9919352,-102.2889317
6610179032,Calle Galeana Norte,19.9907318,-102.2895648
2946818051,Martínez de Navarrete Oriente,19.9782016,-102.2817354
2946818039,Martínez de Navarrete Oriente,19.977958,-102.2807042
2946512333,Avenida del Bosque y Calle Martínez de Navarrete Oriente,19.9775461,-102.2737325
2946703539,Calle Martínez de Navarrete Oriente,19.9777344,-102.2771092
2946681438,Calle Martínez de Navarrete Oriente,19.977836,-102.2788809
6820725272,Jacona - Buenavista Tomatlán,19.9375974,-102.3198514
8496147414,Jacona - Buenavista Tomatlán,19.9370977,-102.3208382
1262240198,Calle Libramiento Sur,19.9364947,-102.3214217
1262240157,Calle Libramiento Sur,19.9356525,-102.3202161
1262240153,Calle Libramiento Sur,19.9347776,-102.3191928
6948350732,Calle Libramiento Sur,19.9339001,-102.3184656
1262240177,Calle Libramiento Sur,19.9331184,-102.3173663
8496075484,Calle Libramiento Sur,19.9330257,-102.3163898
8499823020,Calle Libramiento Sur,19.9329873,-102.3152046
4705646624,Calle Libramiento Sur,19.9329178,-102.3127854
4574167919,Calle Libramiento Sur,19.9329095,-102.3113208
4574167963,Calle Libramiento Sur y Calle Cuba,19.9328753,-102.3100601
4705646490,Calle Cuba,19.9338183,-102.3099132
4705646508,Calle Cuba,19.9351987,-102.3096556
4705646509,Calle Cuba,19.9362955,-102.3094683
4705646511,Calle Cuba,19.9371879,-102.3093122
4705646530,Calle Garzas,19.9374359,-102.3082652
4705646536,Calle Garzas,19.9374075,-102.3072545
4705646565,Calle Garzas,19.9373361,-102.3060302
8407390422,Calle Garzas,19.937231,-102.3047735
2935023112,Calle Abasolo Sur,19.9548648,-102.3068532
2935008326,Calle Abasolo Sur,19.953905,-102.3075746
6610723553,Carretera Morelia - Jiquilpan,19.9533786,-102.3096162
3429315149,Carretera Morelia - Jiquilpan,19.9534938,-102.3117803
8482913537,Carretera Morelia - Jiquilpan,19.9535778,-102.3132317
8482913536,Carretera Morelia - Jiquilpan,19.9536529,-102.3145714
6952561184,Carretera Morelia - Jiquilpan,19.953731,-102.3159998
6610723514,Carretera Morelia - Jiquilpan,19.953801,-102.3174106
8482913547,Carretera Morelia - Jiquilpan,19.9538887,-102.3186579
6610767011,Carretera Morelia - Jiquilpan,19.9539612,-102.3196524
8482013597,Carretera Morelia - Jiquilpan,19.9540535,-102.3214541
6610754549,Carretera Morelia - Jiquilpan,19.9541816,-102.3225402
1262272357,Carretera Morelia - Jiquilpan,19.954711,-102.3237978
3429315163,Carretera Morelia - Jiquilpan,19.9558156,-102.3258145
2963858509,Carretera Morelia - Jiquilpan,19.9566331,-102.327187
6611028284,Carretera Morelia - Jiquilpan,19.9573963,-102.3285086
1262272378,Carretera Morelia - Jiquilpan,19.9578778,-102.3294342
1262272385,Carretera Morelia - Jiquilpan,19.9583058,-102.3307636
6864220153,Carretera Morelia - Jiquilpan,19.9584818,-102.331716
6606401926,Carretera Morelia - Jiquilpan,19.9587646,-102.3331831
2957950648,Carretera Morelia - Jiquilpan,19.9589864,-102.334204
2957950675,Carretera Morelia - Jiquilpan,19.959343,-102.3359889
2957950667,Carretera Morelia - Jiquilpan,19.9595621,-102.3372225
8408126598,Carretera Morelia - Jiquilpan,19.9597135,-102.338237
6611080304,Carretera Morelia - Jiquilpan,19.9600801,-102.3401358
1262272336,Carretera Morelia - Jiquilpan,19.9603506,-102.341423
2963840679,Carretera Morelia - Jiquilpan,19.9607918,-102.3425616
6610800637,Carretera Morelia - Jiquilpan,19.9615457,-102.3434444
6610800642,Carretera Morelia - Jiquilpan,19.9624573,-102.3443054
6610800490,Carretera Morelia - Jiquilpan,19.9632677,-102.3450434
6864135811,Carretera Morelia - Jiquilpan,19.9643228,-102.3462531
8440411699,Carretera Morelia - Jiquilpan,19.9651254,-102.3472035
1262272242,Carretera Morelia - Jiquilpan,19.9660633,-102.34824
1262272285,Carretera Morelia - Jiquilpan,19.9668275,-102.3487929
6928370373,Carretera Morelia - Jiquilpan,19.9677154,-102.3493284
1262272299,Carretera Morelia - Jiquilpan,19.9686272,-102.3498784
1262272267,Carretera Morelia - Jiquilpan,19.9693746,-102.3508349
1262272361,Carretera Morelia - Jiquilpan,19.9696431,-102.3517804
1262272275,Carretera Morelia - Jiquilpan,19.9695481,-102.3530332
6611065328,Carretera Morelia - Jiquilpan,19.9694414,-102.3537612
8495958268,Avenida Benito Juárez Oriente,19.9765335,-102.2713321
8527712901,Avenida Benito Juárez Oriente,19.9752434,-102.2703349
2946787489,Avenida Benito Juárez Oriente,19.9743215,-102.2696135
6465850321,Avenida Camécuaro,19.9503264,-102.257427
6639013022,Avenida Camécuaro,19.9512076,-102.2577797
6465850361,Calle Paseo de Pátzcuaro,19.9511005,-102.2545785
6465850308,Avenida Las Adjuntas y Calle Paseo de Pátzcuaro,19.9508988,-102.2544323
2946512338,Avenida del Bosque y Calle Martínez de Navarrete Oriente,19.9775642,-102.2738164
2944908681,Avenida Virrey de Mendoza Oriente,19.9745351,-102.2832362
2944960886,Avenida Virrey de Mendoza Oriente,19.9747928,-102.2843884
8510227575,Avenida Virrey de Mendoza Oriente,19.9750346,-102.2854222
1884477095,Michoacán Poniente,19.9945703,-102.2894161
1884477036,Michoacán Poniente,19.9950052,-102.2903509
2227008118,Michoacán Poniente,19.9954668,-102.2912307
2962037596,Michoacán Poniente,19.9959677,-102.2921428
3429257086,Calle Murcia y Prolongación Zaragoza,19.9988892,-102.2924497
2960813044,Avenida Valladolid,20.0005151,-102.2914651
4463804798,Libramiento Zamora-Jacona Norte,20.0058398,-102.2372028
8436853348,Libramiento Zamora-Jacona Norte,20.0047797,-102.2375304
8436854792,Libramiento Zamora-Jacona Norte,20.0012121,-102.2386086
604967062,Libramiento Zamora-Jacona Norte,20.0001397,-102.2388661
604967064,Libramiento Zamora-Jacona Norte,19.9989664,-102.2386904
8436854786,Libramiento Zamora-Jacona Norte,19.9980326,-102.2380279
8436854784,Libramiento Zamora-Jacona Norte,19.9974478,-102.2370113
8436854783,Libramiento Zamora-Jacona Norte,19.9972247,-102.2359049
604967066,Libramiento Zamora-Jacona Norte,19.996897,-102.2348069
604967067,Libramiento Zamora-Jacona Norte,19.9962743,-102.2339461
604967068,Libramiento Zamora-Jacona Norte,19.995262,-102.2333178
2132091835,Libramiento Zamora-Jacona Norte,19.991883,-102.2326959
2132091834,Libramiento Zamora-Jacona Norte,19.99096,-102.2329862
6610473473,Libramiento Zamora-Jacona Norte,19.9895919,-102.2342863
6610473429,Libramiento Zamora-Jacona Norte,19.9881482,-102.2358916
4429164353,Libramiento Zamora-Jacona Norte,19.9862029,-102.2380209
604967028,Libramiento Zamora-Jacona Norte,19.9850847,-102.2392497
6610409466,Libramiento Zamora-Jacona Norte,19.984318,-102.2402675
8528144490,Libramiento Zamora-Jacona Norte,19.9821148,-102.2437566
2985478053,Libramiento Zamora-Jacona Norte,19.9815067,-102.2447197
6838687191,Libramiento Zamora-Jacona Norte,19.9809438,-102.2455472
604967030,Libramiento Zamora-Jacona Norte,19.9801903,-102.2464192
2985484016,Libramiento Zamora-Jacona Norte,19.9793572,-102.2473352
604967031,Libramiento Zamora-Jacona Norte,19.973999,-102.2537774
604967034,Libramiento Zamora-Jacona Norte,19.9733626,-102.255092
604967036,Libramiento Zamora-Jacona Norte,19.9739249,-102.2587557
604967038,Libramiento Zamora-Jacona Norte,19.9738533,-102.259851
6639083030,Libramiento Zamora-Jacona Norte,19.9687758,-102.2609139
604967016,Libramiento Zamora-Jacona Norte,19.9650776,-102.259452
8405641149,Libramiento Zamora-Jacona Norte,19.9638867,-102.2594095
3429102352,Zamora - Briseñas,20.0432528,-102.2939786
3429102336,Zamora - Briseñas,20.0426864,-102.2922296
3429102323,Zamora - Briseñas,20.0422791,-102.2909692
3429102319,Zamora - Briseñas,20.0419583,-102.2899562
3748151278,Zamora - Briseñas,20.0415196,-102.288637
4773176344,Zamora - Briseñas,20.041125,-102.287454
4773176342,Zamora - Briseñas,20.0407352,-102.2861902
4773176338,Zamora - Briseñas,20.0403404,-102.2850032
7856141738,Carretera Zamora-La Barca,20.0356392,-102.2786852
2975137306,Carretera Zamora-La Barca,20.0346129,-102.2782239
8495881785,Avenida del Árbol,19.9728462,-102.2805301
2958085498,Avenida del Árbol,19.9715335,-102.2804216
6813086390,Avenida del Árbol,19.9705787,-102.280412
2958100201,Avenida del Árbol,19.9688031,-102.280202
11527549362,Avenida del Árbol,19.9675234,-102.2800467
1659242467,Avenida del Árbol,19.9654588,-102.2798056
8528360345,Avenida Benito Juárez Oriente,19.9744236,-102.2693628
6639013023,Avenida Camécuaro,19.9511678,-102.2578574
6465850325,Calle Noria,19.9502647,-102.2575182
6639013006,Innominada,19.949969,-102.2566695
6465850331,Innominada,19.9490475,-102.2564124
6813086413,Avenida Benito Juárez Oriente,19.9738744,-102.269053
4771948221,Avenida Benito Juárez Oriente,19.9746295,-102.2696456
8528360343,Avenida Benito Juárez Oriente,19.9763649,-102.2709982
6465849959,Jacona - Buenavista Tomatlán,19.9324594,-102.3373532
6465849954,Jacona - Buenavista Tomatlán,19.9326263,-102.3355705
6610976645,Jacona - Buenavista Tomatlán,19.9328234,-102.3335326
8474463401,Jacona - Buenavista Tomatlán,19.9329944,-102.3320836
604966968,Jacona - Buenavista Tomatlán,19.9333122,-102.3309881
6611016554,Jacona - Buenavista Tomatlán,19.9336039,-102.33008
8496075516,Jacona - Buenavista Tomatlán,19.9352153,-102.3256867
8496057327,Jacona - Buenavista Tomatlán,19.9358895,-102.3238223
604966967,Jacona - Buenavista Tomatlán y Buenavista Tomatlán - Jacona,19.936269,-102.3228422
1983548439,Calle Libramiento Sur y Buenavista Tomatlán - Jacona,19.9366939,-102.3215798
2974012918,Calle Clavel y Avenida Las Flores,20.0073637,-102.2800712
2974013233,Calle Clavel,20.0070146,-102.2784755
2974050095,Prolongación Clavel,20.0065692,-102.2763312
6896160371,Prolongación Clavel,20.0062972,-102.2750833
8495905117,Prolongación Clavel,20.0052586,-102.2736456
2974084536,Prolongación Clavel,20.0048197,-102.2730756
4705646512,Calle Cuba y Calle Garzas,19.9375955,-102.309241
4705646491,Calle Cuba,19.9341452,-102.3098313
4705646499,Calle Cuba,19.9330419,-102.3100524
8498563153,Calle Libramiento Sur,19.9329709,-102.3146823
3725326488,Calle Libramiento Sur,19.9348099,-102.3189997
6820918099,Calle Libramiento Sur,19.9357443,-102.319712
1262240186,Innominada,19.9367714,-102.3199038
1262240168,Buenavista Tomatlán - Jacona,19.9376548,-102.3196576
3725217359,Avenida Francisco I. Madero,19.9386479,-102.3191258
3725217357,Avenida Francisco I. Madero,19.9397274,-102.3185555
3725217354,Avenida Francisco I. Madero,19.9404495,-102.3177832
3725217351,Avenida Francisco I. Madero,19.940974,-102.3168183
1986429245,Carretera Morelia - Jiquilpan,19.9511054,-102.2509059
1986429239,Carretera Morelia - Jiquilpan,19.950056,-102.2500771
1986429232,Carretera Morelia - Jiquilpan,19.948934,-102.2491863
6639016639,Carretera Morelia - Jiquilpan,19.9473521,-102.247878
8488719548,Carretera Morelia - Jiquilpan,19.9448216,-102.245833
6639012945,Carretera Morelia - Jiquilpan,19.9418065,-102.243441
6639012952,Carretera Morelia - Jiquilpan,19.9408092,-102.2426515
12976013945,Carretera Morelia - Jiquilpan,19.9398068,-102.2418757
8498816951,Carretera Morelia - Jiquilpan,19.9374357,-102.2400208
3891070911,Estancia de Igartua,19.9352782,-102.2392721
4889154672,Estancia de Igartua,19.934854,-102.2398422
2974050122,Prolongación Clavel,20.0062169,-102.2748936
6610137923,Prolongación Clavel,20.0068524,-102.2777273
2974024673,Calle Clavel,20.0071878,-102.2792673
1262240141,Jacona - Buenavista Tomatlán,19.9365073,-102.3223849
8498563171,Jacona - Buenavista Tomatlán,19.9359394,-102.3236843
8498563164,Jacona - Buenavista Tomatlán,19.935359,-102.3252893
3429314435,Jacona - Buenavista Tomatlán,19.9339306,-102.3292385
604966970,Jacona - Buenavista Tomatlán,19.9328623,-102.3331305
6611053130,Carretera Morelia - Jiquilpan,19.9696002,-102.3525916
6864104799,Carretera Morelia - Jiquilpan,19.9695851,-102.3514599
6611065349,Carretera Morelia - Jiquilpan,19.9692156,-102.3505713
2963844810,Carretera Morelia - Jiquilpan,19.9608699,-102.3426944
2963844811,Carretera Morelia - Jiquilpan,19.9603909,-102.3416001
12051429409,Carretera Morelia - Jiquilpan,19.9602049,-102.3406167
2957950663,Carretera Morelia - Jiquilpan,19.9594167,-102.3368773
2957950681,Carretera Morelia - Jiquilpan,19.9590565,-102.3349939
2957950666,Carretera Morelia - Jiquilpan,19.9587932,-102.3333655
6864220155,Carretera Morelia - Jiquilpan,19.9586037,-102.3323378
6611080288,Carretera Morelia - Jiquilpan,19.9566953,-102.3273028
8519717551,Carretera Morelia - Jiquilpan,19.9560716,-102.3262141
1262272319,Carretera Morelia - Jiquilpan,19.9542452,-102.3227717
6610754555,Carretera Morelia - Jiquilpan,19.9540655,-102.3216579
6610767008,Carretera Morelia - Jiquilpan,19.9540001,-102.3205471
3429315157,Carretera Morelia - Jiquilpan,19.9538972,-102.3187786
6610754545,Carretera Morelia - Jiquilpan,19.9537493,-102.3162183
11292635236,Carretera Morelia - Jiquilpan,19.9535738,-102.3134384
8482913542,Carretera Morelia - Jiquilpan,19.953517,-102.3121803
6610723558,Carretera Morelia - Jiquilpan,19.9533839,-102.3099047
2935004545,Carretera Morelia - Jiquilpan,19.9533513,-102.3087948
2935029131,Carretera Morelia - Jiquilpan,19.9532783,-102.3073523
6813086410,Avenida Benito Juárez Oriente,19.9731042,-102.2683158
11527549364,Avenida del Árbol,19.9666793,-102.2799465
2958100204,Avenida del Árbol y Avenida de los Alerces,19.9666088,-102.2797992
4771948333,Avenida de los Alerces,19.966521,-102.278833
4771948329,Calle La Parota,19.9671116,-102.2783635
2958085503,Calle La Parota,19.968244,-102.2782442
4771948303,Calle La Parota,19.9693305,-102.2780673
2958085502,Calle La Parota,19.9702346,-102.2778969
2958085512,Calle La Parota,19.9712443,-102.2775172
2958085506,Calle Ahuehuete y Calle Primavera,19.9722605,-102.2779816
3165783927,Calle Morelos Sur,19.9810042,-102.2876514
2003822117,Calle Morelos Sur,19.9796398,-102.2880511
2003822111,Martínez de Navarrete Oriente,19.9795816,-102.2874863
4773176340,Zamora - Briseñas,20.0402815,-102.2847882
3429102311,Zamora - Briseñas y Calle Rosal,20.0414993,-102.2885649
3429102320,Calle Rosal,20.0421084,-102.2877145
6864877017,Calle Rosal,20.043561,-102.2871982
7871219221,Calle Rosal,20.0447743,-102.286938
3429102391,Calle Jacarandas,20.045303,-102.2874381
4773176382,Calle Jacarandas,20.045468,-102.2886563
3429102699,Calle Jacarandas,20.0457666,-102.2899086
7871479637,Calle Jacarandas,20.0455037,-102.2912349
7871479603,Calle Jacarandas,20.0445513,-102.2934692
6864814411,Zamora - Briseñas y Calle Malva,20.0432225,-102.2939048
3460339990,Avenida Lázaro Cárdenas,20.0047089,-102.3160314
3460340037,Avenida Lázaro Cárdenas,20.005737,-102.3158163
3460340092,Avenida Lázaro Cárdenas y Calle Olimpo,20.007092,-102.3156175
3460340123,Calle Olimpo y Calle Paseo Altamira,20.0078279,-102.3150854
3460340105,Calle Paseo Altamira,20.007525,-102.3141266
3460340087,Calle Paseo Altamira,20.0070394,-102.3131425
8522954289,Calle Paseo Altamira,20.0065144,-102.3121608
3460340007,Paseo Altamira,20.0051058,-102.3111443
3429247891,Calle Sitio de Coscomatepec,19.9954825,-102.3022242
3429247868,Calle Sitio de Coscomatepec,19.9946829,-102.3027067
4771979841,Circuito 16 de Septiembre,19.993199,-102.3036042
4771979858,Calle Monte de Las Cruces,19.9924646,-102.303468
3429247826,Calle Monte de Las Cruces y Circuito 16 de Septiembre,19.9916977,-102.3038749
3460340131,Avenida Lázaro Cárdenas,20.0080578,-102.3153546
4772001352,Avenida Lázaro Cárdenas,20.0091887,-102.3153141
3460340163,Avenida Lázaro Cárdenas,20.0101873,-102.3154069
3460340170,Avenida Lázaro Cárdenas,20.0112035,-102.3158589
3460340177,Avenida Lázaro Cárdenas,20.0119711,-102.3164937
3460340180,Avenida Lázaro Cárdenas,20.0130706,-102.3171926
4773176314,Avenida Lázaro Cárdenas,20.014011,-102.3176626
4773176300,Avenida Lázaro Cárdenas,20.0151206,-102.3182241
3460340188,Avenida Lázaro Cárdenas,20.0169247,-102.3191654
4773176317,Avenida Lázaro Cárdenas,20.0181368,-102.3198264
3460340213,Avenida Lázaro Cárdenas y Calle Cerro de la Beata,20.020418,-102.3210192
3460340220,Calle Cerro de la Beata,20.0206683,-102.3223124
4773176319,Calle Cerro de la Beata,20.0209021,-102.3242541
3460340224,Calle Cerro de la Beata,20.0207731,-102.3242714
3460340221,Calle Cerro de la Beata,20.0206675,-102.323262
3460340215,Calle Cerro de la Beata,20.0204865,-102.3215432
3460340197,Avenida Lázaro Cárdenas,20.018824,-102.3201959
3460340027,Avenida Naciones Unidas y Calle El Cairo,20.0055569,-102.3102316
3460340056,Calle Paseo Altamira,20.0063549,-102.3116068
3460340094,Calle Paseo Altamira,20.0071367,-102.3130889
8523288439,Calle Paseo Altamira,20.0076618,-102.3141101
3460340135,Calle Paseo Altamira,20.0082257,-102.3148345
3460340098,Calle Olimpo,20.0072551,-102.3152926
3460340066,Avenida Lázaro Cárdenas,20.0065423,-102.3156898
6611053128,Carretera Morelia - Jiquilpan,19.9693943,-102.3541098
6864104800,Carretera Morelia - Jiquilpan,19.9696456,-102.3520781
6611065343,Carretera Morelia - Jiquilpan,19.9695006,-102.351138
6864104796,Carretera Morelia - Jiquilpan,19.9688846,-102.3501334
3429247829,Circuito 16 de Septiembre,19.992103,-102.3048038
4771979894,Circuito 16 de Septiembre,19.9925149,-102.3058478
4771979893,Circuito 16 de Septiembre,19.9936305,-102.3053898
6823854268,Circuito 16 de Septiembre,19.9937661,-102.3046615
3429247876,Circuito 16 de Septiembre y Calle Valerio Trujano,19.9949042,-102.3041255
3429251695,Calle Toma de Tixtla,19.9956872,-102.3045087
3429251721,Calle Toma de Tixtla,19.9964712,-102.3040296
