stop_id,stop_name,stop_lat,stop_lon
4491341158,Calle Ciruelos y Calle Cuachepil,15.8826498,-97.0947567
4491341159,Calle Ciruelos,15.8824063,-97.0935768
4491341199,Calle Ciruelos,15.882217,-97.0923595
2027267110,Calle Ciruelos y Calle Huanacaxtle,15.8820268,-97.0912497
4491341206,Calle Huanacaxtle,15.881774,-97.0913253
2027267099,Calle Huanacaxtle,15.8816118,-97.091383
2027267083,Calle Huanacaxtle,15.8812496,-97.091512
4491341208,Calle Huanacaxtle,15.8810458,-97.0915846
6274545885,Calle Huanacaxtle,15.880834,-97.09166
6311030833,Calle Huanacaxtle,15.8805624,-97.0917261
6274546257,Calle Huanacaxtle,15.8803714,-97.0918001
2027267071,Calle Huanacaxtle y Calle Raúl González,15.8801552,-97.0918623
2027267070,Calle Raúl González,15.8800565,-97.0918885
6817962872,Calle Raúl González,15.8800237,-97.0917269
6274545385,Calle Raúl González,15.8798849,-97.0909517
4491341209,Calle Raúl González,15.8797266,-97.0900676
2027267056,Calle Raúl González,15.8797087,-97.0899679
8424894649,Calle Raúl González,15.8795297,-97.0889682
2027267052,Calle Raúl González,15.8795181,-97.0889033
2594568434,Calle Raúl González,15.8792311,-97.0872996
6817965105,Calle Raúl González,15.8789267,-97.0856494
4491341240,Calle Raúl González,15.8788359,-97.0852981
6274546180,Calle Raúl González,15.8787323,-97.0848777
6274546514,Calle Raúl González,15.87852,-97.084174
6274546526,Calle Raúl González,15.8784112,-97.0837821
2027267030,Calle Raúl González,15.878211,-97.0830985
6817962884,Calle Raúl González,15.8781593,-97.0828721
2594568425,Calle Raúl González,15.8781325,-97.0826489
6817965124,Calle Raúl González,15.8781249,-97.0825159
6274546256,Calle Raúl González,15.8779717,-97.0798403
6274546702,Calle Raúl González,15.8779372,-97.0792374
6274545655,Calle Raúl González,15.8778692,-97.0780949
2027267023,Calle Raúl González y Calle Salinas de Gortari,15.8778307,-97.0772794
1954995915,Calle Salinas de Gortari,15.8777275,-97.0772673
469303147,Calle Salinas de Gortari,15.8774579,-97.0772606
5775943810,Calle Salinas de Gortari y Avenida Oaxaca,15.875593,-97.0773933
13015526802,Avenida Oaxaca,15.8754237,-97.0773572
10285001048,Avenida Oaxaca,15.8752979,-97.077319
13015526801,Avenida Oaxaca,15.8751695,-97.0772754
5775943792,Avenida Oaxaca,15.8750222,-97.0772187
10285001049,Avenida Oaxaca,15.8749238,-97.0771701
13015508100,Avenida Oaxaca,15.8748393,-97.0771171
5775943808,Avenida Oaxaca,15.8747561,-97.0770527
10285001050,Avenida Oaxaca,15.8746697,-97.0769696
5775943782,Avenida Oaxaca,15.874589,-97.0768677
10285001047,Avenida Oaxaca,15.8745304,-97.0767416
5775943799,Avenida Oaxaca,15.8744717,-97.0766048
8456131463,Avenida Oaxaca,15.8744085,-97.076401
8456131466,Avenida Oaxaca,15.8743096,-97.0760631
8478977312,Avenida Oaxaca,15.8741386,-97.0754792
2027266850,Avenida Oaxaca y Calle Cuarta Poniente,15.8740913,-97.0753177
4491341099,Avenida Oaxaca,15.8739841,-97.0749566
6370750611,Avenida Oaxaca,15.8738873,-97.0746173
5917171383,Avenida Oaxaca y Calle Tercera Poniente,15.873748,-97.0741506
2027266703,Calle Tercera Poniente y Calle Décima Norte,15.8725033,-97.0737981
2027266569,Calle Tercera Poniente,15.8704716,-97.0732389
13169703076,Calle Tercera Poniente,15.8703038,-97.0731898
6131663670,Calle Tercera Poniente y Calle Octava Norte,15.8696582,-97.073001
6131669132,Calle Tercera Poniente,15.8689575,-97.0727952
13162922140,Calle Tercera Poniente,15.8686,-97.072697
5917171529,Calle Tercera Poniente,15.8682087,-97.0725896
7128925576,Calle Tercera Poniente y Calle Séptima Norte,15.867914,-97.0725048
6131668588,Calle Tercera Poniente,15.8675241,-97.0723919
2027266448,Calle Tercera Poniente,15.8670981,-97.0722775
2027266419,Calle Tercera Poniente,15.8662896,-97.072053
2027266381,Calle Tercera Poniente,15.8654634,-97.0718155
1873912222,Calle Tercera Poniente,15.8645982,-97.071573
2027266323,Calle Tercera Poniente,15.8637541,-97.0713336
6821345755,Calle Tercera Poniente y Boulevard José Murat,15.8629879,-97.0711176
6821345739,Calle Tercera Poniente y Calle Primera Norte,15.8629306,-97.0711014
6131663667,Calle Primera Norte y Boulevard José Murat,15.8629175,-97.0711477
6821345749,Boulevard José Murat y Calle Tercera Poniente,15.8628695,-97.0710842
6820758013,Boulevard José Murat,15.8623712,-97.0702378
291180374,Boulevard José Murat y Avenida Hidalgo,15.8622982,-97.0701123
8520773711,Boulevard José Murat,15.8621829,-97.0698936
6820758010,Boulevard José Murat,15.8621164,-97.0697675
1955005850,Boulevard José Murat,15.8619367,-97.0693923
8520773709,Boulevard José Murat,15.8618323,-97.0690802
1873912202,Boulevard José Murat,15.8618115,-97.069018
1873912196,Boulevard José Murat,15.8617764,-97.068862
1955005871,Boulevard José Murat,15.8617044,-97.0684432
1955005822,Boulevard José Murat,15.8616893,-97.0680495
1955005895,Boulevard José Murat,15.8616964,-97.0677754
11540371436,Boulevard José Murat,15.8617132,-97.0675249
469303316,Boulevard José Murat y Avenida Oaxaca,15.8617561,-97.0672169
1955005906,Avenida Oaxaca y Boulevard José Murat,15.86186,-97.0672358
1955005953,Avenida Oaxaca,15.8619588,-97.0672901
4899550652,Avenida Oaxaca,15.8620587,-97.0673631
2027266262,Avenida Oaxaca,15.862137,-97.0674274
6714871442,Avenida Oaxaca,15.8621884,-97.0675321
2027266265,Avenida Oaxaca y Calle Primera Oriente,15.8622216,-97.0676502
469299103,Avenida Oaxaca,15.8623102,-97.0679224
6821345750,Avenida Oaxaca,15.8623973,-97.0680778
469300815,Avenida Oaxaca,15.8625117,-97.0681993
6821345756,Avenida Oaxaca,15.8626342,-97.068268
2027266284,Avenida Oaxaca y Avenida Hidalgo,15.862769,-97.0683285
6821345740,Avenida Oaxaca,15.8628322,-97.068353
2027266318,Avenida Oaxaca,15.8635926,-97.0686107
2027266347,Avenida Oaxaca,15.864385,-97.0688792
1873912223,Avenida Oaxaca,15.8652245,-97.0691638
2027266411,Avenida Oaxaca,15.8660703,-97.0694504
2027266440,Avenida Oaxaca,15.8668624,-97.0697349
2027266464,Avenida Oaxaca y Calle Sexta Norte,15.8676813,-97.070007
1873912227,Avenida Oaxaca y Calle Séptima Norte,15.8684946,-97.0702954
1873912230,Avenida Oaxaca,15.8701545,-97.0708718
2027266579,Avenida Oaxaca,15.8707129,-97.0710621
2028241642,Avenida Oaxaca,15.8711857,-97.0712057
2027266677,Avenida Oaxaca y Calle Décima Norte,15.8721475,-97.07155
5777712104,Avenida Oaxaca,15.8729764,-97.0718905
8478031137,Avenida Oaxaca,15.8730224,-97.0718956
2027266773,Avenida Oaxaca,15.8730613,-97.0719197
6370750628,Avenida Oaxaca y Calle Ignacio Zaragoza,15.8731092,-97.0719701
469301990,Avenida Oaxaca,15.8731609,-97.072031
6370783892,Avenida Oaxaca y Calle Ignacio Zaragoza,15.873259,-97.0721905
1954995905,Avenida Oaxaca,15.873472,-97.0728658
6131663676,Avenida Oaxaca y Calle Álvaro Obregón,15.8736358,-97.0734425
2027266832,Avenida Oaxaca y Calle Tercera Poniente,15.8738486,-97.0741747
6131663678,Avenida Oaxaca,15.8740731,-97.0749271
6370750625,Avenida Oaxaca,15.874184,-97.0753117
6131663677,Avenida Oaxaca,15.8745039,-97.0764305
5775943794,Avenida Oaxaca,15.8745265,-97.0765076
469300198,Avenida Oaxaca,15.8745762,-97.0766692
6370783891,Avenida Oaxaca,15.8746368,-97.0767953
6370750623,Avenida Oaxaca,15.8746704,-97.0768637
10285057669,Avenida Oaxaca,15.8747503,-97.0769656
10285057668,Avenida Oaxaca,15.874829,-97.0770367
1954995912,Avenida Oaxaca,15.8749322,-97.077105
10285057667,Avenida Oaxaca,15.8750109,-97.0771413
469300027,Avenida Oaxaca,15.8751261,-97.0771858
10285057666,Avenida Oaxaca,15.8753076,-97.0772459
6370750613,Avenida Oaxaca,15.8754275,-97.0772714
13015526804,Avenida Oaxaca,15.8755243,-97.0772848
13015526803,Avenida Oaxaca,15.8756239,-97.0772892
469303317,Avenida Oaxaca y Calle Salinas de Gortari,15.8757515,-97.0772821
8478837757,Calle Salinas de Gortari,15.8758901,-97.0772743
8478837756,Calle Salinas de Gortari,15.8765163,-97.0772387
2027266994,Calle Salinas de Gortari,15.8771032,-97.0772003
2027266998,Calle Salinas de Gortari,15.8774837,-97.0771761
1955005828,Calle Salinas de Gortari,15.8777443,-97.0771694
2027267027,Calle Salinas de Gortari,15.8778864,-97.0772155
1955005752,Calle Salinas de Gortari,15.8779894,-97.0772713
1955005897,Calle Salinas de Gortari,15.8781377,-97.0773813
2594568428,Calle Salinas de Gortari,15.8784047,-97.0776334
6274546267,Calle Salinas de Gortari,15.8787259,-97.0779406
1955005817,Calle Salinas de Gortari,15.879029,-97.0782088
1955005902,Calle Salinas de Gortari,15.8792341,-97.0783845
1955005949,Calle Salinas de Gortari,15.8793902,-97.078473
1955005756,Calle Salinas de Gortari,15.8795528,-97.0785481
1955005893,Calle Salinas de Gortari,15.8798314,-97.0786513
1955005760,Calle Salinas de Gortari,15.880368,-97.0788042
1955005776,Calle Salinas de Gortari,15.8808981,-97.0789813
1955005749,Calle Salinas de Gortari,15.8811561,-97.0790235
6817965089,Calle Salinas de Gortari,15.8813185,-97.0790349
1955005887,Calle Salinas de Gortari,15.8817281,-97.079039
6274544795,Calle Salinas de Gortari,15.8824618,-97.0790412
8444468752,Calle Salinas de Gortari,15.8825673,-97.079042
2594568509,Calle Salinas de Gortari,15.8835219,-97.07905
2027267137,Calle Salinas de Gortari y Calle Vicente Guerrero,15.8842891,-97.0790733
8444468759,Calle Salinas de Gortari y Calle Vicente Guerrero,15.8843552,-97.0790735
2594568541,Calle Vicente Guerrero y Calle Salinas de Gortari,15.884352,-97.0791602
4491341173,Calle Vicente Guerrero,15.8842923,-97.0800361
2594568536,Calle Vicente Guerrero y Calle Benito Juárez,15.8842574,-97.0808265
4491341155,Calle Benito Juárez,15.8847039,-97.0808587
4491341188,Calle Benito Juárez,15.8851289,-97.080889
2594568556,Calle Benito Juárez,15.8851315,-97.0808892
4491341248,Calle Benito Juárez,15.8855881,-97.0809062
2594568585,Calle Benito Juárez,15.8860051,-97.0809298
4491341153,Calle Benito Juárez,15.8864448,-97.0809509
4491341154,Calle Benito Juárez,15.886903,-97.0809724
4491341152,Calle Benito Juárez,15.8873437,-97.080993
2594568652,Calle Benito Juárez y Calle Abasolo,15.8878933,-97.0810157
3401953581,Calle Cadete Vicente Suárez y Calle Mariano Matamoros,15.8542628,-97.0461884
3401953801,Calle Cadete Vicente Suárez,15.8554679,-97.0466171
3401953824,Calle Cadete Vicente Suárez y Calle Ignacio Mejía,15.8564109,-97.0469776
3401953819,Calle Ignacio Mejía,15.8562203,-97.0475184
3401953816,Calle Ignacio Mejía,15.8560431,-97.0480258
3401953811,Calle Ignacio Mejía,15.8558478,-97.0485565
3401953808,Calle Ignacio Mejía,15.8556634,-97.0491137
6131668620,Calle Ignacio Mejía,15.8554725,-97.049661
6131668841,Calle Ignacio Mejía,15.8553132,-97.0501364
6131668494,Calle Ignacio Mejía,15.8552752,-97.0502257
2027266036,Calle Ignacio Mejía,15.8551117,-97.0506942
2027266035,Calle Ignacio Mejía,15.8550396,-97.0508895
6131669064,Calle Ignacio Mejía,15.8544168,-97.0514768
6131668410,Calle Ignacio Mejía,15.8539613,-97.0518452
2027266031,Calle Ignacio Mejía,15.8534405,-97.0522833
10012328553,Calle Ignacio Mejía,15.852936,-97.052715
2027266027,Calle Ignacio Mejía y Carretera Santiago Pinotepa Nacional - Salina Cruz,15.8528726,-97.0527537
8478437231,Carretera Santiago Pinotepa Nacional - Salina Cruz,15.8532097,-97.0530468
8488579480,Carretera Santiago Pinotepa Nacional - Salina Cruz,15.8534638,-97.0532715
2028240949,Carretera Santiago Pinotepa Nacional - Salina Cruz,15.8538112,-97.0535777
2028241020,Carretera Santiago Pinotepa Nacional - Salina Cruz,15.8554381,-97.0549784
6131668433,Carretera Santiago Pinotepa Nacional - Salina Cruz,15.8562848,-97.0557344
11540721504,Carretera Santiago Pinotepa Nacional - Salina Cruz,15.8568026,-97.0561968
4899550630,Carretera Santiago Pinotepa Nacional - Salina Cruz,15.8572361,-97.0565742
11540721500,Carretera Santiago Pinotepa Nacional - Salina Cruz,15.8576827,-97.0569429
4899550631,Carretera Santiago Pinotepa Nacional - Salina Cruz,15.8580474,-97.0572318
6131663679,Carretera Santiago Pinotepa Nacional - Salina Cruz,15.8582127,-97.057349
4899550632,Carretera Santiago Pinotepa Nacional - Salina Cruz,15.8585173,-97.057565
9359557658,Carretera Santiago Pinotepa Nacional - Salina Cruz,15.8586936,-97.0576895
3401953993,Carretera Santiago Pinotepa Nacional - Salina Cruz,15.8589484,-97.0578594
4899550702,Carretera Santiago Pinotepa Nacional - Salina Cruz,15.8591791,-97.0579917
4899550633,Carretera Santiago Pinotepa Nacional - Salina Cruz,15.8597378,-97.0582944
8495738682,Carretera Santiago Pinotepa Nacional - Salina Cruz,15.8598217,-97.0583347
6131668062,Carretera Santiago Pinotepa Nacional - Salina Cruz,15.8600907,-97.0584637
569856696,Carretera Santiago Pinotepa Nacional - Salina Cruz,15.8602281,-97.0585255
4899550629,Carretera Santiago Pinotepa Nacional - Salina Cruz,15.8604825,-97.0586232
8495871484,Carretera Santiago Pinotepa Nacional - Salina Cruz,15.8606132,-97.0586654
4899550628,Carretera Santiago Pinotepa Nacional - Salina Cruz,15.8607018,-97.058694
8478189418,Carretera Santiago Pinotepa Nacional - Salina Cruz y Camino a Malucano,15.8607983,-97.0587299
5774224942,Carretera Santiago Pinotepa Nacional - Salina Cruz,15.8609425,-97.0587921
6649512666,Carretera Santiago Pinotepa Nacional - Salina Cruz,15.8610946,-97.0588763
1955005880,Carretera Santiago Pinotepa Nacional - Salina Cruz,15.8612385,-97.0589699
1955005873,Carretera Santiago Pinotepa Nacional - Salina Cruz,15.8613619,-97.0590696
1955005884,Carretera Santiago Pinotepa Nacional - Salina Cruz,15.8614802,-97.0591722
1955005768,Carretera Santiago Pinotepa Nacional - Salina Cruz,15.8616086,-97.0593138
4899550357,Carretera Santiago Pinotepa Nacional - Salina Cruz,15.8617213,-97.0594638
8488007238,Carretera Santiago Pinotepa Nacional - Salina Cruz,15.8618222,-97.0596204
1955005882,Carretera Santiago Pinotepa Nacional - Salina Cruz y Boulevard José Murat,15.8619712,-97.0598919
1955005833,Boulevard José Murat,15.8621256,-97.0602016
9359557654,Boulevard José Murat,15.8622406,-97.0604216
1955005878,Boulevard José Murat,15.8622915,-97.0605384
8509835146,Boulevard José Murat,15.8623387,-97.0606436
6649517986,Boulevard José Murat,15.862376,-97.0607375
1955005901,Boulevard José Murat,15.8624423,-97.0609285
4899550351,Boulevard José Murat,15.8625177,-97.0611906
1955005778,Boulevard José Murat,15.8625661,-97.0614204
8478437241,Boulevard José Murat,15.8626019,-97.0616946
1955005943,Boulevard José Murat,15.8626139,-97.0618795
4899550352,Boulevard José Murat,15.8626106,-97.0621484
1955005754,Boulevard José Murat,15.8625715,-97.0624224
6131669080,Calle Décima Norte,15.8723159,-97.0726139
2027266523,Calle Primera Oriente,15.8696361,-97.0697085
6131668597,Calle Primera Oriente,15.8691548,-97.0695843
2027266489,Calle Primera Oriente y Calle Séptima Norte,15.8687197,-97.069461
2027266469,Calle Primera Oriente y Calle Sexta Norte,15.867887,-97.069229
2027266446,Calle Primera Oriente,15.8670487,-97.0690079
2027266417,Calle Primera Oriente,15.8662423,-97.0687706
2027266377,Calle Primera Oriente,15.865393,-97.0685339
2027266351,Calle Primera Oriente,15.8645335,-97.0682944
5917171527,Calle Primera Oriente y Calle Primera Norte,15.8637368,-97.0680724
2027266290,Calle Primera Oriente y Avenida Hidalgo,15.8628982,-97.0678389
8488058072,Boulevard José Murat,15.8618332,-97.0667471
11314053718,Boulevard José Murat,15.8619806,-97.0658486
4899550683,Boulevard José Murat,15.8621707,-97.0646896
7122729521,Boulevard José Murat,15.8622753,-97.0640518
1955005923,Boulevard José Murat,15.8624927,-97.0623976
4899550353,Boulevard José Murat,15.8625181,-97.0621525
569856698,Boulevard José Murat,15.8625152,-97.061899
4899550356,Boulevard José Murat,15.8625003,-97.06163
569856700,Boulevard José Murat,15.8624456,-97.0612589
1368497130,Boulevard José Murat,15.862378,-97.0609944
4899550348,Boulevard José Murat,15.8622814,-97.0607462
1873912211,Boulevard José Murat,15.8622206,-97.060586
9359557655,Boulevard José Murat,15.862158,-97.0604499
569856701,Boulevard José Murat,15.8620497,-97.060223
569856703,Boulevard José Murat y Carretera Santiago Pinotepa Nacional - Salina Cruz,15.8618975,-97.0599234
1955005766,Carretera Santiago Pinotepa Nacional - Salina Cruz,15.8617686,-97.0596689
4899550358,Carretera Santiago Pinotepa Nacional - Salina Cruz,15.8616533,-97.0594898
291178913,Carretera Santiago Pinotepa Nacional - Salina Cruz,15.8615431,-97.0593439
6649512675,Carretera Santiago Pinotepa Nacional - Salina Cruz,15.8614287,-97.0592123
1955005848,Carretera Santiago Pinotepa Nacional - Salina Cruz,15.8613044,-97.0591066
6649512683,Carretera Santiago Pinotepa Nacional - Salina Cruz,15.8612073,-97.0590304
1955005840,Carretera Santiago Pinotepa Nacional - Salina Cruz,15.8610979,-97.0589589
6649512678,Carretera Santiago Pinotepa Nacional - Salina Cruz,15.8610041,-97.0589063
6649512669,Carretera Santiago Pinotepa Nacional - Salina Cruz,15.8608695,-97.0588386
4899550344,Carretera Santiago Pinotepa Nacional - Salina Cruz,15.8607822,-97.0587963
5774225205,Camino a Malucano,15.860837,-97.0586427
4899550345,Camino a Malucano,15.8609118,-97.058567
6649512668,Camino a Malucano,15.8609699,-97.0584905
5774225154,Camino a Malucano,15.8610073,-97.0584161
6649512667,Camino a Malucano,15.8610505,-97.0583289
4899550343,Camino a Malucano,15.8611305,-97.0582411
6649512680,Camino a Malucano,15.8612937,-97.0580761
1011825759,Camino a Malucano,15.8613459,-97.0580044
1011827969,Camino a Malucano,15.8614736,-97.0577449
4899550342,Camino a Malucano,15.8615078,-97.0576168
4899550341,Camino a Malucano,15.8615091,-97.0575142
4899550340,Camino a Malucano,15.8614872,-97.0574149
6131668424,Camino a Malucano,15.8614472,-97.057317
5774225186,Camino a Malucano,15.8613949,-97.0571494
1011828651,Camino a Malucano,15.8614014,-97.0569503
1011825869,Camino a Malucano,15.8614182,-97.056845
6131668308,Camino a Malucano,15.8615072,-97.0565861
1011828457,Camino a Malucano y Calle Puerto Juárez,15.8616439,-97.0563515
1011826381,Calle Puerto Juárez,15.8618326,-97.0562989
4899550634,Calle Puerto Juárez,15.8619636,-97.0562375
4899550636,Calle Puerto Juárez,15.8620522,-97.0561288
6131668623,Calle Puerto Juárez,15.862136,-97.0559228
4899550637,Calle Puerto Juárez,15.8622094,-97.0557925
4899550638,Calle Puerto Juárez,15.8622546,-97.0557211
4491341418,Calle Puerto Juárez,15.8624612,-97.0555607
1011826619,Calle Puerto Juárez,15.8626288,-97.0554938
2028241283,Calle Puerto Juárez,15.8627545,-97.055459
2028241285,Calle Puerto Juárez,15.8628878,-97.0555392
1011827664,Calle Puerto Juárez,15.8630303,-97.055574
6321412375,Calle Puerto Juárez,15.8632887,-97.0556489
2028241309,Calle Puerto Juárez,15.8633351,-97.0556704
1011827002,Calle Puerto Juárez,15.8634014,-97.0556809
6131668052,Calle Puerto Juárez,15.863677,-97.0556662
4491341422,Calle Puerto Juárez,15.8638587,-97.0555729
1011828085,Calle Puerto Juárez,15.8641145,-97.055488
1011828251,Calle Puerto Juárez,15.8642429,-97.0554662
1011826094,Calle Puerto Juárez,15.8645219,-97.055532
4491341450,Calle Puerto Juárez y Andador Puerto Santa Cruz,15.8648194,-97.0556219
2594568654,Calle Abasolo,15.8879107,-97.080435
4491341168,Calle Abasolo,15.887915,-97.0802241
2594568655,Calle Abasolo y Calle Salinas de Gortari,15.8879043,-97.0792085
4491341261,Calle Salinas de Gortari,15.8874863,-97.0791995
4491341263,Calle Salinas de Gortari,15.8870028,-97.0791919
4491341265,Calle Salinas de Gortari,15.8865781,-97.0791868
2594568589,Calle Salinas de Gortari,15.8861139,-97.0791851
4491341247,Calle Salinas de Gortari,15.8856725,-97.0791823
4491341270,Calle Salinas de Gortari,15.8852193,-97.0791883
4491341268,Calle Salinas de Gortari,15.8847704,-97.079183
8444468758,Calle Salinas de Gortari y Calle Vicente Guerrero,15.8842893,-97.0791602
2594568532,Calle Salinas de Gortari,15.8839499,-97.0791556
2594568508,Calle Salinas de Gortari,15.8835205,-97.0791439
2594568497,Calle Salinas de Gortari,15.8830096,-97.0791475
6274546401,Calle Salinas de Gortari,15.8825629,-97.0791459
8444468753,Calle Salinas de Gortari,15.8824621,-97.0791451
8475813248,Calle Salinas de Gortari,15.8817275,-97.0791425
2594568469,Calle Salinas de Gortari,15.8813452,-97.0791339
6817965163,Calle Salinas de Gortari,15.8812235,-97.0791333
8478082824,Calle Salinas de Gortari,15.8811741,-97.0791283
1954995909,Calle Salinas de Gortari,15.8811003,-97.0791208
1954995919,Calle Salinas de Gortari,15.88086,-97.0790728
469303133,Calle Salinas de Gortari,15.8804645,-97.0789418
1954995911,Calle Salinas de Gortari,15.879803,-97.0787385
1954995916,Calle Salinas de Gortari,15.8795244,-97.0786446
1954995906,Calle Salinas de Gortari,15.8793528,-97.0785776
1954995907,Calle Salinas de Gortari,15.8791748,-97.0784757
469301632,Calle Salinas de Gortari,15.8789508,-97.0782882
1955005758,Calle Salinas de Gortari,15.8781093,-97.0774671
1954995918,Calle Salinas de Gortari,15.8779816,-97.0773612
1368497131,Carretera Santiago Pinotepa Nacional - Salina Cruz,15.8605936,-97.0587381
4899550359,Carretera Santiago Pinotepa Nacional - Salina Cruz,15.8604578,-97.0586938
9359557659,Carretera Santiago Pinotepa Nacional - Salina Cruz,15.8601242,-97.0585777
569856705,Carretera Santiago Pinotepa Nacional - Salina Cruz,15.8600338,-97.0585393
8495738683,Carretera Santiago Pinotepa Nacional - Salina Cruz,15.8597795,-97.0584263
1873912156,Carretera Santiago Pinotepa Nacional - Salina Cruz,15.8595683,-97.0583324
4899550360,Carretera Santiago Pinotepa Nacional - Salina Cruz,15.8592404,-97.0581475
4899550361,Carretera Santiago Pinotepa Nacional - Salina Cruz,15.8591122,-97.0580597
291181322,Carretera Santiago Pinotepa Nacional - Salina Cruz,15.8586473,-97.057749
4899550363,Carretera Santiago Pinotepa Nacional - Salina Cruz,15.8581564,-97.0573977
8479016842,Carretera Santiago Pinotepa Nacional - Salina Cruz,15.8577991,-97.0571267
4899550364,Carretera Santiago Pinotepa Nacional - Salina Cruz,15.8577214,-97.0570677
8478437248,Carretera Santiago Pinotepa Nacional - Salina Cruz,15.8575093,-97.0568915
1955738059,Carretera Santiago Pinotepa Nacional - Salina Cruz,15.8572553,-97.0566805
2028241018,Carretera Santiago Pinotepa Nacional - Salina Cruz,15.855389,-97.0550569
9359187129,Carretera Santiago Pinotepa Nacional - Salina Cruz,15.8549751,-97.0547057
8509835158,Carretera Santiago Pinotepa Nacional - Salina Cruz,15.8545253,-97.054315
6131668251,Carretera Santiago Pinotepa Nacional - Salina Cruz,15.854175,-97.0540015
8478532266,Carretera Santiago Pinotepa Nacional - Salina Cruz,15.8537582,-97.0536403
2027266026,Carretera Santiago Pinotepa Nacional - Salina Cruz,15.8528174,-97.0528173
10012328556,Carretera Santiago Pinotepa Nacional - Salina Cruz,15.8525833,-97.052603
11548871085,Carretera Santiago Pinotepa Nacional - Salina Cruz,15.8520502,-97.052215
11540721521,Carretera Santiago Pinotepa Nacional - Salina Cruz,15.8520296,-97.0521989
11540721520,Carretera Santiago Pinotepa Nacional - Salina Cruz,15.8520159,-97.0521869
11540721525,Carretera Santiago Pinotepa Nacional - Salina Cruz,15.8519989,-97.0521749
11548871083,Carretera Santiago Pinotepa Nacional - Salina Cruz,15.8519829,-97.0521601
11540721506,Carretera Santiago Pinotepa Nacional - Salina Cruz,15.8519684,-97.052148
11540721534,Carretera Santiago Pinotepa Nacional - Salina Cruz,15.8519442,-97.0521232
11540721505,Innominada,15.8519451,-97.0520391
11540721516,Innominada,15.8519636,-97.0520083
11540721524,Innominada,15.8519911,-97.0519859
11540721526,Innominada,15.8520243,-97.0519746
11540721518,Carretera Santiago Pinotepa Nacional - Salina Cruz,15.8520567,-97.0519671
11548871087,Carretera Santiago Pinotepa Nacional - Salina Cruz,15.8520851,-97.0519855
11548871088,Carretera Santiago Pinotepa Nacional - Salina Cruz,15.8521103,-97.0520063
11540721511,Carretera Santiago Pinotepa Nacional - Salina Cruz,15.8521362,-97.0520356
2027266025,Carretera Santiago Pinotepa Nacional - Salina Cruz y Calle Mariano Matamoros,15.852503,-97.0524122
10012328572,Calle Mariano Matamoros,15.8525266,-97.0523324
2458840634,Calle Mariano Matamoros,15.8528223,-97.0516412
2027266028,Calle Mariano Matamoros,15.8529596,-97.0511725
3401953559,Calle Mariano Matamoros,15.8530266,-97.050604
3401953561,Calle Mariano Matamoros,15.8530918,-97.0500294
2027266029,Calle Mariano Matamoros,15.8531286,-97.0494179
6806780908,Calle Mariano Matamoros,15.8531452,-97.0493286
3401953564,Calle Mariano Matamoros,15.8531681,-97.0492642
3401953566,Calle Mariano Matamoros,15.8533102,-97.0488649
3401953568,Calle Mariano Matamoros,15.8535127,-97.0482959
3401953569,Calle Mariano Matamoros,15.8536859,-97.0478093
3401953570,Calle Mariano Matamoros,15.8538877,-97.0472422
3401953578,Calle Mariano Matamoros,15.854071,-97.0467273
2027266033,Calle Mariano Matamoros,15.85446,-97.0456343
1011826782,Andador Puerto Santa Cruz,15.8656833,-97.0567675
7128925577,Calle Séptima Norte,15.8681292,-97.0716744
6131668578,Calle Séptima Norte,15.8682417,-97.0712696
7128925578,Calle Séptima Norte,15.8683455,-97.0708609
4491342105,Calle Ignacio Zaragoza,15.8964888,-97.045982
8482060525,Calle Ignacio Zaragoza,15.8957883,-97.0464941
4491342106,Calle Ignacio Zaragoza,15.8944431,-97.0474774
8448332506,Calle Ignacio Zaragoza,15.8942251,-97.0475163
4491342107,Calle Ignacio Zaragoza,15.8934396,-97.0476061
6274544433,Calle Ignacio Zaragoza,15.8933506,-97.0476343
6274545398,Calle Ignacio Zaragoza,15.8927087,-97.0480261
6274545408,Innominada,15.8924862,-97.0473692
6274545268,Innominada,15.8923407,-97.0469342
6274546209,Innominada,15.8915926,-97.0472749
6274546412,Innominada,15.8912662,-97.0465949
6274546497,Innominada,15.8905671,-97.0468846
6274546253,Innominada,15.8897571,-97.0471931
6274544449,Innominada,15.8898738,-97.0474506
6274544448,Innominada,15.8899822,-97.0476893
6274545414,Innominada,15.8900654,-97.0478717
6274546125,Innominada,15.8901557,-97.0481077
6274546415,Innominada,15.890224,-97.0482633
6274545592,Innominada,15.8906329,-97.0492557
4491341533,Innominada,15.8910083,-97.0491216
4491341532,Innominada,15.8917719,-97.0487836
2027267196,Calle Ignacio Zaragoza,15.8921123,-97.0484028
8448282766,Calle Ignacio Zaragoza,15.892199,-97.0485631
2027267200,Calle Ignacio Zaragoza,15.8926754,-97.0494444
8448282769,Calle Ignacio Zaragoza,15.8928638,-97.0502752
2027267201,Calle Ignacio Zaragoza,15.8930702,-97.0511855
8447998705,Calle Ignacio Zaragoza,15.8930204,-97.0513424
2027267199,Calle Ignacio Zaragoza,15.8924835,-97.0519753
2027267198,Calle Ignacio Zaragoza,15.8922801,-97.0524086
2027267192,Calle Ignacio Zaragoza,15.8917835,-97.0528552
2027267188,Calle Ignacio Zaragoza,15.8914778,-97.0532481
2027267186,Calle Ignacio Zaragoza,15.890758,-97.0540394
2027267182,Calle Ignacio Zaragoza,15.8901539,-97.0550214
2027267179,Calle Ignacio Zaragoza,15.889534,-97.0557962
2027267177,Calle Ignacio Zaragoza,15.8890877,-97.0564856
6274544683,Calle Ignacio Zaragoza,15.8888013,-97.0568329
2027267171,Calle Ignacio Zaragoza,15.8886827,-97.0571038
2027267173,Calle Ignacio Zaragoza,15.888711,-97.0587601
8448282760,Calle Ignacio Zaragoza,15.8886676,-97.0588404
2027267169,Calle Ignacio Zaragoza,15.8883312,-97.0594628
2027267157,Calle Ignacio Zaragoza,15.8878576,-97.0600472
6274545672,Calle Ignacio Zaragoza,15.8879895,-97.0609667
6274546074,Calle Ignacio Zaragoza,15.8880386,-97.0612545
2027267163,Calle Ignacio Zaragoza,15.8880542,-97.0613661
6274546166,Calle Ignacio Zaragoza,15.8880603,-97.0623167
6274546258,Calle Ignacio Zaragoza,15.8880429,-97.0625648
6274545662,Calle Ignacio Zaragoza,15.8880124,-97.0631638
6274545628,Calle Ignacio Zaragoza,15.8879742,-97.0639926
6274544592,Calle Ignacio Zaragoza,15.8879281,-97.0646998
2027267159,Calle Ignacio Zaragoza,15.8878488,-97.0647352
2027267155,Calle Ignacio Zaragoza,15.887052,-97.0651524
6274546266,Calle Ignacio Zaragoza,15.8869729,-97.065189
6274545265,Calle Ignacio Zaragoza,15.88643,-97.0654341
8447998695,Calle Ignacio Zaragoza,15.8855421,-97.0657871
6274546181,Calle Ignacio Zaragoza,15.8854812,-97.0658113
2027267151,Calle Ignacio Zaragoza,15.885007,-97.0660512
2027267145,Calle Ignacio Zaragoza,15.8847821,-97.0658213
6274545465,Calle Ignacio Zaragoza,15.8840887,-97.0665371
2027267130,Calle Ignacio Zaragoza,15.8838563,-97.0667903
4491341296,Calle Ignacio Zaragoza,15.8836594,-97.0669934
4491341294,Calle Ignacio Zaragoza,15.8829807,-97.0676152
4491341292,Calle Ignacio Zaragoza,15.8824309,-97.0681929
4491341289,Calle Ignacio Zaragoza,15.8820272,-97.0685927
4491341290,Calle Ignacio Zaragoza,15.8818973,-97.0687259
2594568473,Calle Ignacio Zaragoza,15.881407,-97.069255
2027267080,Calle Ignacio Zaragoza,15.8811487,-97.0695005
6274546262,Calle Ignacio Zaragoza,15.8810144,-97.0695863
6274546271,Calle Ignacio Zaragoza,15.8803883,-97.0697736
2027267067,Calle Ignacio Zaragoza y Calle Miguel Allende,15.8798351,-97.0699316
2027267072,Calle Miguel Allende y Calle Álvaro Obregón,15.8801795,-97.0711403
4491341300,Calle Álvaro Obregón,15.8796626,-97.071506
2027267050,Calle Álvaro Obregón,15.8794382,-97.0716557
2027267046,Calle Álvaro Obregón,15.8791616,-97.0717601
6274545431,Calle Álvaro Obregón,15.8786611,-97.0719016
6274546052,Calle Álvaro Obregón,15.878099,-97.0720893
6274546575,Calle Álvaro Obregón,15.8775221,-97.0722554
2030805764,Calle Álvaro Obregón y Calle Mar Mediterráneo,15.8769553,-97.0724383
4491341323,Calle Álvaro Obregón,15.8763723,-97.0725995
2027266978,Calle Álvaro Obregón,15.8758134,-97.0728012
4491341327,Calle Álvaro Obregón,15.8752626,-97.0729716
4491341333,Calle Álvaro Obregón,15.874697,-97.07315
4491341337,Calle Álvaro Obregón,15.8742247,-97.0732793
2458840604,Carretera Santiago Pinotepa Nacional - Salina Cruz,15.8515479,-97.0517038
8081765318,Carretera Santiago Pinotepa Nacional - Salina Cruz,15.8511366,-97.0513351
3401953514,Carretera Santiago Pinotepa Nacional - Salina Cruz,15.8500988,-97.0504266
11540721515,Carretera Santiago Pinotepa Nacional - Salina Cruz,15.8486111,-97.0491243
8078713807,Carretera Santiago Pinotepa Nacional - Salina Cruz,15.8484449,-97.0489992
11540721501,Innominada,15.8484264,-97.0489931
11540721499,Innominada,15.8484087,-97.048981
8078713800,Carretera Santiago Pinotepa Nacional - Salina Cruz,15.8483917,-97.048958
8078713814,Carretera Santiago Pinotepa Nacional - Salina Cruz,15.8481752,-97.0487352
6131669135,Carretera Santiago Pinotepa Nacional - Salina Cruz,15.8474411,-97.0481046
2458840558,Carretera Santiago Pinotepa Nacional - Salina Cruz,15.8470319,-97.0477508
2458840616,Carretera Santiago Pinotepa Nacional - Salina Cruz,15.8449741,-97.0459092
8477788416,Carretera Santiago Pinotepa Nacional - Salina Cruz,15.8448763,-97.0458234
10719998613,Carretera Santiago Pinotepa Nacional - Salina Cruz,15.8447786,-97.0457377
8477788415,Carretera Santiago Pinotepa Nacional - Salina Cruz,15.8446305,-97.0456079
6415120894,Carretera Santiago Pinotepa Nacional - Salina Cruz,15.8444834,-97.0454789
8478681813,Carretera Santiago Pinotepa Nacional - Salina Cruz,15.8439996,-97.0450546
8478681808,Carretera Santiago Pinotepa Nacional - Salina Cruz y Calle Alejandro Cárdenas Peralta,15.8421062,-97.0433976
8478681807,Calle Alejandro Cárdenas Peralta,15.8419492,-97.0434225
8478681809,Calle Alejandro Cárdenas Peralta,15.8418215,-97.0434176
3401953332,Calle Alejandro Cárdenas Peralta,15.8412367,-97.0435483
3401953329,Calle Alejandro Cárdenas Peralta,15.841167,-97.0435639
1873912127,Calle Alejandro Cárdenas Peralta,15.8406931,-97.0436698
3401953319,Calle Alejandro Cárdenas Peralta,15.8406191,-97.0436864
3401953306,Calle Alejandro Cárdenas Peralta,15.8393377,-97.0439727
6131668178,Calle Alejandro Cárdenas Peralta,15.8392226,-97.0439985
1873912124,Calle Alejandro Cárdenas Peralta,15.8382203,-97.0442199
1873912118,Calle Alejandro Cárdenas Peralta,15.8370441,-97.0443471
3401950380,Calle Alejandro Cárdenas Peralta,15.8356105,-97.0444685
1873912114,Calle Alejandro Cárdenas Peralta y Avenida Heroes Oaxaqueños,15.8339187,-97.0446368
6186135487,Calle Primera Norte,15.8638855,-97.0675179
2027266330,Calle Primera Norte,15.8639558,-97.0672559
2027266335,Calle Primera Norte y Calle Tercera Oriente,15.8641766,-97.0664322
2027266343,Calle Primera Norte,15.8643934,-97.0656235
2027266354,Calle Primera Norte y Calle Quinta Oriente,15.8645787,-97.0648004
2027266360,Calle Primera Norte y Calle Sexta Oriente,15.8647942,-97.0639676
2027266368,Calle Primera Norte y Calle Séptima Oriente,15.8650135,-97.0631509
2027266397,Calle Séptima Oriente y Calle Segunda Norte,15.8657963,-97.0633702
6131668917,Calle Segunda Norte,15.8660014,-97.0625706
6131668916,Calle Segunda Norte,15.8662141,-97.0617411
2027266421,Calle Segunda Norte,15.8663182,-97.061335
6371125097,Calle Segunda Norte,15.8664273,-97.0608334
2027266425,Calle Segunda Norte,15.8664389,-97.0606946
6371125098,Calle Segunda Norte,15.8663809,-97.0605907
6371125099,Calle Segunda Norte,15.8661835,-97.060474
2027266415,Calle Segunda Norte,15.8660854,-97.0604257
3401954036,Calle Segunda Norte,15.8660984,-97.060362
2027266416,Calle del Carmen,15.8661757,-97.060207
2027266424,Calle del Carmen,15.8662585,-97.0600754
6371125100,Calle del Carmen,15.8663616,-97.0601179
2027266450,Calle del Carmen,15.8672437,-97.0600145
2027266458,Calle del Carmen,15.8675023,-97.0598962
2027266470,Calle del Carmen,15.8678953,-97.0596193
2027266486,Calle del Carmen,15.8684726,-97.0592328
2027266490,Calle del Carmen,15.8686843,-97.0587817
4491341494,Calle del Carmen,15.8688701,-97.0585528
2027266501,Calle del Carmen,15.8689558,-97.0584484
4491341478,Calle del Carmen,15.8692092,-97.0581861
2027266535,Calle del Carmen,15.8697822,-97.0575931
2027266543,Calle del Carmen,15.8700639,-97.0574779
2027266572,Calle del Carmen,15.8705939,-97.057327
2027266593,Calle del Carmen,15.8709815,-97.057422
2027266655,Boulevard José Murat,15.8718364,-97.0919429
8428613897,Boulevard José Murat,15.8711773,-97.0901077
8428613894,Boulevard José Murat,15.8710798,-97.0898362
8428679905,Boulevard José Murat,15.8709967,-97.0896047
1873912228,Boulevard José Murat,15.869272,-97.0848044
6710231200,Boulevard José Murat,15.8692219,-97.084665
8454042746,Boulevard José Murat,15.8681504,-97.0816843
8508889189,Boulevard José Murat,15.8678985,-97.0809835
7208416995,Boulevard José Murat,15.8677994,-97.080708
8508889185,Boulevard José Murat,15.8677179,-97.0804812
469303314,Boulevard José Murat,15.867531,-97.0799613
6820764589,Boulevard José Murat,15.8666247,-97.0774403
1955005935,Boulevard José Murat,15.8664596,-97.0770608
291178917,Boulevard José Murat,15.86623,-97.0766518
6131668867,Boulevard José Murat,15.86566,-97.0757153
6131668016,Boulevard José Murat,15.8652903,-97.0751003
2027266370,Boulevard José Murat,15.865062,-97.0747194
6131668011,Boulevard José Murat,15.8645034,-97.0737837
569856689,Boulevard José Murat,15.8640985,-97.0731147
2027266314,Boulevard José Murat,15.8635267,-97.0721624
2027266272,Avenida Hidalgo,15.8623268,-97.070004
2027266276,Avenida Hidalgo,15.862536,-97.0692113
2027266317,Boulevard José Murat,15.8635674,-97.0720615
8502687929,Boulevard José Murat,15.8636523,-97.0722003
2027266336,Boulevard José Murat,15.864188,-97.0730764
8454006569,Boulevard José Murat,15.8644806,-97.073564
8478015336,Boulevard José Murat,15.8651277,-97.0746424
4491341348,Boulevard José Murat,15.865907,-97.075941
1955005904,Boulevard José Murat,15.8664376,-97.0768253
6820764601,Boulevard José Murat,15.866555,-97.0770675
1955005852,Boulevard José Murat,15.8666711,-97.0773464
1955005846,Boulevard José Murat,15.867605,-97.0799335
8454042742,Boulevard José Murat,15.8676878,-97.0801627
2027266468,Boulevard José Murat,15.8678742,-97.0806791
8454042745,Boulevard José Murat,15.8682251,-97.0816511
6131669216,Boulevard José Murat,15.8687102,-97.0829949
6131668367,Boulevard José Murat y Calle Mangales,15.8689732,-97.0837235
6131668821,Calle Mangales,15.8694494,-97.0835705
6131669104,Calle Mangales,15.8697863,-97.0834622
6131669266,Calle Mangales,15.8701054,-97.0833596
6131668519,Calle Mangales,15.8704361,-97.0832533
6131668008,Calle Mangales y Calle Guayabos,15.8707872,-97.0831405
12032888546,Calle Guayabos,15.8708647,-97.0833381
6131668850,Calle Guayabos,15.8711746,-97.0841278
2027266611,Calle Guayabos,15.8713796,-97.0846501
2027266595,Calle Guayabos,15.8710016,-97.0847739
2027266573,Calle Guayabos,15.8706428,-97.0848914
2027266553,Calle Guayabos,15.8703086,-97.0850008
2027266539,Calle Guayabos,15.8699693,-97.0851119
2027266521,Calle Guayabos y Boulevard José Murat,15.8695267,-97.0852568
8454042753,Boulevard José Murat,15.8697281,-97.0857865
6131668649,Boulevard José Murat,15.8701417,-97.0869604
6131669185,Boulevard José Murat,15.8702994,-97.0873972
6821345751,Boulevard José Murat,15.8707638,-97.0886838
8428679906,Boulevard José Murat,15.8710855,-97.0895748
8428613893,Boulevard José Murat,15.8711677,-97.0898025
8424891016,Boulevard José Murat,15.871265,-97.0900723
8742146372,Boulevard José Murat,15.8718841,-97.0917871
2027266663,Boulevard José Murat,15.8719438,-97.0919527
4491341311,Calle Independencia y Calle Josefa Ortiz de Domínguez,15.8772079,-97.0610118
4491341313,Calle Independencia,15.8771612,-97.0605296
6274546501,Calle Independencia,15.8771209,-97.0600154
6274546278,Calle Libertad,15.8779964,-97.0599006
6131669036,Calle Libertad,15.877923,-97.0604103
4491341314,Calle Libertad y Calle Josefa Ortiz de Domínguez,15.8779662,-97.060889
6274546453,Calle Independencia,15.8772797,-97.0618267
4491341312,Calle Independencia y Calle Mar Mediterráneo,15.8773596,-97.0622774
6131669133,Calle Mar Mediterráneo,15.8766256,-97.062404
4491341310,Calle Mar Mediterráneo,15.8757587,-97.0625094
4491341320,Calle Mar Mediterráneo,15.8750768,-97.0626109
4491341317,Calle Mar Mediterráneo,15.8751491,-97.0630674
6131669075,Calle Mar Mediterráneo,15.8752204,-97.0635753
8457143474,Calle Mar Mediterráneo,15.8752482,-97.0637604
8457143475,Calle Mar Mediterráneo,15.8752721,-97.0639314
6131668627,Calle Mar Mediterráneo y Calle Benito Juárez,15.8753098,-97.0642113
6131668945,Calle Benito Juárez,15.8751142,-97.0642431
6131669021,Calle Benito Juárez,15.8749217,-97.0642518
6131669022,Calle Benito Juárez,15.8746959,-97.0642402
6131668743,Calle Benito Juárez,15.8742376,-97.064224
6131669167,Calle Benito Juárez,15.874036,-97.0642338
6131668970,Calle Benito Juárez,15.87388,-97.0642412
6131669026,Calle Benito Juárez,15.8737252,-97.0642417
6131668185,Calle Benito Juárez,15.8732787,-97.0642184
6131668975,Calle Benito Juárez,15.8724816,-97.0642644
6370750629,Calle Benito Juárez,15.8719304,-97.0642063
2027266657,Calle Benito Juárez,15.8718685,-97.0642103
6370750630,Innominada,15.8717653,-97.0643699
2027266641,Innominada,15.8717203,-97.0648612
6131667999,Innominada,15.8717086,-97.0649412
2027266630,Innominada,15.8716375,-97.0649724
6131668769,Innominada,15.8710671,-97.0648951
2027266577,Innominada,15.870636,-97.0648584
6131668979,Innominada,15.8703516,-97.0649401
6131668589,Innominada,15.8697347,-97.065119
6131668296,Innominada,15.8691302,-97.0653039
2027266495,Calle Sexta Norte,15.8688937,-97.0654201
6131668752,Calle Sexta Norte,15.8687396,-97.066003
6131669032,Calle Sexta Norte,15.8685122,-97.0668635
2027266476,Calle Sexta Norte y Calle Tercera Oriente,15.8683151,-97.0676093
6131668904,Calle Tercera Oriente,15.8674322,-97.0674112
6131669136,Calle Tercera Oriente,15.8671741,-97.067309
8460114487,Calle Tercera Oriente,15.8668187,-97.0671836
8460169890,Calle Tercera Oriente,15.8667524,-97.0671648
2027266431,Calle Tercera Oriente,15.8666597,-97.0671384
2027266401,Calle Tercera Oriente,15.8658334,-97.0669055
2594568563,Calle Huanacaxtle y Calle Encinos,15.885507,-97.0899636
6274546503,Calle Huanacaxtle,15.8850491,-97.0901392
6274546435,Calle Huanacaxtle,15.8846028,-97.0903096
6274544395,Calle Huanacaxtle,15.8841603,-97.0904584
8462796460,Calle Huanacaxtle,15.8840048,-97.0905215
6274545660,Calle Huanacaxtle,15.8837372,-97.0906301
2027267124,Calle Huanacaxtle y Calle Mangle,15.8835257,-97.0907092
6274545627,Calle Huanacaxtle,15.8832858,-97.0907789
2027267120,Calle Huanacaxtle,15.88314,-97.0908473
2027267114,Calle Huanacaxtle,15.8827814,-97.0909761
2027267113,Calle Huanacaxtle,15.882397,-97.0911156
2027266367,Calle Tercera Oriente,15.8649544,-97.0666533
2027266309,Calle Tercera Oriente y Avenida Hidalgo,15.8633328,-97.0661922
2027266302,Avenida Hidalgo,15.8631146,-97.067019
7128925579,Calle Sexta Norte,15.8680548,-97.0684234
4491341143,Calle Vicente Guerrero,15.884236,-97.0815072
2594568535,Calle Vicente Guerrero,15.8841884,-97.0822906
8444678242,Calle Vicente Guerrero,15.8841177,-97.0836619
8445076083,Calle Vicente Guerrero,15.8840665,-97.0845117
4491341218,Calle Vicente Guerrero,15.8840444,-97.0848784
2594568533,Calle Vicente Guerrero y Calle Encinos,15.8840119,-97.0855351
4491341215,Calle Encinos,15.8841506,-97.086004
2594568540,Calle Encinos,15.8842867,-97.0864378
8444678244,Calle Encinos,15.8844286,-97.0867918
8444678243,Calle Encinos,15.8845163,-97.0870708
4491341204,Calle Encinos,15.8845989,-97.0873564
2594568550,Calle Encinos,15.8848703,-97.0881718
2594568557,Calle Encinos,15.8852087,-97.0890583
4491341299,Calle Ignacio Zaragoza,15.8792789,-97.0700942
4491341304,Calle Ignacio Zaragoza,15.878736,-97.0702724
6274546042,Calle Ignacio Zaragoza,15.8780648,-97.0704773
4491341305,Calle Ignacio Zaragoza,15.8776211,-97.0706095
4491341307,Calle Ignacio Zaragoza,15.8770621,-97.0707793
2027266987,Calle Ignacio Zaragoza y Calle Mar Mediterráneo,15.8765538,-97.0709494
2027266981,Calle Ignacio Zaragoza,15.8759599,-97.0711368
2027266964,Calle Ignacio Zaragoza,15.8753621,-97.0713107
4491341328,Calle Ignacio Zaragoza,15.874797,-97.0714742
4491341334,Calle Ignacio Zaragoza,15.8742483,-97.0716417
2027266834,Calle Ignacio Zaragoza,15.8739378,-97.0717349
4491341338,Calle Ignacio Zaragoza,15.8737953,-97.0717827
8456647627,Calle Ignacio Zaragoza,15.8733854,-97.071943
2027266811,Calle Ignacio Zaragoza,15.8733438,-97.0719635
1873912115,Avenida Heroes Oaxaqueños,15.8339431,-97.0449372
3401950375,Avenida Heroes Oaxaqueños,15.8338866,-97.0442434
3401950374,Avenida Heroes Oaxaqueños,15.8338518,-97.0438148
3401950373,Avenida Heroes Oaxaqueños,15.8338149,-97.0433621
3401950372,Avenida Heroes Oaxaqueños,15.8337804,-97.0429387
1873912113,Avenida Heroes Oaxaqueños y Calle Guerrero,15.8337448,-97.0425009
8475607876,Calle Guerrero,15.8354162,-97.0423358
1873912117,Calle Guerrero,15.8368475,-97.0422115
1873912125,Calle Guerrero y Avenida Brisas,15.8382305,-97.0421024
6131668908,Avenida Brisas,15.8382312,-97.0417177
3401953300,Avenida Brisas,15.8382315,-97.0415618
6131668124,Avenida Brisas,15.838221,-97.0412449
6131668357,Avenida Brisas,15.838206,-97.0407975
6131668462,Avenida Brisas,15.8381915,-97.0403625
8478681804,Avenida Brisas,15.838187,-97.040226
1873912123,Avenida Brisas,15.8381645,-97.0399424
6415120893,Avenida Brisas y Carretera Santiago Pinotepa Nacional - Salina Cruz,15.8381937,-97.039876
8478681803,Carretera Santiago Pinotepa Nacional - Salina Cruz,15.838393,-97.0400283
8475665420,Carretera Santiago Pinotepa Nacional - Salina Cruz,15.8391892,-97.0407266
6131669159,Carretera Santiago Pinotepa Nacional - Salina Cruz,15.8405892,-97.0419544
8478149083,Carretera Santiago Pinotepa Nacional - Salina Cruz,15.8414913,-97.0427457
3401953339,Carretera Santiago Pinotepa Nacional - Salina Cruz,15.8416285,-97.042866
8477815417,Carretera Santiago Pinotepa Nacional - Salina Cruz,15.8420132,-97.0431944
8478681810,Carretera Santiago Pinotepa Nacional - Salina Cruz,15.8421696,-97.0433398
6131669157,Carretera Santiago Pinotepa Nacional - Salina Cruz,15.8423558,-97.0435038
3401953351,Carretera Santiago Pinotepa Nacional - Salina Cruz,15.8445199,-97.045402
6131668397,Carretera Santiago Pinotepa Nacional - Salina Cruz,15.8446769,-97.0455397
11523960004,Carretera Santiago Pinotepa Nacional - Salina Cruz,15.8448254,-97.0456699
6131668613,Carretera Santiago Pinotepa Nacional - Salina Cruz,15.8449207,-97.0457535
11523959240,Carretera Santiago Pinotepa Nacional - Salina Cruz,15.8451294,-97.0459378
11523959231,Carretera Santiago Pinotepa Nacional - Salina Cruz,15.8453216,-97.0461014
3401953387,Carretera Santiago Pinotepa Nacional - Salina Cruz,15.8470046,-97.0476092
8457402341,Carretera Santiago Pinotepa Nacional - Salina Cruz,15.8475203,-97.0480588
8078713801,Carretera Santiago Pinotepa Nacional - Salina Cruz,15.848256,-97.0487125
11540721531,Carretera Santiago Pinotepa Nacional - Salina Cruz,15.8483308,-97.0487624
8078713808,Carretera Santiago Pinotepa Nacional - Salina Cruz,15.8484844,-97.0488511
11540721529,Innominada,15.8485089,-97.0488671
8078725424,Carretera Santiago Pinotepa Nacional - Salina Cruz,15.8485254,-97.0488908
8078725428,Carretera Santiago Pinotepa Nacional - Salina Cruz,15.8486305,-97.0490317
3401953508,Carretera Santiago Pinotepa Nacional - Salina Cruz,15.8488507,-97.0492313
6131668703,Carretera Santiago Pinotepa Nacional - Salina Cruz,15.8492412,-97.0495706
3401953516,Carretera Santiago Pinotepa Nacional - Salina Cruz,15.8503599,-97.050553
11540721513,Carretera Santiago Pinotepa Nacional - Salina Cruz,15.8515066,-97.0515599
2458840582,Carretera Santiago Pinotepa Nacional - Salina Cruz,15.8515958,-97.0516382
8509835154,Carretera Santiago Pinotepa Nacional - Salina Cruz,15.8519584,-97.0519023
11548871086,Carretera Santiago Pinotepa Nacional - Salina Cruz,15.8520287,-97.05195
10012328555,Carretera Santiago Pinotepa Nacional - Salina Cruz,15.8526332,-97.0525408
6274546551,Calle Vicente Guerrero,15.8842792,-97.0784227
6274546169,Calle Vicente Guerrero,15.8842857,-97.0780427
6274544796,Calle Vicente Guerrero,15.8842712,-97.0777595
2594568539,Calle Vicente Guerrero,15.8842782,-97.077395
6274546447,Calle Vicente Guerrero,15.8842808,-97.0770401
6274545900,Calle Vicente Guerrero,15.8842916,-97.0766685
2027267139,Calle Vicente Guerrero y Calle Tulipanes,15.8843107,-97.076322
2594568543,Calle Tulipanes,15.884421,-97.0763789
2594568546,Calle Tulipanes,15.8845705,-97.0763916
2594568549,Calle Tulipanes,15.8848132,-97.0763469
2594568555,Calle Tulipanes y Calle Bugambilias,15.8850104,-97.0762065
8444487797,Calle Bugambilias,15.8850568,-97.076114
2594568554,Calle Bugambilias,15.8850555,-97.0760241
6274545941,Calle Bugambilias,15.8850104,-97.0758471
2594568547,Calle Bugambilias,15.8847138,-97.0748408
2594568561,Calle Claveles,15.8853391,-97.0746504
8444598673,Calle Claveles,15.8850696,-97.0737477
2594568551,Calle Claveles y Calle Copa de Oro,15.8848983,-97.0731804
4491341229,Calle Mangle,15.8837292,-97.0921014
4491341228,Calle Mangle,15.883939,-97.0932906
4491341225,Calle Mangle y Calle Cuachepil,15.8841481,-97.0944633
4491341098,Calle Cuachepil,15.8837721,-97.0945448
4491341180,Calle Cuachepil,15.8834186,-97.0946172
4491341097,Calle Cuachepil,15.8830489,-97.094678
4491341151,Calle Cuachepil,15.8822371,-97.0948291
4491341226,Calle Cuachepil,15.881831,-97.0949074
2594568538,Calle Copa de Oro y Calle Bugambilias,15.8842787,-97.0733563
8444598672,Calle Bugambilias,15.8844768,-97.0740321
8439858669,Carretera Oaxaca - Puerto Escondido,15.9278444,-97.0822817
6274544875,Carretera Oaxaca - Puerto Escondido,15.9270107,-97.0824453
8439858668,Carretera Oaxaca - Puerto Escondido,15.9266773,-97.0825023
469301419,Carretera Oaxaca - Puerto Escondido,15.9263407,-97.0825828
8439858667,Carretera Oaxaca - Puerto Escondido,15.9261705,-97.0826485
1954991964,Carretera Oaxaca - Puerto Escondido,15.9260041,-97.082731
469299978,Carretera Oaxaca - Puerto Escondido,15.9256378,-97.0829435
8439858666,Carretera Oaxaca - Puerto Escondido,15.9254554,-97.0830555
469300517,Carretera Oaxaca - Puerto Escondido,15.9252748,-97.083134
8439858665,Carretera Oaxaca - Puerto Escondido,15.9250517,-97.0831923
469299596,Carretera Oaxaca - Puerto Escondido,15.9249028,-97.0832024
8439858664,Carretera Oaxaca - Puerto Escondido,15.9244939,-97.0832225
469302350,Carretera Oaxaca - Puerto Escondido,15.9243192,-97.0832071
1954991869,Carretera Oaxaca - Puerto Escondido,15.9241238,-97.0831333
8439858663,Carretera Oaxaca - Puerto Escondido,15.9238433,-97.082971
469298566,Carretera Oaxaca - Puerto Escondido,15.9231617,-97.0825727
8439858662,Carretera Oaxaca - Puerto Escondido,15.9229883,-97.0824675
8439858661,Carretera Oaxaca - Puerto Escondido,15.9227484,-97.0823856
1954992032,Carretera Oaxaca - Puerto Escondido,15.9225904,-97.0823447
8439858660,Carretera Oaxaca - Puerto Escondido,15.9216806,-97.082106
469299171,Carretera Oaxaca - Puerto Escondido,15.921529,-97.0820658
469303224,Carretera Oaxaca - Puerto Escondido,15.9213562,-97.0820437
469303235,Carretera Oaxaca - Puerto Escondido,15.9210416,-97.0820323
8439858659,Carretera Oaxaca - Puerto Escondido,15.9207359,-97.082051
469302722,Carretera Oaxaca - Puerto Escondido,15.9203754,-97.0820779
469300491,Carretera Oaxaca - Puerto Escondido,15.9201936,-97.0821328
8439858658,Carretera Oaxaca - Puerto Escondido,15.9199976,-97.0822294
1954991889,Carretera Oaxaca - Puerto Escondido,15.9198422,-97.0823105
1954991989,Carretera Oaxaca - Puerto Escondido,15.9196758,-97.0823568
2594560219,Carretera Oaxaca - Puerto Escondido,15.9196062,-97.0823528
469300103,Carretera Oaxaca - Puerto Escondido,15.9195043,-97.0823307
469301736,Carretera Oaxaca - Puerto Escondido,15.9194114,-97.0822596
1954992168,Carretera Oaxaca - Puerto Escondido,15.9193115,-97.0821563
1954992117,Carretera Oaxaca - Puerto Escondido,15.919198,-97.0819592
8439858657,Carretera Oaxaca - Puerto Escondido,15.919089,-97.0816695
8439858656,Carretera Oaxaca - Puerto Escondido,15.9190206,-97.0813791
1954992016,Carretera Oaxaca - Puerto Escondido,15.9189936,-97.0811787
1954991961,Carretera Oaxaca - Puerto Escondido,15.9189142,-97.0809842
1954992035,Carretera Oaxaca - Puerto Escondido,15.9187924,-97.0807374
8439858655,Carretera Oaxaca - Puerto Escondido,15.9187666,-97.0806248
469300889,Carretera Oaxaca - Puerto Escondido,15.9187672,-97.0805343
469302578,Carretera Oaxaca - Puerto Escondido,15.9187775,-97.0802975
8439858654,Carretera Oaxaca - Puerto Escondido,15.9187537,-97.0801929
1954991926,Carretera Oaxaca - Puerto Escondido,15.9186692,-97.0800159
1954992008,Carretera Oaxaca - Puerto Escondido,15.9185757,-97.079861
469301911,Carretera Oaxaca - Puerto Escondido,15.9185267,-97.0796599
8439858653,Carretera Oaxaca - Puerto Escondido,15.9185106,-97.0791603
469298745,Carretera Oaxaca - Puerto Escondido,15.9184951,-97.0787492
6311030835,Carretera Oaxaca - Puerto Escondido,15.9185009,-97.0786198
469300673,Carretera Oaxaca - Puerto Escondido,15.9185331,-97.0784743
1954991913,Carretera Oaxaca - Puerto Escondido,15.9186086,-97.0783482
1954992106,Carretera Oaxaca - Puerto Escondido,15.9187169,-97.0782436
469300155,Carretera Oaxaca - Puerto Escondido,15.9189033,-97.0781484
469300237,Carretera Oaxaca - Puerto Escondido,15.9190548,-97.0780438
1954992044,Carretera Oaxaca - Puerto Escondido,15.9191361,-97.0779238
469302751,Carretera Oaxaca - Puerto Escondido,15.9191819,-97.0777293
1954991932,Carretera Oaxaca - Puerto Escondido,15.9192302,-97.0774356
8439858652,Carretera Oaxaca - Puerto Escondido,15.9192315,-97.0773116
1954991941,Carretera Oaxaca - Puerto Escondido,15.9192154,-97.0772043
469300116,Carretera Oaxaca - Puerto Escondido,15.9191064,-97.0770092
6274546463,Carretera Oaxaca - Puerto Escondido,15.9190135,-97.0769047
6274544869,Carretera Oaxaca - Puerto Escondido,15.9187975,-97.0766182
1952743810,Carretera Oaxaca - Puerto Escondido,15.9186673,-97.0764922
8439858651,Carretera Oaxaca - Puerto Escondido,15.9186067,-97.0764432
1952743803,Carretera Oaxaca - Puerto Escondido,15.9185267,-97.076405
8439858650,Carretera Oaxaca - Puerto Escondido,15.9184119,-97.0763963
1952743813,Carretera Oaxaca - Puerto Escondido,15.9183049,-97.076405
469303245,Carretera Oaxaca - Puerto Escondido,15.9181256,-97.0764774
1952743795,Carretera Oaxaca - Puerto Escondido,15.9178316,-97.0766182
469302122,Carretera Oaxaca - Puerto Escondido,15.9175749,-97.0767054
8481528296,Carretera Oaxaca - Puerto Escondido,15.9173079,-97.0767201
1952743791,Carretera Oaxaca - Puerto Escondido,15.91717,-97.0767429
8481528297,Carretera Oaxaca - Puerto Escondido,15.9170436,-97.07681
469300189,Carretera Oaxaca - Puerto Escondido,15.9167972,-97.0770085
469302501,Carretera Oaxaca - Puerto Escondido,15.9165767,-97.0772164
469300309,Carretera Oaxaca - Puerto Escondido,15.9163691,-97.0774329
8481528298,Carretera Oaxaca - Puerto Escondido,15.9163297,-97.0775402
1952743808,Carretera Oaxaca - Puerto Escondido,15.9163233,-97.0776542
469302036,Carretera Oaxaca - Puerto Escondido,15.9163678,-97.0777957
1952743788,Carretera Oaxaca - Puerto Escondido,15.9165161,-97.0780545
8481528299,Carretera Oaxaca - Puerto Escondido,15.9165283,-97.0781685
469301819,Carretera Oaxaca - Puerto Escondido,15.9165071,-97.0782463
469300132,Carretera Oaxaca - Puerto Escondido,15.9164103,-97.078422
469302691,Carretera Oaxaca - Puerto Escondido,15.9162207,-97.0787653
1952743793,Carretera Oaxaca - Puerto Escondido,15.9159319,-97.0793447
469301397,Carretera Oaxaca - Puerto Escondido,15.9157642,-97.0795378
8481528300,Carretera Oaxaca - Puerto Escondido,15.9155359,-97.0796719
469302704,Carretera Oaxaca - Puerto Escondido,15.9153579,-97.079806
469301337,Carretera Oaxaca - Puerto Escondido,15.9152328,-97.0799898
8481528301,Carretera Oaxaca - Puerto Escondido,15.9151258,-97.080203
8481528302,Carretera Oaxaca - Puerto Escondido,15.9149568,-97.0806818
469300963,Carretera Oaxaca - Puerto Escondido,15.9148433,-97.0808025
469301396,Carretera Oaxaca - Puerto Escondido,15.9147144,-97.0808789
469299991,Carretera Oaxaca - Puerto Escondido,15.9144938,-97.080887
8481528303,Carretera Oaxaca - Puerto Escondido,15.9143107,-97.0808253
469299866,Carretera Oaxaca - Puerto Escondido,15.9140966,-97.0806643
8481528304,Carretera Oaxaca - Puerto Escondido,15.9138296,-97.0804551
6274544830,Carretera Oaxaca - Puerto Escondido,15.9134943,-97.0801909
1952743801,Carretera Oaxaca - Puerto Escondido,15.912932,-97.0797175
8481528305,Carretera Oaxaca - Puerto Escondido,15.9126637,-97.0795874
469299431,Carretera Oaxaca - Puerto Escondido,15.9123748,-97.0794708
8481528306,Carretera Oaxaca - Puerto Escondido,15.9122343,-97.0793702
469301982,Carretera Oaxaca - Puerto Escondido,15.9121105,-97.0791596
6274544829,Carretera Oaxaca - Puerto Escondido,15.9119866,-97.0788673
469299367,Carretera Oaxaca - Puerto Escondido,15.9118409,-97.0786339
469301906,Carretera Oaxaca - Puerto Escondido,15.9116797,-97.0784931
6274544828,Carretera Oaxaca - Puerto Escondido,15.9113482,-97.0782557
1952743787,Carretera Oaxaca - Puerto Escondido,15.9109999,-97.0781229
469300956,Carretera Oaxaca - Puerto Escondido,15.910782,-97.0779741
6274544827,Carretera Oaxaca - Puerto Escondido,15.9104351,-97.0775986
1952743811,Carretera Oaxaca - Puerto Escondido,15.9102184,-97.0774229
469301824,Carretera Oaxaca - Puerto Escondido,15.9100134,-97.0773572
469298738,Carretera Oaxaca - Puerto Escondido,15.9097819,-97.0773912
1952743799,Carretera Oaxaca - Puerto Escondido,15.9094085,-97.0774899
1952743790,Carretera Oaxaca - Puerto Escondido,15.9091789,-97.0775108
8481528307,Carretera Oaxaca - Puerto Escondido,15.9081755,-97.0773518
469301320,Carretera Oaxaca - Puerto Escondido,15.9078182,-97.0773035
469303300,Carretera Oaxaca - Puerto Escondido,15.9074829,-97.077329
469300541,Carretera Oaxaca - Puerto Escondido,15.9072056,-97.0774417
8481528308,Carretera Oaxaca - Puerto Escondido,15.907065,-97.077549
469302654,Carretera Oaxaca - Puerto Escondido,15.9069135,-97.0777308
469302702,Carretera Oaxaca - Puerto Escondido,15.9065826,-97.0783161
469302970,Carretera Oaxaca - Puerto Escondido,15.906128,-97.0791341
469302059,Carretera Oaxaca - Puerto Escondido,15.9058204,-97.0797014
469302607,Carretera Oaxaca - Puerto Escondido,15.9056037,-97.0800287
469302951,Carretera Oaxaca - Puerto Escondido,15.9053922,-97.080262
469303208,Carretera Oaxaca - Puerto Escondido,15.9050801,-97.0805061
469301504,Carretera Oaxaca - Puerto Escondido,15.9045047,-97.0809005
1952743806,Carretera Oaxaca - Puerto Escondido,15.9040225,-97.0812517
6715214321,Carretera Oaxaca - Puerto Escondido,15.9037721,-97.0813888
1952743797,Carretera Oaxaca - Puerto Escondido,15.9031854,-97.0815843
6715152281,Carretera Oaxaca - Puerto Escondido,15.9028526,-97.0816407
8481528309,Carretera Oaxaca - Puerto Escondido,15.9026772,-97.0816313
469301302,Carretera Oaxaca - Puerto Escondido,15.9025129,-97.081568
469298723,Carretera Oaxaca - Puerto Escondido,15.9023379,-97.081445
6274544651,Carretera Oaxaca - Puerto Escondido,15.902234,-97.0813524
469300598,Carretera Oaxaca - Puerto Escondido,15.9021881,-97.0813115
469299919,Carretera Oaxaca - Puerto Escondido,15.9013397,-97.0805289
8444725924,Carretera Oaxaca - Puerto Escondido,15.9010921,-97.0803116
6154419630,Carretera Oaxaca - Puerto Escondido,15.901016,-97.0802526
6154419595,Carretera Oaxaca - Puerto Escondido,15.9001609,-97.0794842
469298532,Carretera Oaxaca - Puerto Escondido,15.9000719,-97.0794037
8444468764,Carretera Oaxaca - Puerto Escondido,15.8998462,-97.079224
469299275,Carretera Oaxaca - Puerto Escondido,15.8996604,-97.0790993
469298946,Carretera Oaxaca - Puerto Escondido,15.899387,-97.0790108
469300867,Carretera Oaxaca - Puerto Escondido,15.898465,-97.0788224
2594568716,Carretera Oaxaca - Puerto Escondido,15.8983073,-97.0787504
469300994,Carretera Oaxaca - Puerto Escondido,15.898172,-97.0785655
469299627,Carretera Oaxaca - Puerto Escondido,15.8979385,-97.0780706
469298679,Carretera Oaxaca - Puerto Escondido,15.8975348,-97.0772687
469299998,Carretera Oaxaca - Puerto Escondido,15.8973671,-97.0769575
8444678224,Carretera Oaxaca - Puerto Escondido,15.8972678,-97.0768167
469298514,Carretera Oaxaca - Puerto Escondido,15.8971814,-97.0767429
469298810,Carretera Oaxaca - Puerto Escondido,15.8969892,-97.0766424
469301067,Carretera Oaxaca - Puerto Escondido,15.8966938,-97.0765975
6154419521,Carretera Oaxaca - Puerto Escondido,15.8956594,-97.0767052
6154419583,Carretera Oaxaca - Puerto Escondido,15.8954259,-97.0767244
6154419535,Carretera Oaxaca - Puerto Escondido,15.8947598,-97.0767885
2594568707,Carretera Oaxaca - Puerto Escondido,15.8939027,-97.0768851
6154419542,Carretera Oaxaca - Puerto Escondido,15.8930927,-97.0769763
6154419504,Carretera Oaxaca - Puerto Escondido,15.8926683,-97.0770259
6154419685,Carretera Oaxaca - Puerto Escondido,15.8922561,-97.0770834
6715152259,Carretera Oaxaca - Puerto Escondido,15.8916751,-97.0771614
8444468763,Carretera Oaxaca - Puerto Escondido,15.8914958,-97.0772056
6715214304,Carretera Oaxaca - Puerto Escondido,15.891363,-97.0772579
469301600,Carretera Oaxaca - Puerto Escondido,15.8911772,-97.0773746
6154419551,Carretera Oaxaca - Puerto Escondido,15.8904831,-97.0779384
2030805772,Carretera Oaxaca - Puerto Escondido y Calle Salinas de Gortari,15.8900112,-97.0782966
6311030829,Calle Salinas de Gortari,15.8896236,-97.0786057
1954995914,Calle Salinas de Gortari,15.8892476,-97.0789048
6370750620,Calle Salinas de Gortari,15.889067,-97.0790228
1954995908,Calle Salinas de Gortari y Calle Lomas de San Pedro,15.8889187,-97.0790845
6370750622,Calle Salinas de Gortari,15.8887884,-97.0791113
6370750621,Calle Salinas de Gortari,15.888711,-97.0791771
469302034,Calle Salinas de Gortari,15.8885488,-97.079196
2594568670,Calle Gómez Farías y Calle Venustiano Carranza,15.8888774,-97.0825807
2594568648,Calle Gómez Farías y Calle Abasolo,15.8878597,-97.0825231
2594568650,Calle Abasolo,15.8878816,-97.0817171
4491341257,Calle Abasolo,15.887892,-97.0813711
6274546507,Calle Salinas de Gortari,15.8848078,-97.079072
6274545940,Calle Salinas de Gortari,15.8852336,-97.079071
6274546419,Calle Salinas de Gortari,15.8856772,-97.0790752
8444569183,Calle Salinas de Gortari,15.8864149,-97.0790903
8444468760,Calle Salinas de Gortari,15.8865819,-97.0790897
8444468761,Calle Salinas de Gortari,15.8870033,-97.0790998
8444468762,Calle Salinas de Gortari,15.8874984,-97.0791012
8444569160,Calle Salinas de Gortari,15.8878082,-97.0790995
8444569163,Calle Salinas de Gortari,15.8881061,-97.0790979
1955005947,Calle Salinas de Gortari,15.8885071,-97.0790957
6274544803,Calle Salinas de Gortari,15.8886992,-97.07909
6274545610,Calle Lomas de San Pedro,15.8889784,-97.0793367
6274546250,Calle Lomas de San Pedro,15.8890929,-97.0796217
6274546068,Calle Lomas de San Pedro,15.8891547,-97.079694
6274544810,Calle Lomas de San Pedro,15.8893211,-97.0798382
6274545890,Calle Lomas de San Pedro,15.8895159,-97.0798738
6274545614,Calle Lomas de San Pedro,15.8896872,-97.0798691
8444656214,Calle Lomas de San Pedro,15.8899538,-97.0798171
6274546100,Calle Lomas de San Pedro,15.8900174,-97.0798047
6274545388,Calle Lomas de San Pedro,15.8901985,-97.0797413
6154419673,Calle Lomas de San Pedro y Calle Guatemala,15.8903478,-97.0796551
6154419672,Calle Guatemala,15.8903837,-97.0799711
8444656212,Calle Guatemala,15.8903079,-97.08014
6274544809,Calle Guatemala,15.8902847,-97.0802056
6274546712,Calle Guatemala,15.8902545,-97.0805415
6154419678,Calle Guatemala,15.8902347,-97.0808304
6154419677,Calle Guatemala y Avenida México,15.8901375,-97.0816047
6154419693,Avenida México y Calle Haití,15.8896735,-97.0815347
6154419675,Calle Haití y Calle Morelos,15.8896369,-97.0819282
2594568671,Calle Morelos y Calle Venustiano Carranza,15.8888811,-97.0818186
6150893485,Carretera Santiago Pinotepa Nacional - Salina Cruz,15.893615,-97.1175394
6150893513,Innominada,15.8926752,-97.1167858
8682035645,Innominada,15.8922225,-97.1164711
6150893486,Innominada,15.8917273,-97.1161268
6151398816,Innominada,15.8915797,-97.1160018
8681889887,Innominada,15.8912055,-97.1157086
6150893487,Innominada,15.8908535,-97.115352
8682023356,Innominada,15.8907077,-97.1151066
6150893488,Innominada,15.8906481,-97.1148502
6150893489,Innominada,15.8907341,-97.1142973
6150893490,Innominada,15.8907168,-97.1137199
6150893491,Innominada,15.8905777,-97.1131427
6150893492,Innominada,15.8897391,-97.1100399
6150893493,Innominada,15.8889589,-97.1069714
6150893494,Innominada,15.8887304,-97.1059039
8462802275,Innominada,15.8886272,-97.1052226
6150893495,Innominada,15.8885937,-97.1047962
6150893496,Innominada,15.8885008,-97.1040773
6150893497,Innominada,15.8884466,-97.103667
8462796473,Innominada,15.8884146,-97.1034002
8462796471,Innominada,15.8883768,-97.1030846
6150893498,Innominada,15.8883512,-97.1028704
6150893499,Innominada,15.8883718,-97.1026129
6150893500,Innominada,15.888475,-97.1023178
6150893501,Innominada,15.8887742,-97.1018565
6150893502,Innominada,15.8891406,-97.1013683
6150893503,Innominada,15.8893734,-97.1010764
6150893504,Innominada,15.8894243,-97.1009123
6150893505,Innominada,15.8893779,-97.1006441
6150893506,Innominada,15.8893108,-97.1004242
6150893507,Innominada,15.8891686,-97.1000293
6150893508,Innominada,15.8889084,-97.0990777
6150893509,Innominada,15.8886349,-97.0981926
6150893510,Innominada,15.8884079,-97.0972645
6150893511,Innominada,15.8880793,-97.0963202
6150893512,Innominada,15.8877457,-97.0955345
2594568638,Innominada,15.8876649,-97.0953065
8462802277,Innominada,15.8875557,-97.0949477
2594568633,Innominada,15.8874776,-97.0946912
2594568626,Innominada,15.8872694,-97.0931083
2594568616,Innominada,15.8869641,-97.0905939
2594568619,Innominada,15.8870589,-97.0893776
8462799575,Innominada,15.8870897,-97.0891133
2594568622,Innominada,15.8871567,-97.0889658
8462799574,Innominada,15.8874637,-97.0887244
2594568636,Innominada,15.8875334,-97.0885929
2594568639,Innominada,15.8876211,-97.0878634
8444794596,Innominada,15.8876559,-97.0875683
8444794595,Innominada,15.8876882,-97.0868388
2594568642,Innominada,15.8876882,-97.0864955
2594568643,Calle Abasolo,15.8876946,-97.0857297
4491341252,Calle Abasolo,15.8877101,-97.0854923
2594568645,Calle Abasolo,15.8877578,-97.0847306
4491340788,Calle Abasolo,15.8877836,-97.0839869
2594568647,Calle Abasolo,15.8878197,-97.0832554
1955005770,Boulevard José Murat,15.869303,-97.0846372
8478015330,Boulevard José Murat,15.8693482,-97.0847624
8742146376,Boulevard José Murat,15.8720408,-97.0922214
1955005854,Boulevard José Murat,15.8723189,-97.0929917
291181323,Boulevard José Murat y Carretera Santiago Pinotepa Nacional - Salina Cruz,15.8726602,-97.0942034
12998404803,Carretera Santiago Pinotepa Nacional - Salina Cruz,15.8727514,-97.0943982
291178919,Carretera Santiago Pinotepa Nacional - Salina Cruz,15.8730214,-97.0949124
8742168003,Carretera Santiago Pinotepa Nacional - Salina Cruz,15.8731324,-97.0950881
6131668116,Carretera Santiago Pinotepa Nacional - Salina Cruz,15.8768863,-97.101027
8424593242,Carretera Santiago Pinotepa Nacional - Salina Cruz,15.8794409,-97.1050686
8681861012,Carretera Santiago Pinotepa Nacional - Salina Cruz,15.879952,-97.1058952
2030805767,Carretera Santiago Pinotepa Nacional - Salina Cruz,15.8803615,-97.1065252
8681861011,Carretera Santiago Pinotepa Nacional - Salina Cruz,15.8806943,-97.1068373
291178920,Carretera Santiago Pinotepa Nacional - Salina Cruz,15.8810957,-97.1071038
11816710707,Carretera Santiago Pinotepa Nacional - Salina Cruz,15.8813787,-97.1072124
8681861010,Carretera Santiago Pinotepa Nacional - Salina Cruz,15.8826731,-97.1077091
2030805770,Carretera Santiago Pinotepa Nacional - Salina Cruz,15.8828324,-97.1077982
6514292637,Carretera Santiago Pinotepa Nacional - Salina Cruz,15.88326,-97.1081316
291180376,Carretera Santiago Pinotepa Nacional - Salina Cruz,15.8835089,-97.1083745
6154406891,Carretera Santiago Pinotepa Nacional - Salina Cruz,15.884946,-97.1103599
6154406731,Carretera Santiago Pinotepa Nacional - Salina Cruz,15.8854789,-97.1110988
6154406741,Carretera Santiago Pinotepa Nacional - Salina Cruz,15.8856747,-97.1113667
6154406744,Carretera Santiago Pinotepa Nacional - Salina Cruz,15.8866653,-97.1127543
291178922,Carretera Santiago Pinotepa Nacional - Salina Cruz,15.8876359,-97.1141256
8681861008,Carretera Santiago Pinotepa Nacional - Salina Cruz,15.8879764,-97.1144997
8681861009,Carretera Santiago Pinotepa Nacional - Salina Cruz,15.8882299,-97.1147418
8681861007,Carretera Santiago Pinotepa Nacional - Salina Cruz,15.8892025,-97.1155773
6725258806,Carretera Santiago Pinotepa Nacional - Salina Cruz,15.889868,-97.1161419
2030805775,Carretera Santiago Pinotepa Nacional - Salina Cruz,15.891013,-97.117109
8681861006,Carretera Santiago Pinotepa Nacional - Salina Cruz,15.8912862,-97.1173161
2030805777,Carretera Santiago Pinotepa Nacional - Salina Cruz,15.8916665,-97.1175354
8681861005,Carretera Santiago Pinotepa Nacional - Salina Cruz,15.8920672,-97.1176212
291178923,Carretera Santiago Pinotepa Nacional - Salina Cruz,15.8924078,-97.117656
6154406726,Carretera Santiago Pinotepa Nacional - Salina Cruz,15.8925454,-97.1176487
2027266689,Innominada,15.8723515,-97.0557955
2027266683,Innominada,15.8721654,-97.0560913
6131668827,Innominada,15.872046,-97.056206
2027266659,Innominada,15.8718471,-97.0563858
2027266607,Innominada,15.8713313,-97.0568523
2027266384,Calle Segunda Norte y Calle Sexta Oriente,15.8655838,-97.0641988
2027266322,Calle Quinta Oriente y Avenida Hidalgo,15.8637665,-97.0645486
2027266316,Avenida Hidalgo,15.8635472,-97.0653798
2027266511,Calle Octava Norte y Calle Cuarta Poniente,15.8693217,-97.0744369
2027266525,Calle Cuarta Poniente,15.8695777,-97.074653
2027266555,Calle Cuarta Poniente,15.8703131,-97.0749066
4491341345,Calle Cuarta Poniente,15.8711365,-97.0751885
6370750626,Calle Cuarta Poniente,15.8715563,-97.075308
2027266694,Calle Cuarta Poniente,15.8722507,-97.0754264
13015526805,Calle Cuarta Poniente,15.8723585,-97.0754217
2027266770,Calle Cuarta Poniente,15.8727576,-97.0754041
8456131468,Calle Cuarta Poniente,15.8730414,-97.0753856
13015473800,Calle Cuarta Poniente,15.8734527,-97.075359
4491341106,Avenida Oaxaca y Calle Álvaro Obregón,15.8735506,-97.0734662
6274546480,Calle Mar Mediterráneo,15.8767225,-97.0715734
8444725925,Innominada,15.9002589,-97.0852576
6154419645,Innominada,15.9001889,-97.0850108
6154419662,Innominada,15.9001293,-97.0845659
13169703081,Innominada,15.9001211,-97.0845154
6154419647,Innominada,15.9000331,-97.0839746
6154419656,Innominada,15.8999763,-97.0835192
6154419649,Innominada,15.8999465,-97.083247
6154419650,Innominada,15.8999045,-97.0829274
6274544081,Innominada,15.8998345,-97.0824077
6154419631,Innominada,15.8998425,-97.0822902
8444698916,Innominada,15.899881,-97.0821637
8444698915,Innominada,15.9000422,-97.08187
8444698913,Innominada,15.9002511,-97.0816796
8444794602,Innominada,15.900117,-97.0819161
8444698914,Innominada,15.8999713,-97.0821731
8444725923,Innominada,15.8999351,-97.082277
8444725922,Innominada,15.8999313,-97.0824029
8444725921,Innominada,15.8999947,-97.0829122
8444725920,Innominada,15.9000661,-97.0835057
8444725919,Innominada,15.9001207,-97.0839653
8444725918,Innominada,15.9002077,-97.0845505
