stop_id,stop_name,stop_lat,stop_lon
10537105505,Calle Rafaél Landivar,19.4323404,-100.3452143
2630721953,Calle Miguel Hidalgo Oriente,19.4330777,-100.3462021
4773818509,Calle Miguel Hidalgo Oriente,19.4339548,-100.3479838
6753936193,Calle Miguel Hidalgo Oriente,19.434534,-100.3491179
4775031969,Calle Miguel Hidalgo Oriente,19.4350788,-100.3502051
6738938926,Calle Miguel Hidalgo Oriente,19.4355144,-100.3511738
1286493979,Calle Miguel Hidalgo Oriente y Calle Andrés Landa y Piña Norte,19.4360961,-100.3525146
6620735852,Calle Miguel Hidalgo Oriente,19.4364893,-100.3534288
6736618282,Calle Miguel Hidalgo Oriente,19.4370211,-100.35463
1215077669,Calle Miguel Hidalgo Oriente y Avenida Revolución Norte y Avenida Revolución,19.437555,-100.355819
4773818514,Avenida Miguel Hidalgo Poniente y Calle Doctor Emilio García Sur y Calle Doctor Emilio García Norte,19.438284,-100.3574432
4694454179,Calle José María Morelos Norte,19.4381874,-100.3585283
1215077721,Calle José María Morelos Sur y Calle Lerdo de Tejada Poniente,19.4370284,-100.3591266
10676307425,Calle José María Morelos Norte,19.436055,-100.3596338
6746741251,José María Morelos Norte,19.4351401,-100.3601521
4773860276,José María Morelos Norte y Calle Guillermo Prieto Poniente,19.4336808,-100.3609308
4773860275,José María Morelos Norte y Calle Suprema Junta Nacional Americana y Calle José María Morelos Sur,19.4323088,-100.3614737
4773860251,Calle Suprema Junta Nacional Americana y Calle Benedicto López Sur,19.4326333,-100.362424
1286494696,Calle Suprema Junta Nacional Americana,19.4330327,-100.3635683
8238368475,Calle Suprema Junta Nacional Americana,19.4322661,-100.3643848
6746744571,Calle Suprema Junta Nacional Americana,19.431184,-100.3639537
6903822938,Calle Suprema Junta Nacional Americana,19.4302962,-100.3637257
1286494006,Calle Suprema Junta Nacional Americana,19.4291073,-100.3642541
4694481503,Calle Suprema Junta Nacional Americana,19.4290398,-100.3656381
3099925917,Calle Suprema Junta Nacional Americana,19.42985,-100.3702833
6789393788,Calle Suprema Junta Nacional Americana,19.4300357,-100.3713303
3220590091,Calle Suprema Junta Nacional Americana,19.4302279,-100.372405
4694481388,Calle Suprema Junta Nacional Americana,19.4302003,-100.3733874
4694481492,Calle Melchor Ocampo,19.4301247,-100.3745185
8430783777,Calle Melchor Ocampo,19.4301435,-100.3756799
3157341025,Calle Melchor Ocampo,19.4301357,-100.3766529
6789209233,Calle Melchor Ocampo,19.4300388,-100.3776074
6789209319,Circuito Universidad Pedagógica,19.4307027,-100.3779369
4775071020,Circuito Universidad Pedagógica,19.4315209,-100.3784621
3211906605,Avenida Artículo 123 y Avenida Escuela Rural Mexicana,19.4320809,-100.3793421
6789209347,Avenida Escuela Rural Mexicana,19.4312356,-100.3795103
3211906623,Avenida Escuela Rural Mexicana,19.4311056,-100.3795212
10684427636,Boulevard Jacarandas,19.4329811,-100.3690898
3099926443,Calle Galeana,19.4320658,-100.3687084
4773860219,Calle Bugambilias,19.4319345,-100.3694537
3099926432,Calle 10 de Marzo y Boulevard Jacarandas,19.4331219,-100.3692403
3099926431,Calle 10 de Marzo y Calle Colorines,19.4339385,-100.3683728
3220590075,Calle Colorines,19.4331651,-100.3675623
3220590076,Calle Colorines,19.4322763,-100.3666036
4773860221,Calle Colorines y Circuito Revolución Mexicana y Calle Tabachines,19.4315434,-100.3659613
3220590082,Circuito Revolución Mexicana,19.4308913,-100.3647762
9962271164,Circuito Revolución Mexicana,19.4305525,-100.3653396
3099926436,Calle Tabachines,19.430011,-100.366294
3211895759,Calle Suprema Junta Nacional Americana,19.4291082,-100.3662139
1286494931,Calle Suprema Junta Nacional Americana,19.4287329,-100.3648857
2630704883,Calle Suprema Junta Nacional Americana,19.4298289,-100.3638497
8238368464,Calle Suprema Junta Nacional Americana,19.4307249,-100.3636064
8238368487,Calle Suprema Junta Nacional Americana,19.4314711,-100.3641249
6746643316,Calle Suprema Junta Nacional Americana,19.4328413,-100.364017
1950211816,Calle Suprema Junta Nacional Americana y Calle Benedicto López Sur,19.4325745,-100.3624575
3775879767,Calle Suprema Junta Nacional Americana y Calle José María Morelos Sur,19.4322521,-100.3614988
6746744581,Calle Doctor Emilio García Sur,19.4326492,-100.3607944
1215077938,Calle Doctor Emilio García Sur,19.4332959,-100.3600985
1215077844,Calle Doctor Emilio García Sur y Calle Mariano Matamoros Poniente,19.4341563,-100.3596545
1215077934,Calle Doctor Emilio García Sur y Calle Ignacio Zaragoza Poniente,19.4351723,-100.3591268
9939828902,Calle Doctor Emilio García Sur,19.4365017,-100.3583903
9934328907,Calle Doctor Emilio García Sur,19.4377659,-100.3577155
1215077607,Calle Doctor Emilio García Norte y Calle Santos Degollado Poniente,19.4390868,-100.3570029
1210602366,Calle Santos Degollado Poniente y Avenida Revolución,19.4383808,-100.3554742
6739136810,Calle Santos Degollado Oriente,19.4378825,-100.3543747
1286495016,Calle Santos Degollado Oriente y Calle Andrés Landa y Piña Norte,19.436841,-100.3521294
1286494876,Calle Santos Degollado Oriente y Calle Mora del Cañonazo Norte,19.4359809,-100.3502557
6738938925,Calle Santos Degollado Oriente,19.4355408,-100.3492918
3221800108,Calle Santos Degollado Oriente y Primera de Hidalgo Oriente,19.4351009,-100.3483701
1215077795,Calle Santos Degollado Oriente y Calle General Pueblita Norte,19.4341989,-100.3464263
4775031994,Calle General Pueblita Norte y Calle Cuauhtémoc Oriente,19.4351499,-100.3459469
8407860029,Calle General Pueblita Norte,19.4355662,-100.3457811
8404578093,Calle Cuauhtémoc Oriente,19.4357033,-100.3472413
3221800116,Calle Cuauhtémoc Oriente,19.4361913,-100.3484764
1215077581,Calle Cuauhtémoc Oriente y Calle Mora del Cañonazo Norte,19.4368126,-100.3498183
3099926439,Calle Tabachines,19.4294975,-100.3663914
3220590072,Circuito Revolución Mexicana y Calle Tabachines y Calle Oyamel,19.4308566,-100.3660996
3220590071,Calle Oyamel,19.431919,-100.3670792
3220590070,Calle Oyamel,19.432775,-100.3679743
3220590069,Calle 10 de Marzo y Calle Oyamel,19.433544,-100.368792
3254609643,Calle Rafaél Landivar y Avenida Revolución Sur,19.4288403,-100.3469706
3254609642,Calle Rafaél Landivar y Calle Martínez de Lejarza,19.4300386,-100.3463647
3254609651,Calle Rafaél Landivar y Calle Pablo Neruda,19.4310114,-100.345871
3254609646,Calle Rafaél Landivar,19.4319377,-100.3454009
3157341015,Calle Margarita Maza de Juárez y Calle Ignacio Ramírez,19.4316537,-100.3771003
3221206529,Calle Ignacio Ramírez,19.4320242,-100.3779924
3157341031,Calle Reforma Liberal de 1857 y Calle Leyes de Reforma,19.433039,-100.3785279
1215077752,Calle Salazar Sur y Calle José María Coss Oriente,19.4343563,-100.3554127
1286494594,Calle Salazar Sur,19.4328697,-100.3562231
1286493724,Calle Salazar Sur,19.4319396,-100.3566956
12035801648,Avenida Revolución,19.4310582,-100.3569324
6852705786,Avenida Revolución,19.430219,-100.3562732
9821327355,Avenida Revolución,19.4291343,-100.3561125
9821327317,Avenida Revolución Sur,19.4283655,-100.3554706
9821327370,Avenida Revolución Sur,19.4284231,-100.3542365
9965383046,Avenida Revolución Sur y Avenida Morelia,19.4287491,-100.3519469
6769787787,Avenida Revolución Sur y Calle Juan de Dios Peza Sur,19.4289434,-100.3506848
8238349564,Avenida Revolución Sur,19.4290196,-100.3496717
1286493944,Avenida Revolución Sur,19.428839,-100.3478835
1286494274,Avenida Revolución Sur,19.4287105,-100.3467175
8407860041,Avenida Revolución Sur,19.4285672,-100.345697
1286493907,Avenida Revolución Sur y Calle Vicente Suárez Sur,19.4284266,-100.3446954
9949975448,Avenida Revolución Sur,19.4281108,-100.3419885
6620755012,Avenida Revolución Sur,19.4279842,-100.3408514
6775596740,Avenida Revolución Sur,19.4278574,-100.3397473
9968072165,Avenida Nicolás Romero,19.4277863,-100.3388313
6906446100,Avenida Nicolás Romero,19.4276905,-100.3379271
3261056370,Avenida Nicolás Romero,19.426865,-100.3371359
3261056375,Avenida Nicolás Romero,19.426325,-100.3370247
6906446104,Avenida Nicolás Romero,19.4266436,-100.3360717
3261056382,Avenida Nicolás Romero,19.4260492,-100.3344132
6906446098,Avenida Nicolás Romero,19.4255977,-100.3335187
8248735312,Avenida Nicolás Romero,19.4254043,-100.3319598
6906343925,Calle Nicolás Romero,19.4247121,-100.3310489
3261056428,Calle Nicolás Romero,19.423927,-100.3296544
6620773314,Calle Nicolás Romero,19.4234426,-100.328029
3261056412,Calle Nicolás Romero,19.423128,-100.3269005
3261056453,Innominada,19.4218483,-100.3271193
6906343930,Innominada,19.4208869,-100.3273253
8238217736,Innominada,19.4199314,-100.3272391
9980316904,Innominada,19.4194253,-100.3276676
6906234520,Camino al Cerro del Cacique,19.418573,-100.3272114
3262231626,Camino al Cerro del Cacique,19.4174674,-100.3275988
9980296819,Camino al Cerro del Cacique,19.4165124,-100.3278883
6906250719,Camino al Cerro del Cacique,19.4152275,-100.3283072
5133852089,Camino al Cerro del Cacique,19.4144826,-100.3275487
3262231594,Camino al Cerro del Cacique,19.4140377,-100.3266418
8238287588,Camino al Cerro del Cacique,19.4135817,-100.3256032
9947683284,Camino al Cerro del Cacique,19.4127537,-100.3248254
9980316841,Camino al Cerro del Cacique,19.4120201,-100.32418
3262231605,Camino al Cerro del Cacique,19.4112087,-100.3235864
5133852117,Innominada,19.4101556,-100.322572
5133852119,Innominada,19.4101603,-100.321428
5133852121,Innominada,19.4104283,-100.320226
6924908363,Innominada,19.4106057,-100.3191689
6864985923,Innominada,19.4110183,-100.3181941
6620811793,Innominada,19.4112081,-100.3166222
6864985925,Innominada,19.411234,-100.31555
6864985926,Innominada,19.4109705,-100.314532
5133852129,Innominada,19.4109939,-100.313503
5133852131,Innominada,19.4107376,-100.3123595
8248380355,Innominada,19.4102952,-100.3114293
5133852134,Innominada,19.4105681,-100.3103288
5133852137,Innominada,19.4105014,-100.3088424
5133852139,Innominada,19.4101884,-100.3074664
6864985938,Innominada,19.4096066,-100.306771
6621187389,Innominada,19.4214576,-100.303682
6859136850,Innominada,19.4204925,-100.3036735
8248356082,Innominada,19.4193208,-100.3038458
5133852212,El Ucaz,19.4181684,-100.3042021
6800534443,El Ucaz,19.4184469,-100.305128
6621187431,El Ucaz,19.4189904,-100.3066034
5133852066,El Ucaz,19.419241,-100.3077356
6800511828,El Ucaz,19.4196703,-100.308815
6800534520,El Ucaz,19.4201008,-100.3100318
6800468526,El Ucaz,19.4207099,-100.3107673
5133852203,El Ucaz,19.4211108,-100.3117108
6800521261,El Ucaz,19.421759,-100.3127228
6800534361,El Ucaz,19.4224884,-100.3133415
5133852197,El Ucaz,19.4237248,-100.3135137
6800534538,El Ucaz,19.424191,-100.3143271
8248757832,El Ucaz,19.4241925,-100.3154786
5133852177,El Ucaz,19.424551,-100.3166029
5133852189,El Ucaz,19.4251993,-100.3177634
6859105435,El Ucaz,19.4256124,-100.3189346
5133852187,El Ucaz,19.4259282,-100.3202249
5133852185,El Ucaz,19.4264107,-100.3215907
3262231771,El Ucaz,19.4251902,-100.3225995
6924999089,El Ucaz,19.4245034,-100.3232178
6799976137,El Ucaz,19.4245974,-100.324648
9947881710,Innominada,19.4237529,-100.3254584
8238287568,Calle Nicolás Romero,19.4231669,-100.326525
3261056432,Calle Nicolás Romero,19.4237654,-100.3291938
3261056389,Calle Nicolás Romero,19.4243556,-100.3305123
8248735313,Calle Nicolás Romero,19.4253205,-100.3317372
8248735314,Avenida Nicolás Romero,19.4255154,-100.3329112
6906446099,Avenida Nicolás Romero,19.4258809,-100.3341061
9964343274,Avenida Nicolás Romero,19.426338,-100.3354732
8248735316,Avenida Nicolás Romero,19.4265295,-100.3366032
3261056372,Avenida Nicolás Romero,19.4264419,-100.3373187
6906446101,Avenida Nicolás Romero,19.4273057,-100.3372353
9968072168,Avenida Nicolás Romero,19.427693,-100.3381629
4694471090,Avenida Nicolás Romero y Avenida Revolución Sur,19.4280542,-100.338884
6775596738,Avenida Revolución Sur,19.4279624,-100.3399098
9949975447,Avenida Revolución Sur,19.4281508,-100.3414723
8407871499,Avenida Revolución Sur,19.4283223,-100.342896
8407871502,Avenida Revolución Sur,19.4284729,-100.3441462
3254610061,Avenida Revolución Sur,19.4286607,-100.3454784
1286494132,Avenida Revolución Sur y Calle General Pueblita Sur,19.4290513,-100.3487843
1210602332,Avenida Revolución Sur,19.4291252,-100.349795
1286494738,Avenida Revolución Sur y Calle Mora del Cañonazo Sur y Avenida Morelia,19.4288605,-100.351861
9821327366,Avenida Revolución Sur y Calle Libramiento Samuel Ramos,19.4286093,-100.353477
8248771310,Avenida Revolución Sur,19.4284571,-100.3549933
8238587356,Avenida Revolución,19.4288594,-100.3559057
9821327364,Avenida Revolución,19.4298611,-100.3560063
4694454213,Calle Salazar Sur y Avenida Revolución,19.4313438,-100.3570026
3268356038,Avenida Revolución y Calle Leandro Valle Sur,19.4322195,-100.3576871
4694454220,Avenida Revolución,19.4329914,-100.3581562
6747018171,Avenida Revolución,19.4338466,-100.3577819
1215077886,Avenida Revolución y Calle José María Coss Oriente,19.4351133,-100.3571043
1286494739,Calle Manuel Doblado Norte y Calle Moctezuma Poniente,19.4442261,-100.3620091
1286493956,Calle Manuel Doblado Norte y Calle Cuauhtémoc Poniente,19.4421979,-100.3629071
1286494673,Calle Cuauhtémoc Poniente,19.4416858,-100.3613892
4694454176,Calle Cuauhtémoc Poniente,19.4413375,-100.3603731
1215077598,Calle Guadalupe Victoria Norte y Avenida Miguel Hidalgo Poniente,19.4397342,-100.3602415
4773860260,Calle Guadalupe Victoria Norte y Calle Ignacio López Rayón Poniente y Calle Guadalupe Victoria Sur,19.438705,-100.3607421
1215077594,Calle Ignacio López Rayón Poniente y Calle Benedicto López Norte y Calle Benedicto López Sur,19.4382598,-100.3598027
1215077667,Calle Benedicto López Norte y Avenida Miguel Hidalgo Poniente,19.4391693,-100.3592651
4694454182,Calle Santos Degollado Poniente,19.4397242,-100.3583934
1215077923,Avenida Miguel Hidalgo Poniente y Calle José María Morelos Norte,19.4386656,-100.358276
4773860252,Calle José María Morelos Norte y Calle José María Morelos Sur,19.4376134,-100.3588298
1215077915,Calle José María Morelos Sur y Calle José María Morelos Norte y Calle Crescencio Morales Poniente,19.4363342,-100.3594667
4694481543,Calle Doctor Emilio García Sur,19.4316437,-100.360996
1935414480,Calle Doctor Emilio García Sur,19.4306763,-100.3615304
8238381120,Calle Doctor Emilio García Sur,19.4298087,-100.3622843
8238349527,Avenida Morelia,19.4289845,-100.3624526
1286493317,Avenida Morelia,19.4280662,-100.3622975
3124008144,Avenida Morelia,19.4271958,-100.361999
3124008149,Avenida Morelia,19.4264165,-100.3611531
4773818645,Avenida Independencia,19.426372,-100.3603301
8456158245,Calle García y Urquízar,19.4267587,-100.3587824
6760370015,Calle García y Urquízar y Belisario Domínguez,19.4270926,-100.3578202
3268356048,Belisario Domínguez,19.4269206,-100.3566816
3211897268,Belisario Domínguez y Avenida Morelia,19.4263587,-100.3559919
4694471134,Avenida Morelia,19.4270145,-100.3549434
1286493308,Avenida Morelia,19.4278099,-100.3534966
1286494021,Avenida Morelia y Calle Felipe Ángeles Oriente y Calle Francisco Márquez,19.4283656,-100.3525198
1286494048,Calle Felipe Ángeles Oriente,19.4281777,-100.3513618
1286493287,Calle Felipe Ángeles Oriente y Calle Juan de la Barrera Sur,19.4280131,-100.350337
1286493319,Calle Felipe Ángeles Oriente y Calle General Pueblita Sur,19.4278123,-100.3490534
1286495014,Avenida Revolución Sur y Calle General Pueblita Sur,19.4289639,-100.3488002
8407091371,Calle General Pueblita Sur,19.4299819,-100.3484271
3254609641,Calle General Pueblita Sur y Calle Martínez de Lejarza,19.4308223,-100.3480498
8406971529,Calle General Pueblita Sur,19.431698,-100.3476203
4773818567,Calle General Pueblita Sur,19.4325921,-100.3471918
3157341030,Calle Leyes de Reforma,19.4329335,-100.377575
3157341021,Calle Leyes de Reforma,19.4324628,-100.3766862
3220590107,Calle Lerdo de Tejada,19.4313911,-100.3762233
3221218221,Calle Melchor Ocampo y Calle Lerdo de Tejada,19.4301424,-100.3762295
8238402346,Calle Suprema Junta Nacional Americana y Calle Melchor Ocampo,19.4301598,-100.3734974
1286493173,Calle Suprema Junta Nacional Americana,19.4301295,-100.3724328
6789393789,Calle Suprema Junta Nacional Americana,19.4299556,-100.3713484
8445651401,Calle Suprema Junta Nacional Americana,19.4297512,-100.3702969
4694481496,Calle Tabachines y Calle Suprema Junta Nacional Americana,19.4291415,-100.36645
2630686612,Calle Miguel Hidalgo Oriente y Calle Juan de Dios Peza Sur,19.4341726,-100.3484101
4694471138,Calle Miguel Hidalgo Oriente,19.4334168,-100.3468966
3254609645,Calle Rafaél Landivar y Calle Miguel Hidalgo Oriente,19.4325501,-100.3451171
8249531508,Calle Rafaél Landivar,19.4315046,-100.3456137
4694471135,Calle General Pueblita Sur y Calle Pablo Neruda,19.4318009,-100.3475691
4773860225,Calle Colorines,19.4338389,-100.3682727
3221226451,Calle 10 de Marzo y Colorines,19.4332929,-100.3690586
8445418259,Calle Bugambilias y Calle 10 de Marzo,19.432434,-100.369969
3221226452,Colorines,19.4344888,-100.3703117
3221226455,Innominada,19.4348738,-100.3714459
3262252441,Innominada,19.4352333,-100.3716161
3221226454,Colorines,19.4343074,-100.3704956
9948123638,Innominada,19.4054026,-100.2994765
6925506435,Innominada,19.4057485,-100.3004672
8248482380,Innominada,19.4065492,-100.3010277
8248482382,Innominada,19.407188,-100.3018083
6925497636,Innominada,19.4077092,-100.3026719
5133852228,Innominada,19.4086407,-100.3029616
8248380360,Innominada,19.4094835,-100.3039287
8248380359,Innominada,19.4096824,-100.3049063
5133852223,Innominada,19.410273,-100.3056256
6864985942,Innominada,19.4112164,-100.3055522
5133852221,Innominada,19.4122001,-100.3055602
5133852219,Innominada,19.4131899,-100.3056559
8248380365,Innominada,19.4135478,-100.3065714
6924928551,Innominada,19.4145415,-100.3072119
8249802589,Innominada,19.4149,-100.3081088
6800534459,Innominada,19.4154662,-100.3088776
5133852080,Innominada,19.4157146,-100.3100238
6800534478,Innominada,19.4159591,-100.3112477
5133852317,Innominada,19.4157885,-100.3130666
6800468522,Innominada,19.4161407,-100.3145188
8249802585,Innominada,19.416564,-100.3156714
6620811820,Innominada,19.4170326,-100.3169578
3262231659,Calle Nicolás Romero,19.4176067,-100.3177384
9947870864,Calle Nicolás Romero,19.4183456,-100.3183174
6924953837,Calle Nicolás Romero,19.4190089,-100.31916
8238287560,Calle Nicolás Romero,19.4199885,-100.3194453
6799976196,Calle Nicolás Romero,19.4206344,-100.320234
8238287565,Calle Nicolás Romero,19.4210674,-100.3211397
9947870860,Calle Nicolás Romero,19.4215847,-100.3223346
9947870857,Calle Nicolás Romero,19.422029,-100.3235208
3261056401,Calle Nicolás Romero,19.4224165,-100.3245471
6799976206,Calle Nicolás Romero,19.4230769,-100.325323
4694454215,Avenida Revolución y Calle Mariano Matamoros Poniente,19.4335339,-100.3579342
2639117926,Innominada,19.3726202,-100.3613696
2639117898,Innominada,19.3713496,-100.3601625
2639117884,Innominada,19.3706902,-100.3591846
6870975556,Innominada,19.3702498,-100.3582353
2639117873,Innominada,19.3698845,-100.3572255
2639117871,Innominada,19.369548,-100.3560882
2639117869,Innominada,19.3691859,-100.3550179
2639117868,Innominada,19.3688613,-100.353756
6870975557,Innominada,19.3687911,-100.3526455
2639117857,Innominada,19.3687205,-100.3510913
2639117853,Innominada,19.3686342,-100.3500344
2639114998,Innominada,19.3693314,-100.3492378
2639114991,Innominada,19.3697501,-100.3485498
2639114985,Innominada,19.370426,-100.3478163
2639114979,Innominada,19.371068,-100.3467647
2639114975,Innominada,19.3719215,-100.3462473
2639114969,Innominada,19.3728007,-100.3456827
2572116718,Innominada,19.3733863,-100.3448229
3254319421,Innominada,19.3741795,-100.3437285
2572116706,Innominada,19.3760937,-100.3433463
2572116698,Innominada,19.3772121,-100.3435367
8249865248,Innominada,19.3783988,-100.3432444
2572014709,Innominada,19.3802154,-100.3429668
2572116679,Innominada,19.3811383,-100.3428665
2572116672,Innominada,19.3820727,-100.3430378
2572116667,Innominada,19.3832505,-100.3439739
8249865302,Innominada,19.3841019,-100.3442368
2572116654,Innominada,19.38499,-100.3440222
2572116644,Innominada,19.3865333,-100.3439485
6661537198,Innominada,19.3900847,-100.3435764
8249865293,Innominada,19.3917825,-100.3433425
2572116634,Innominada,19.3930335,-100.3431846
2572014873,A Aputzio de Juárez,19.3940985,-100.3429818
2572014869,A Aputzio de Juárez,19.3953117,-100.3418624
8249865286,A Aputzio de Juárez,19.3961515,-100.3413532
2572014859,A Aputzio de Juárez,19.3977275,-100.3409748
2572014854,A Aputzio de Juárez,19.3986421,-100.3411041
6620785047,A Aputzio de Juárez,19.3997524,-100.3417432
2572014848,A Aputzio de Juárez,19.4006647,-100.3423079
2572014842,A Aputzio de Juárez,19.40159,-100.3424607
6620785057,A Aputzio de Juárez,19.4037576,-100.3424458
2572014839,A Aputzio de Juárez,19.4049403,-100.3424719
2572014832,A Aputzio de Juárez,19.4056854,-100.3430448
2572014825,A Aputzio de Juárez,19.4067237,-100.3434862
2572014819,A Aputzio de Juárez,19.4075489,-100.3430577
9970490426,A Aputzio de Juárez,19.4081518,-100.3420432
2572014810,A Aputzio de Juárez,19.4093485,-100.3398889
2572014802,A Aputzio de Juárez,19.4102794,-100.3395966
9970612094,A Aputzio de Juárez,19.4110933,-100.3400897
2572014793,A Aputzio de Juárez,19.4119996,-100.3404844
3262231572,A Aputzio de Juárez,19.4133218,-100.3391023
2572014781,A Aputzio de Juárez,19.4140676,-100.3385724
3262220660,A Aputzio de Juárez,19.4153859,-100.3388686
6857918254,A Aputzio de Juárez,19.4171412,-100.3393248
8238166512,A Aputzio de Juárez,19.4182089,-100.3396119
2572014770,A Aputzio de Juárez,19.418939,-100.3402279
8499420945,A Aputzio de Juárez,19.4193485,-100.3419689
8502559270,A Aputzio de Juárez,19.4196221,-100.3429017
8249669110,A Aputzio de Juárez,19.4204007,-100.3435515
2572014743,A Aputzio de Juárez,19.4213089,-100.343475
8238166515,A Aputzio de Juárez,19.4228563,-100.3425617
2572014728,A Aputzio de Juárez,19.4237155,-100.3422909
8238166516,A Aputzio de Juárez,19.4254434,-100.3421876
6906364436,A Aputzio de Juárez,19.4261036,-100.3414567
1286494432,Hidalgo y Joaquín Amaro Oriente,19.4270432,-100.3411231
9968072179,Joaquín Amaro Oriente,19.4275548,-100.3422125
9968072180,Joaquín Amaro Oriente,19.4276852,-100.343653
6770553471,Carretera a Aputzio de Juárez,19.4281185,-100.3444412
1215077824,Calle Leandro Valle Sur,19.4333011,-100.3571113
1215077693,Calle Leandro Valle Sur y Calle José María Coss Oriente,19.4348039,-100.3563346
1215077937,Calle Leandro Valle Sur y Calle Lerdo de Tejada Oriente,19.4356195,-100.3558889
1215077715,Calle Miguel Hidalgo Oriente y Calle Leandro Valle Norte,19.4372159,-100.3550529
1286493168,Calle Cuauhtémoc Oriente,19.437307,-100.3509647
4775032013,Calle Cuauhtémoc Oriente,19.4378078,-100.3520688
6738938945,Calle Cuauhtémoc Oriente y Calle Salazar Norte,19.438386,-100.3533485
1215077673,Calle Miguel Hidalgo Oriente y Calle Salazar Norte,19.4368176,-100.3541554
4775031938,Calle Salazar Norte y Calle Salazar Sur y Calle Melchor Ocampo Oriente,19.4358836,-100.3546599
6736618283,Calle Lerdo de Tejada Oriente,19.4355163,-100.3556614
1215077637,Calle Lerdo de Tejada Oriente y Avenida Revolución,19.4359601,-100.356642
6620735858,Calle 5 de Mayo Sur,19.4360436,-100.3575544
1215077585,Calle 5 de Mayo Sur y Calle Ignacio Zaragoza Poniente,19.4347261,-100.3581695
1215077725,Calle 5 de Mayo Sur y Calle Mariano Matamoros Poniente,19.4337833,-100.3586185
5826141996,Avenida Revolución,19.4332505,-100.3581682
4694454214,Avenida Revolución y Calle Leandro Valle Sur,19.4321437,-100.3577486
3268356043,Calle Salazar Sur y Avenida Revolución,19.4312368,-100.3570592
6746944758,Avenida Revolución,19.4303493,-100.3563604
4694471098,Joaquín Amaro Oriente,19.427778,-100.3440446
6772197854,Joaquín Amaro Oriente,19.4276102,-100.3429069
6775596723,Joaquín Amaro Oriente,19.4274844,-100.341528
9950184450,Hidalgo,19.4267643,-100.3411682
2572014712,A Aputzio de Juárez,19.4259455,-100.3417772
6775511358,A Aputzio de Juárez,19.4245694,-100.3422735
8238349566,A Aputzio de Juárez,19.4235292,-100.342312
3262220223,A Aputzio de Juárez,19.4217751,-100.3432128
8249669108,A Aputzio de Juárez,19.4208814,-100.3435851
2572014754,A Aputzio de Juárez,19.4199673,-100.3433099
8238166514,A Aputzio de Juárez,19.419436,-100.3423608
6857918240,A Aputzio de Juárez,19.419173,-100.3410859
6906180779,A Aputzio de Juárez,19.4188496,-100.340043
6857918253,A Aputzio de Juárez,19.4159953,-100.3390016
2572014778,A Aputzio de Juárez,19.4144497,-100.3385878
2572014786,A Aputzio de Juárez,19.413536,-100.3388229
2572014789,A Aputzio de Juárez,19.4124929,-100.3401411
2572014796,A Aputzio de Juárez,19.4116695,-100.340471
8238216139,A Aputzio de Juárez,19.410545,-100.3397226
2572014809,A Aputzio de Juárez,19.4095938,-100.3396475
8502643603,A Aputzio de Juárez,19.4085928,-100.3412321
9970490427,A Aputzio de Juárez,19.4080273,-100.3422787
9970490429,A Aputzio de Juárez,19.4074673,-100.3431382
2572014826,A Aputzio de Juárez,19.406441,-100.3434611
2572014833,A Aputzio de Juárez,19.4055044,-100.3428125
8249865290,A Aputzio de Juárez,19.4046386,-100.3424491
8417329543,A Aputzio de Juárez,19.3997953,-100.3417654
2572014851,A Aputzio de Juárez,19.3987824,-100.3411863
2572014863,A Aputzio de Juárez,19.3965087,-100.3412435
6620797820,A Aputzio de Juárez,19.3956655,-100.3415843
8249865291,A Aputzio de Juárez,19.3945395,-100.3426566
2572014602,A Aputzio de Juárez,19.3936488,-100.3431487
8249865292,Innominada,19.3924229,-100.3432658
8417329544,Innominada,19.3907763,-100.3434978
6661483001,Innominada,19.3873539,-100.3438846
2572116650,Innominada,19.3855327,-100.3439458
2572116659,Innominada,19.3843916,-100.3441912
8249865304,Innominada,19.383463,-100.3441
6865179744,Innominada,19.3825509,-100.3434187
8249865306,Innominada,19.381702,-100.3429024
6896415735,Innominada,19.3791579,-100.343054
8249865251,Innominada,19.3779686,-100.3434241
2572116704,Innominada,19.3764707,-100.3433678
2572116711,Innominada,19.3746261,-100.3434831
10676345865,Innominada,19.3718681,-100.3454357
10676345872,Innominada,19.3714657,-100.3443669
10676345878,Innominada,19.3709672,-100.3435743
8456949222,Innominada,19.3687785,-100.3430539
6868348195,Innominada,19.3673791,-100.342783
2572116757,Innominada,19.3665681,-100.3422895
2572116760,Innominada,19.3655623,-100.3407446
2572116768,Innominada,19.3649132,-100.3400257
6870947959,Innominada,19.3639857,-100.3398155
6661381671,Innominada,19.3630109,-100.3396914
6661381664,Innominada,19.3614951,-100.3394565
2572116777,Innominada,19.3589172,-100.3391004
2572116779,Innominada,19.3579087,-100.3388751
8456949221,Innominada,19.3568041,-100.3381187
2572116789,Innominada,19.3558447,-100.3370059
6868353385,Innominada,19.3551276,-100.3363095
7808896296,Innominada,19.3538104,-100.335938
2635375260,Innominada,19.3528235,-100.3359541
2635375263,Innominada,19.3517454,-100.3372604
6661362073,Innominada,19.3509432,-100.3384419
7808922828,Innominada,19.3489971,-100.3410128
2635375270,Innominada,19.3481518,-100.3410959
2635375272,Innominada,19.347466,-100.3403543
2635375279,Innominada,19.3465929,-100.3398755
2635375280,Innominada,19.3448796,-100.3403717
7808879257,Innominada,19.3440393,-100.3408331
2635375287,Innominada,19.34348,-100.3417262
2635375288,Innominada,19.3429435,-100.3436494
3262566214,Innominada,19.3431358,-100.3449134
3262566211,Calle Benito Juárez,19.3426208,-100.3458998
3262566228,Calle Benito Juárez,19.3425196,-100.3470182
3262566193,Calle Benito Juárez y Calle Vicente Guerrero,19.3425734,-100.3481802
2572116793,Innominada,19.3553356,-100.3362133
2572116796,Innominada,19.3546468,-100.3345004
7808879256,Innominada,19.3536459,-100.3337118
2572116809,Innominada,19.3527817,-100.3332666
7808879253,Innominada,19.3521857,-100.3321266
2572116816,Innominada,19.3519382,-100.3311551
2572116824,Innominada,19.3523533,-100.3299857
2572116832,Innominada,19.3522027,-100.3287129
2572116862,Innominada,19.352368,-100.327422
2572116837,Innominada,19.352724,-100.3264438
6868218062,Innominada,19.3534763,-100.3251824
2572116848,Innominada,19.3543664,-100.3239788
2572116852,Innominada,19.3551255,-100.322568
2572116856,Innominada,19.355662,-100.320095
2572116860,Innominada,19.355905,-100.3190221
2572124775,Innominada,19.3564383,-100.3184517
8487895421,Innominada,19.3592208,-100.3195526
2572124792,Innominada,19.3601184,-100.3198975
2572124795,Innominada,19.3610091,-100.3201712
2587423610,Innominada,19.3623784,-100.3188715
2587423615,Innominada,19.3633393,-100.3173021
2587423622,Innominada,19.3646307,-100.31621
2587423629,Innominada,19.3648107,-100.3152025
2587423634,Innominada,19.3648507,-100.3139014
2587423637,Innominada,19.3651544,-100.3129357
6868250023,Innominada,19.3652928,-100.3117324
6868250021,Innominada,19.3656281,-100.3108808
2587423650,Innominada,19.3665613,-100.3098485
7454743977,Innominada,19.3673122,-100.3091858
2587423660,Innominada,19.3674367,-100.3084447
6868276384,Innominada,19.3669316,-100.3094546
2587423645,Innominada,19.365922,-100.3104698
2587423644,Innominada,19.3653402,-100.3112962
6868282205,Innominada,19.3652002,-100.3126154
2587423635,Innominada,19.3648887,-100.3137323
2587423632,Innominada,19.3647487,-100.3147881
2587423624,Innominada,19.3648063,-100.3159764
2587423620,Innominada,19.3638582,-100.3166845
2587423613,Innominada,19.3627428,-100.3184208
2587423608,Innominada,19.3614928,-100.3195447
2572124780,Innominada,19.3572133,-100.3187629
2572124774,Innominada,19.3563681,-100.3184156
2572116858,Innominada,19.3557633,-100.3195264
6868218058,Innominada,19.3552225,-100.3222454
2572116850,Innominada,19.3547282,-100.3233995
2572116839,Innominada,19.3528151,-100.3262239
7808972597,Innominada,19.3521706,-100.3284171
2572116828,Innominada,19.3524557,-100.3293889
2572116823,Innominada,19.3520364,-100.3304771
7808879254,Innominada,19.3520769,-100.3317216
7808879255,Innominada,19.3524186,-100.3326899
2572116805,Innominada,19.3531423,-100.333465
2572116802,Innominada,19.3543039,-100.3340498
2572116795,Innominada,19.3550079,-100.3354922
2572116791,Innominada,19.3556975,-100.336714
2572116780,Innominada,19.3577542,-100.3387974
8474390574,Innominada,19.3606961,-100.3393407
6661381658,Innominada,19.3625147,-100.3396154
6870947958,Innominada,19.3638163,-100.3397946
2572116769,Innominada,19.3647829,-100.3399573
2572116761,Innominada,19.3654623,-100.3406024
2572116759,Innominada,19.3663923,-100.3420562
2572116751,Innominada,19.3671185,-100.3426985
6661442851,Innominada,19.370112,-100.3433195
10676345877,Innominada,19.3710583,-100.3436252
10676345871,Innominada,19.3715239,-100.3445975
10676345864,Innominada,19.3719452,-100.3455082
6865179504,Innominada,19.3729042,-100.3455028
3938141575,Innominada,19.2280469,-100.3661752
3930758053,Innominada,19.2282526,-100.3652499
3930758049,Innominada,19.2277994,-100.3642045
3930758038,Innominada,19.2274208,-100.3632094
3930758028,Innominada,19.2270801,-100.3621084
3930758023,Innominada,19.2266884,-100.361119
3930758026,Innominada,19.2269066,-100.3599116
3930758036,Innominada,19.2273992,-100.3587677
3930758031,Innominada,19.2272777,-100.3576452
3930758044,Innominada,19.2274322,-100.3561686
6845432049,Innominada,19.2277475,-100.3551628
8024343473,Innominada,19.2291087,-100.3542736
3930758056,Innominada,19.2303623,-100.3529339
6845453289,Innominada,19.2312095,-100.3524296
8024343468,Innominada,19.2323428,-100.3524873
3930758062,Innominada,19.2332747,-100.3523612
6661229548,Innominada,19.2346765,-100.3514667
8024343465,Innominada,19.2356679,-100.3508444
8024343464,Innominada,19.2369506,-100.3500156
6661230146,Innominada,19.2389804,-100.3491037
3930758066,Innominada,19.2398832,-100.3488716
8024343459,Innominada,19.2407784,-100.3487054
6886365790,Innominada,19.2413089,-100.3477786
6661230127,Innominada,19.2420699,-100.3463275
6661230123,Innominada,19.2424953,-100.3453674
3930758072,Innominada,19.2429853,-100.3443508
6661218429,Innominada,19.243412,-100.3433986
3930793158,Innominada,19.2442591,-100.3425859
6886373458,Innominada,19.2450505,-100.3417397
6845446173,Innominada,19.2460153,-100.3413521
7765441168,Innominada,19.2469269,-100.3409511
3930758081,Innominada,19.2478892,-100.3406346
3930758083,Innominada,19.2487704,-100.3400552
7765441161,Innominada,19.2496339,-100.3390843
3930758087,Innominada,19.2512672,-100.3388329
7765441158,Innominada,19.2521054,-100.3381133
3930776958,Innominada,19.2529169,-100.337133
3930776959,Innominada,19.253674,-100.3366019
7765441148,Innominada,19.254478,-100.3360507
7765441144,Innominada,19.2546857,-100.3351307
3930776971,Innominada,19.2555339,-100.3343676
6845257304,Innominada,19.2563126,-100.333862
3930776978,Innominada,19.257291,-100.3326898
3930776982,Innominada,19.2584817,-100.332641
3930776985,Innominada,19.2605132,-100.3318672
3930776987,Innominada,19.2614059,-100.3314909
3930776991,Innominada,19.2622959,-100.3315996
7765441183,Innominada,19.2631733,-100.3313997
3930776998,Innominada,19.2640114,-100.3311034
7765449789,Innominada,19.264914,-100.3314574
7765449792,Innominada,19.2659838,-100.3313112
7765449799,Innominada,19.2671663,-100.3320059
6845268791,Innominada,19.2684487,-100.3322634
7765449804,Innominada,19.2695931,-100.3324793
7765449808,Innominada,19.2708616,-100.3330748
7765449811,Innominada,19.2720137,-100.3333886
6886704995,Innominada,19.2728948,-100.3336796
3930777016,Innominada,19.2737759,-100.3349376
7765449818,Innominada,19.2739898,-100.335985
7765449821,Innominada,19.2747785,-100.3374361
3930777022,Innominada,19.275057,-100.3383748
3930777024,Innominada,19.2753621,-100.3392948
3930777026,Innominada,19.2760647,-100.3401236
7765449829,Innominada,19.276785,-100.3410181
7765449832,Innominada,19.2776192,-100.3414741
7765449837,Innominada,19.2787876,-100.3419851
3930777034,Innominada,19.2796915,-100.3425953
3930777037,Innominada,19.2804244,-100.3421876
7765449847,Innominada,19.2818992,-100.3424773
3930777045,Innominada,19.2829461,-100.3428876
7765449851,Innominada,19.283722,-100.3433852
6661155560,Innominada,19.2845702,-100.3439156
7765449854,Innominada,19.2860183,-100.3450602
7765449858,Innominada,19.2866778,-100.345708
7765449865,Innominada,19.2869803,-100.3471296
3930777162,Innominada,19.2877221,-100.3477451
7765449871,Innominada,19.2880297,-100.3486463
7765449874,Innominada,19.2887259,-100.3494497
6864131076,Innominada,19.2897,-100.3494568
3368069615,Innominada,19.2894968,-100.3503335
3368069604,Innominada,19.2886654,-100.3510753
3368069606,Innominada,19.2887296,-100.3524326
2635377263,Innominada,19.289917,-100.3557032
7811686277,Innominada,19.2906284,-100.3562786
2635377254,Innominada,19.2916122,-100.3566579
2635377250,Innominada,19.2923524,-100.357189
7811686273,Innominada,19.2931423,-100.3566876
2635377246,Innominada,19.2942258,-100.3557354
2635377242,Innominada,19.2951511,-100.3557703
6661157126,Innominada,19.2959415,-100.3572622
2635377235,Innominada,19.2967447,-100.3575647
2635377233,Innominada,19.2999149,-100.352207
2635377228,Innominada,19.3008541,-100.3518422
2635377227,Innominada,19.3023327,-100.3520403
2635375370,Innominada,19.3078603,-100.3520701
2635375367,Innominada,19.3088215,-100.3525691
2635375365,Innominada,19.3093573,-100.3534748
7928171587,Innominada,19.309236,-100.3548986
2635375361,Innominada,19.3089206,-100.3562161
2635375359,Innominada,19.3084954,-100.357348
7928171593,Innominada,19.3084526,-100.3583895
2635375353,Innominada,19.3088044,-100.3594503
2635375351,Innominada,19.3100017,-100.3606211
7928171600,Innominada,19.3109219,-100.3613372
7928171602,Innominada,19.3120458,-100.3618187
2635375347,Innominada,19.3134202,-100.3621902
7928171605,Innominada,19.3143252,-100.362276
7928171607,Innominada,19.315811,-100.3621432
2635375343,Innominada,19.3181445,-100.3618756
7928171610,Innominada,19.3191395,-100.3605513
7928171609,Innominada,19.3195521,-100.3594825
2635375339,Innominada,19.3198964,-100.3585276
7928171608,Innominada,19.3211316,-100.3566527
2635375330,Innominada,19.3218302,-100.3555369
2635375327,Innominada,19.3226287,-100.3553787
2635375324,Innominada,19.3231425,-100.3566179
2635375320,Innominada,19.3229677,-100.35758
2635375317,Innominada,19.3222235,-100.3583954
7928173367,Innominada,19.3224541,-100.3593028
7930873045,Innominada,19.3243973,-100.3598838
7928173372,Innominada,19.32528,-100.3600766
2635375306,Innominada,19.3261621,-100.3598379
7928173375,Innominada,19.3285122,-100.358545
2635375305,Innominada,19.3297942,-100.3578356
7928081728,Innominada,19.3311913,-100.3574923
2635375300,Innominada,19.3322049,-100.3572147
7928081727,Innominada,19.333173,-100.3568164
2635375296,Innominada,19.3341323,-100.3562987
6661279942,Innominada,19.3349308,-100.355152
7808896293,Innominada,19.3358014,-100.3537533
7808896292,Innominada,19.3370011,-100.3518382
7808896291,Innominada,19.3382792,-100.3497863
2635375292,Calle Vicente Guerrero,19.3394876,-100.3479181
3262566231,Innominada,19.3403216,-100.3469244
6838857903,Innominada,19.3414054,-100.3456919
3262566236,Innominada,19.3423272,-100.3446847
7808922829,Innominada,19.3463221,-100.3399318
7808896298,Innominada,19.3472243,-100.3400807
7808896302,Innominada,19.347838,-100.3408062
2635375268,Innominada,19.3486681,-100.3412367
6661362072,Innominada,19.3505813,-100.3389354
2635375264,Innominada,19.351543,-100.3376198
2635375262,Innominada,19.3522566,-100.3363833
6868356685,Innominada,19.3530791,-100.3359246
6868325366,Innominada,19.3543419,-100.3360024
6868353386,Innominada,19.3552756,-100.3364102
10652146103,Calle Cuauhtémoc Oriente,19.4354878,-100.3467514
2639114974,Innominada,19.3720378,-100.3462365
2639114978,Innominada,19.3711776,-100.3466629
2639114983,Innominada,19.3706914,-100.3475238
2639114989,Innominada,19.3698071,-100.348362
2639115000,Innominada,19.3686064,-100.3498976
2639117860,Innominada,19.368761,-100.3524646
2639117864,Innominada,19.3689037,-100.353414
2639117881,Innominada,19.3701818,-100.3581241
2639117883,Innominada,19.3706007,-100.3590655
2639117896,Innominada,19.3712636,-100.3600633
2639117902,Innominada,19.3720927,-100.3607378
6661482999,Innominada,19.387403,-100.3451885
6661482996,Innominada,19.3858272,-100.3454787
6661482993,Innominada,19.3851755,-100.3465161
8249865264,Innominada,19.3847582,-100.3475893
6661482990,Innominada,19.3843625,-100.3494805
6661482988,Innominada,19.3840171,-100.3512856
6661482987,Innominada,19.3839192,-100.3524086
6661482985,Innominada,19.3836992,-100.3537935
6661440282,Innominada,19.3841146,-100.3547444
8482698058,Innominada,19.384284,-100.3557569
6661483002,Innominada,19.3843836,-100.3575386
6661483004,Innominada,19.3847577,-100.358831
6142852475,Innominada,19.3873209,-100.3609804
6142852476,Innominada,19.3882334,-100.360784
6661483008,Innominada,19.3885789,-100.3617677
6661483017,Innominada,19.3882133,-100.3627184
6661483014,Innominada,19.3870731,-100.3635396
6661483018,Innominada,19.3866949,-100.3637878
1215077720,Calle Santos Degollado Poniente y Calle 5 de Mayo Sur,19.438751,-100.3562861
4773818510,Calle Santos Degollado Poniente y Calle Santos Degollado Oriente y Avenida Revolución,19.4383457,-100.3553988
4775031936,Avenida Revolución y Calle Moctezuma Poniente y Calle Moctezuma Oriente,19.440758,-100.354115
4773818449,Avenida Revolución,19.4423495,-100.3532558
4694454154,Avenida Revolución y Calle Leandro Valle Norte,19.4429601,-100.352157
6754082820,Avenida Revolución,19.4434011,-100.351162
775026449,Avenida Revolución,19.4429707,-100.3491503
6778257772,Avenida Revolución,19.4421592,-100.3482685
3221800131,Avenida Revolución,19.4416612,-100.3473359
775026452,Avenida Revolución,19.4412464,-100.346412
4694454141,Avenida Revolución,19.4415112,-100.3455596
8238664288,Periférico Francisco J. Múgica,19.4425838,-100.3464322
8238664282,Periférico Francisco J. Múgica,19.4439609,-100.3472248
8249531467,Calle La Palma,19.4452294,-100.3470333
3221815128,Calle La Palma,19.4462983,-100.3464681
6858468409,Calle La Palma,19.4472197,-100.3461314
6858468410,Calle Fernando Montes de Oca Sur,19.4480848,-100.345543
6925341397,Calle Fernando Montes de Oca Sur,19.4491491,-100.3451426
6925341396,Calle Fernando Montes de Oca Sur,19.4500689,-100.3449342
8248757898,Calle Fernando Montes de Oca Sur,19.4509795,-100.344463
3221815140,Calle Fernando Montes de Oca Sur,19.4516295,-100.343804
9980347750,Innominada,19.4517625,-100.3424896
3221815145,Innominada,19.4509407,-100.3428442
3221815148,Innominada,19.450056,-100.3431473
6925448395,Avenida La Palma,19.4497315,-100.342719
4773764915,Avenida La Palma,19.4501213,-100.3418033
4773766923,Calle Fernando Montes de Oca,19.4494411,-100.3411536
8240682249,Calle Fernando Montes de Oca,19.449327,-100.3401815
3261033239,Calle Fernando Montes de Oca,19.4497012,-100.338845
3261033242,Fernando Montes de Oca,19.4490958,-100.3370774
3261033227,Fernando Montes de Oca,19.4483785,-100.335526
6620686158,Innominada,19.4483548,-100.3343245
3261033247,Innominada,19.4482891,-100.3332773
9975410576,Innominada,19.448172,-100.3323035
9975301102,Innominada,19.4484306,-100.3316127
6858676904,Innominada,19.4497293,-100.3318756
10676473042,Innominada,19.4511565,-100.3328214
6620643163,Innominada,19.4520522,-100.3318306
6620643177,Innominada,19.45245,-100.3310264
6620643173,Innominada,19.4520581,-100.3300649
6620643171,Innominada,19.4516559,-100.3290011
6620643181,Innominada,19.4501305,-100.3295735
9975410543,Innominada,19.4490641,-100.3298648
6620643184,Innominada,19.4479677,-100.3300618
6620680376,Innominada,19.4482931,-100.3283693
6927601609,Innominada,19.4485132,-100.3271383
3261033253,Innominada,19.4485794,-100.3261576
1286494503,Calle Lázaro Cárdenas Sur y Calle Guillermo Prieto Poniente,19.4357644,-100.3665299
1286493829,Calle Artillería Poniente y Calle Manuel Doblado Sur,19.4350018,-100.3659473
1286493803,Calle Manuel Doblado Sur y Calle Álvaro Obregón Poniente,19.435982,-100.365518
8238587330,Calle Mariano Matamoros Poniente,19.4361873,-100.3645169
3221226623,Calle Mariano Matamoros Poniente,19.435838,-100.3635539
1215077874,Calle Mariano Matamoros Poniente y Guadalupe Victoria Sur,19.4352789,-100.3621444
1215077722,José María Morelos Norte y Calle Mariano Matamoros Poniente,19.4345898,-100.3604563
4775031927,Calle Leandro Valle Sur y Calle Leandro Valle Norte y Calle Melchor Ocampo Oriente,19.4362719,-100.3555691
8407827107,Calle General Pueblita Norte,19.4360791,-100.345567
1286493823,Calle General Pueblita Norte y Calle Moctezuma Oriente,19.43696,-100.3451778
4694461783,Calle Moctezuma Oriente y Periférico Francisco J. Múgica,19.4365577,-100.3441073
3261026639,Calle de la Vía,19.4362983,-100.3439069
1935425071,Calle de la Vía,19.4371294,-100.343572
6754384763,Calle de la Vía,19.4378197,-100.3428729
1935425073,Calle de la Vía,19.4384353,-100.3419172
1935425078,Calle de la Vía,19.439185,-100.3413802
3261026676,Calle de la Vía,19.4401179,-100.3417771
3261026730,Calle de la Vía,19.4414383,-100.3427685
1935425100,Calle de la Vía,19.4426739,-100.3437192
1935425066,Calle de la Vía,19.4432014,-100.3447824
8248757872,Calle de la Vía,19.443615,-100.3456468
3261033285,Calle de la Vía,19.444364,-100.3463558
3221815126,Calle La Palma y Calle de la Vía,19.4453153,-100.3470159
2338634480,Calle de la Vía,19.4473393,-100.3474383
4694454103,Calle de la Vía,19.4485198,-100.3471594
1210602346,Calle de la Vía,19.4494096,-100.3472799
8241296940,Calle de la Vía,19.4503696,-100.3472043
3221815160,Calle de la Vía,19.4516481,-100.3465819
6620656444,Calle de la Vía,19.4526787,-100.3456344
8238693591,Calle de la Vía,19.4531556,-100.3445861
3221815154,Calle de la Vía,19.4537105,-100.3435029
4773764872,De la Vía,19.454378,-100.342842
8527250482,Innominada,19.4557321,-100.3426933
8527250474,Innominada,19.4552825,-100.3411739
8527250463,Innominada,19.4551648,-100.3412371
1286493212,Calle Ignacio Ramírez,19.4476559,-100.3611937
1286493187,Calle Ignacio Ramírez y Calle González Ortega Poniente,19.4467033,-100.3615866
1286494023,Calle Ignacio Ramírez,19.4454438,-100.3620942
4775032847,Calle Ignacio Ramírez,19.4447543,-100.3627178
6747278200,Calle Lázaro Cárdenas Norte,19.4437784,-100.3632093
4694454174,Calle Lázaro Cárdenas Norte,19.4425417,-100.3639263
1215077873,Avenida Miguel Hidalgo Poniente,19.4424415,-100.365421
1286493922,Calle Reforma Agraria Sur,19.4416957,-100.3659605
6747278202,Calle Ignacio López Rayón Poniente,19.4409,-100.3654853
6733467771,Calle Ignacio López Rayón Poniente,19.4403389,-100.3642814
6747295195,Calle Manuel Doblado Norte,19.4406489,-100.3635795
1286493171,Avenida Miguel Hidalgo Poniente y Calle Pípila Norte,19.4409655,-100.3624874
4773860258,Calle Pípila Norte y Calle Ignacio López Rayón Poniente,19.4397215,-100.3629607
4773860261,Calle Ignacio López Rayón Poniente y Calle Benito Juárez Norte,19.4391295,-100.3616901
3261026641,Periférico Francisco J. Múgica,19.4356285,-100.343907
1820722340,Periférico Francisco J. Múgica,19.4345029,-100.3433643
3221790036,Calle Lago de Chapultepec,19.4342,-100.3424722
3221790033,Calle Lago Azul,19.4344381,-100.3414495
3221790080,Calle Lago Azul,19.4355988,-100.3418124
3221790076,Calle Lago Azul,19.4361167,-100.3409209
3221790068,Calle Lago Azul,19.4365495,-100.3400762
3221790065,Calle Lago Azul,19.4372806,-100.3395915
3261026623,Calle Lago Azul,19.43738,-100.3386149
8238046841,San azul,19.4381405,-100.3379872
8238046847,San azul,19.4390414,-100.337625
3261026631,San azul,19.4397949,-100.3369859
8238004999,Calle Barranca,19.4399073,-100.337986
3261026638,Calle Barranca,19.4400054,-100.3391715
4773767026,Calle Barranca,19.44027,-100.3404477
4773766985,Calle Río San Isidro,19.4407259,-100.3404757
8238005003,Calle Río San Isidro,19.4410391,-100.3396058
3261033194,Calle Río San Isidro y Calle Belisario Domínguez,19.442078,-100.3383275
6917151696,Calle Antiguo Camino Real,19.4425529,-100.3374782
6917105745,Calle Antiguo Camino Real,19.4427526,-100.3364494
3261033203,Calle Antiguo Camino Real,19.4430089,-100.3353042
3261033205,Calle Antiguo Camino Real,19.4424944,-100.3342327
3261033209,Calle Antiguo Camino Real,19.4430991,-100.3344343
3261033212,Calle Antiguo Camino Real y Calle Leona Vicario,19.4438603,-100.3351747
3261033215,Calle Leona Vicario,19.4437722,-100.336225
8237917207,Innominada,19.4447264,-100.3358002
3261033224,Innominada,19.4457756,-100.3365448
3261033226,Innominada,19.4476497,-100.3357748
9975410537,Innominada,19.4480718,-100.33121
3261033255,Innominada,19.4486861,-100.3244546
3261033259,Innominada,19.449227,-100.3224023
6794140741,Innominada,19.449615,-100.3207728
9980469949,Innominada,19.4509238,-100.317753
3261033265,Innominada,19.4513744,-100.3163697
8238004980,Innominada,19.4512982,-100.3147604
3261033268,Innominada,19.451334,-100.313753
8475634480,Innominada,19.4501554,-100.3130058
3262566234,Calle Vicente Guerrero,19.3409864,-100.3479735
3262566200,Calle Vicente Guerrero,19.3398637,-100.3479203
6661279983,Innominada,19.3387145,-100.3490755
6661279958,Innominada,19.3374364,-100.351126
6661279981,Innominada,19.336176,-100.3531685
6661279938,Innominada,19.3353218,-100.3545459
2635375294,Innominada,19.3345068,-100.3558306
2635375298,Innominada,19.3337412,-100.3565696
2635375299,Innominada,19.3324785,-100.357109
2635375303,Innominada,19.3301409,-100.3577055
5376726174,Innominada,19.3289737,-100.3582756
7928173369,Innominada,19.3230464,-100.35952
2635375315,Innominada,19.3222438,-100.3590016
2635375319,Innominada,19.322492,-100.3580301
2635375321,Innominada,19.3231425,-100.3573367
7928173360,Innominada,19.3229995,-100.3560144
2635375328,Innominada,19.3224108,-100.3552572
2635375338,Innominada,19.320114,-100.3580931
7928171611,Innominada,19.3187333,-100.3614794
6661269466,Innominada,19.3165723,-100.3620554
7928171606,Innominada,19.3145024,-100.3622612
2635375350,Innominada,19.3111889,-100.3615102
7928171599,Innominada,19.3101903,-100.3607605
2635375352,Innominada,19.3091965,-100.3599846
2635375354,Innominada,19.3086791,-100.3591324
2635375357,Innominada,19.3084295,-100.3581473
7928171591,Innominada,19.308607,-100.3570189
7928171589,Innominada,19.3091006,-100.3555973
2635375363,Innominada,19.3093826,-100.3541001
6886886440,Innominada,19.3092267,-100.3530363
2635375368,Innominada,19.3083314,-100.3522029
2635375371,Innominada,19.3029309,-100.3520648
7765449890,Innominada,19.3000072,-100.3520983
2635377234,Innominada,19.2968646,-100.3574032
2635377240,Innominada,19.2960371,-100.3574279
6886905197,Innominada,19.2954106,-100.3562062
2635377244,Innominada,19.2947726,-100.3556201
2635377264,Innominada,19.2883613,-100.3514479
3368069612,Innominada,19.2889601,-100.3509577
7765449879,Innominada,19.2898544,-100.3496455
3368069611,Innominada,19.2889539,-100.3495259
7765449873,Innominada,19.2882512,-100.3489655
3368066289,Innominada,19.287831,-100.347949
7765449861,Innominada,19.2871487,-100.3473575
3930777158,Innominada,19.2867208,-100.3464638
7765449856,Innominada,19.2865904,-100.3454867
7768968747,Innominada,19.2849388,-100.3442069
3930777047,Innominada,19.2840436,-100.3434402
7765449848,Innominada,19.2820258,-100.3425524
3930777041,Innominada,19.2810751,-100.3418174
7765449842,Innominada,19.2803814,-100.3422546
6845229719,Innominada,19.2792788,-100.3423183
7765449835,Innominada,19.2783395,-100.341922
3930777029,Innominada,19.277085,-100.3412341
7765449820,Innominada,19.2741164,-100.3362747
3930777017,Innominada,19.2738442,-100.3352004
3930777015,Innominada,19.2734708,-100.3342134
7765449813,Innominada,19.2727087,-100.3335603
7765449809,Innominada,19.2713326,-100.333225
7765449805,Innominada,19.2697083,-100.3325209
3930777008,Innominada,19.2673562,-100.3320676
7765449796,Innominada,19.266456,-100.331617
3930777002,Innominada,19.2651128,-100.3314534
7765449788,Innominada,19.2642291,-100.3311463
3930776994,Innominada,19.2632606,-100.3313246
3930776984,Innominada,19.259279,-100.3323439
7765441172,Innominada,19.2581471,-100.3325826
3930776977,Innominada,19.2567696,-100.333512
7765441138,Innominada,19.256153,-100.3342402
7765441142,Innominada,19.2551376,-100.3345419
3930776963,Innominada,19.254611,-100.3356832
7765441150,Innominada,19.2539855,-100.3364986
7765441154,Innominada,19.2530106,-100.337078
7765441157,Innominada,19.2521687,-100.3379872
3930758088,Innominada,19.2514849,-100.3387769
7765441162,Innominada,19.2500897,-100.3387383
6886351877,Innominada,19.2451011,-100.3416994
3930758075,Innominada,19.2444579,-100.3424223
8024343453,Innominada,19.2436653,-100.3429453
8024343454,Innominada,19.2430828,-100.3441617
6661230134,Innominada,19.2415001,-100.347434
3930758068,Innominada,19.2408493,-100.3486128
3930758064,Innominada,19.2375989,-100.3496629
3930758058,Innominada,19.2314336,-100.3524001
8024343471,Innominada,19.2305004,-100.3527877
8024343472,Innominada,19.2296178,-100.3538552
8107851896,Innominada,19.2280033,-100.3548946
6845432050,Innominada,19.2273106,-100.3571516
3930758035,Innominada,19.2273834,-100.3583006
3930758030,Innominada,19.2272967,-100.3593256
3930758024,Innominada,19.226723,-100.3602496
3938141577,Innominada,19.2281937,-100.3650717
6661191800,Innominada,19.2898575,-100.3495818
1215077703,Calle Doctor Emilio García Norte y Calle Cuauhtémoc Poniente,19.4398934,-100.3565792
1286493117,Calle Doctor Emilio García Norte y Calle Moctezuma Poniente,19.4414993,-100.3557109
4694454247,Calle Moctezuma Poniente y Privada de Moctezuma,19.4409986,-100.3546719
6981474609,Periférico Francisco J. Múgica,19.4452098,-100.3474904
7914787481,Periférico Francisco J. Múgica,19.4474875,-100.3477212
4694454100,Periférico Francisco J. Múgica,19.4485813,-100.3474186
1210571313,Periférico Francisco J. Múgica,19.4500017,-100.3476672
775026363,Periférico Francisco J. Múgica,19.4511141,-100.3476208
1210571034,Periférico Francisco J. Múgica,19.452477,-100.346898
2338634519,Periférico Francisco J. Múgica,19.4532118,-100.3449545
6925420925,Periférico Francisco J. Múgica,19.4538466,-100.344218
4773764865,Periférico Francisco J. Múgica,19.4547945,-100.3442514
775026368,Periférico Francisco J. Múgica,19.4555899,-100.3447555
6927458938,Periférico Francisco J. Múgica,19.4564435,-100.3450817
6860532625,Periférico Francisco J. Múgica,19.4578294,-100.3451434
8238693568,Periférico Francisco J. Múgica,19.4589135,-100.3449952
8238693572,Carretera Toluca-Morelia y Carretera Zitácuaro-Loma Larga-Curungueo,19.4598976,-100.3447664
3099914331,Carretera Toluca-Morelia y Carretera Morelia-Toluca,19.4608821,-100.3445027
8527250493,Carretera Toluca-Morelia,19.4623003,-100.3440556
6927458937,Carretera Toluca-Morelia,19.4643027,-100.3434022
4694454039,Carretera Toluca-Morelia,19.4652071,-100.3432649
1210602371,Carretera Toluca-Morelia,19.4666565,-100.3432974
4694454034,Carretera Toluca-Morelia,19.4676261,-100.3435104
4806646773,Carretera Toluca-Morelia,19.4689584,-100.3441976
4694454029,Carretera Toluca-Morelia,19.4723693,-100.3461001
2338634357,Carretera Toluca-Morelia,19.4730555,-100.34681
1210626667,Carretera Toluca-Morelia,19.4736832,-100.3483302
8482555429,Carretera Toluca-Morelia,19.4751341,-100.3519837
1983883591,Carretera Toluca-Morelia,19.4760836,-100.3543646
3211898686,Toluca - Morelia y Calle Los Pinos,19.4765694,-100.3557163
6937427596,Toluca - Morelia,19.4770084,-100.3566849
8460303921,Toluca - Morelia,19.477839,-100.3574198
1210626652,Toluca - Morelia,19.4789196,-100.3574447
6937427599,Toluca - Morelia,19.4795416,-100.3582747
291422928,Toluca - Morelia,19.4803054,-100.3578678
1210626673,Toluca - Morelia,19.4808082,-100.3590974
291428632,Toluca - Morelia,19.4815696,-100.3600386
6907395851,Toluca - Morelia,19.4826246,-100.3602576
6860813170,Toluca - Morelia,19.4846501,-100.3618217
6860813183,Toluca - Morelia,19.4855419,-100.3626408
6603778120,Toluca - Morelia,19.4866551,-100.3636888
8425151331,Toluca - Morelia,19.4875354,-100.3644664
1210626696,Toluca - Morelia,19.4885784,-100.365482
1210626688,Toluca - Morelia,19.4890402,-100.3666088
3256944571,Toluca - Morelia,19.4894148,-100.3689391
6913104014,Toluca - Morelia,19.4899148,-100.3722221
8414718448,Toluca - Morelia,19.4900715,-100.3732264
8414718446,San Felipe Alzati-Angangeo,19.4914993,-100.3736138
6603889510,San Felipe Alzati-Angangeo,19.4924181,-100.3734867
1475332199,San Felipe Alzati-Angangeo,19.4934841,-100.373331
3256944448,San Felipe Alzati-Angangeo,19.4946615,-100.3732443
8414718442,San Felipe Alzati-Angangeo,19.4956819,-100.3732476
6913104006,San Felipe Alzati-Angangeo,19.4970108,-100.3735636
1475332213,Innominada,19.4979516,-100.373803
1475332217,Innominada,19.4990302,-100.3741546
1475332223,Innominada,19.5000902,-100.373968
1475332239,Innominada,19.500981,-100.373667
1475332257,Innominada,19.5021168,-100.3736768
1475332281,Innominada,19.5030073,-100.3732911
1475332302,Innominada,19.5038991,-100.3734167
1475332310,Innominada,19.5049433,-100.3734181
1475332330,Innominada,19.505753,-100.3732146
6847988214,Innominada,19.5067308,-100.3729378
1475332348,Innominada,19.507649,-100.3731182
1475332365,Innominada,19.5097339,-100.3732328
1475332377,Innominada,19.5114019,-100.3736092
1475332379,Innominada,19.5116526,-100.3738106
1475332370,Innominada,19.5105191,-100.3733442
1475332357,Innominada,19.5084872,-100.3733534
1475332347,Innominada,19.5073125,-100.3729003
1475332334,Innominada,19.5063046,-100.3731593
1475332325,Innominada,19.5053871,-100.3731107
1475332304,Innominada,19.5040642,-100.3734574
1475332285,Innominada,19.5032033,-100.3731949
1475332261,Innominada,19.5023102,-100.3736118
6847988212,Innominada,19.4992045,-100.3741767
1475332204,San Felipe Alzati-Angangeo,19.4960654,-100.3732969
1475332195,San Felipe Alzati-Angangeo,19.4902218,-100.3738424
3099912547,Toluca - Morelia,19.4891129,-100.3670335
6603756130,Toluca - Morelia,19.488821,-100.3659157
291423416,Toluca - Morelia,19.4881714,-100.3650461
6603756145,Toluca - Morelia,19.4847269,-100.3618966
1210626693,Toluca - Morelia,19.4833547,-100.3606499
8424833087,Toluca - Morelia,19.4823611,-100.3602135
1210626685,Toluca - Morelia,19.4812478,-100.3598763
291423410,Toluca - Morelia,19.480788,-100.3581504
1210626682,Toluca - Morelia,19.4798785,-100.3582887
1210626660,Toluca - Morelia,19.4793055,-100.3577072
1210626650,Toluca - Morelia,19.4784232,-100.3575613
1210626638,Toluca - Morelia,19.4772368,-100.356955
3211898661,Toluca - Morelia,19.4766542,-100.3559274
1820722369,Carretera Toluca-Morelia y Toluca - Morelia y Carretera Morelia-Toluca,19.4761959,-100.354796
8484632753,Carretera Morelia-Toluca,19.4753703,-100.3528035
6931602463,Carretera Morelia-Toluca,19.4735928,-100.3483524
6931602475,Carretera Morelia-Toluca,19.4732382,-100.3474407
1820722425,Carretera Morelia-Toluca,19.4726584,-100.3464487
6931602469,Carretera Morelia-Toluca,19.468901,-100.3442875
1820722287,Carretera Morelia-Toluca,19.4678961,-100.343732
1820722419,Carretera Morelia-Toluca,19.4666541,-100.3433814
3261035187,Carretera Morelia-Toluca y Calle José María Morelos,19.4655619,-100.3433348
6927458936,Carretera Morelia-Toluca,19.4644256,-100.3434717
3261035211,Carretera Morelia-Toluca,19.4617235,-100.3443454
8238693567,Periférico Francisco J. Múgica,19.4589595,-100.3450354
6860532626,Periférico Francisco J. Múgica,19.457837,-100.3452453
1210570908,Periférico Francisco J. Múgica,19.4566926,-100.3451852
8238693574,Periférico Francisco J. Múgica,19.4557079,-100.3448908
2338634428,Periférico Francisco J. Múgica,19.4546765,-100.3442882
4694454055,Periférico Francisco J. Múgica,19.4536903,-100.344405
6858480460,Periférico Francisco J. Múgica,19.4532196,-100.3454255
6925420927,Periférico Francisco J. Múgica,19.4529319,-100.3465194
8249531465,Periférico Francisco J. Múgica,19.4513702,-100.3475949
8248757878,Periférico Francisco J. Múgica,19.4504752,-100.3478036
8248757875,Periférico Francisco J. Múgica,19.4490946,-100.3474726
1210571074,Periférico Francisco J. Múgica,19.4480743,-100.3477398
3221815113,Periférico Francisco J. Múgica,19.4459342,-100.3476761
291423402,Periférico Francisco J. Múgica,19.444726,-100.3475319
6783960739,Periférico Francisco J. Múgica,19.4437919,-100.3472591
8238664287,Periférico Francisco J. Múgica,19.4429366,-100.3468399
291421650,Periférico Francisco J. Múgica,19.442014,-100.34582
6775760585,Avenida Revolución,19.4412964,-100.3461069
3221800132,Avenida Revolución,19.4417372,-100.3472828
4694454145,Avenida Revolución,19.4421899,-100.348156
4694454148,Avenida Revolución,19.4429248,-100.348792
1210602365,Avenida Revolución,19.4434036,-100.3500482
4694454228,Avenida Revolución,19.4435434,-100.3510081
4694454153,Avenida Revolución y Calle Leandro Valle Norte,19.443024,-100.3521808
6754082804,Avenida Revolución,19.4425397,-100.3531593
1950211843,Calle Moctezuma Poniente y Avenida Revolución,19.4407983,-100.3541928
1215077793,Avenida Revolución y Calle Cuauhtémoc Poniente,19.4391669,-100.3550486
1215077839,Calle Cuauhtémoc Poniente y Calle 5 de Mayo Norte y Calle 5 de Mayo Sur,19.4395612,-100.355907
6661469034,Innominada,19.3858001,-100.363357
6661469031,Innominada,19.3848271,-100.3631296
6661469026,Innominada,19.3848258,-100.3618134
6661469023,Innominada,19.3842451,-100.360601
6661469044,Innominada,19.3850737,-100.3601206
6142852471,Innominada,19.385153,-100.359223
6661483003,Innominada,19.3844086,-100.357905
6661440280,Innominada,19.3844371,-100.3563618
6661440281,Innominada,19.3841853,-100.3549482
6661440283,Innominada,19.3837549,-100.3541046
6661482986,Innominada,19.3838763,-100.3529996
6661482989,Innominada,19.3842613,-100.3500022
6661482991,Innominada,19.384648,-100.348019
6661482992,Innominada,19.3849275,-100.3470505
6661482994,Innominada,19.3856691,-100.3455834
6661482997,Innominada,19.3866108,-100.3454189
6661483000,Innominada,19.3873784,-100.3444339
6638969095,Innominada,19.413186,-100.2809726
9961904312,Innominada,19.4139139,-100.2817128
5133852272,Innominada,19.4144821,-100.282552
8241362210,Innominada,19.4148457,-100.2835189
8241362211,Innominada,19.4151338,-100.284529
8241362213,Innominada,19.4151294,-100.2855323
8241362215,Innominada,19.4154782,-100.2866733
8241378118,Innominada,19.4159349,-100.287602
5133852282,Innominada,19.4164345,-100.2885683
5133852286,Innominada,19.4168471,-100.290031
5133852289,Innominada,19.4164488,-100.2909961
8248757846,Innominada,19.4164464,-100.2921699
5133852291,Innominada,19.4164889,-100.2933805
5133852293,Innominada,19.4163648,-100.2943426
5133852294,Innominada,19.4160229,-100.2953155
6621194423,Innominada,19.4156977,-100.2964829
5133852297,Innominada,19.4156469,-100.297763
5133852298,Innominada,19.415771,-100.2988048
6621194440,Innominada,19.4161043,-100.3003047
5133852300,Innominada,19.4162098,-100.3013028
5133852301,Innominada,19.4158152,-100.302557
5133852215,Innominada,19.4155393,-100.3037976
8478932134,Innominada,19.4155112,-100.305126
6800521266,Innominada,19.4149362,-100.3062986
5133852309,Innominada,19.414626,-100.3072264
5133852311,Innominada,19.4149898,-100.308259
5133852313,Innominada,19.4155517,-100.3090868
5133852160,Innominada,19.4158644,-100.3108484
6800622893,Innominada,19.4158801,-100.3120556
6747018182,Calle José María Coss Oriente,19.4344991,-100.355706
3368069607,Innominada,19.2887244,-100.3512769
3262566225,Calle Vicente Guerrero y Calle José María Morelos y Pavón,19.3419566,-100.3481252
3262566198,Innominada,19.3398929,-100.3473958
6754387387,Calle Cuauhtémoc Oriente,19.4359831,-100.3479398
3221800113,Calle Cuauhtémoc Oriente y Primera de Santos Degollado,19.4363521,-100.3488142
7809419626,Innominada,19.3353838,-100.3526616
6661279977,Innominada,19.3336526,-100.3519408
6661279974,Innominada,19.3339867,-100.349974
6661279972,Innominada,19.334579,-100.3488421
6661279969,Innominada,19.3348207,-100.3479107
6661279963,Innominada,19.3341867,-100.3474233
7808879268,Innominada,19.3337172,-100.3467084
6661291897,Innominada,19.3326972,-100.3459749
6661320324,Innominada,19.3316987,-100.3458636
7808879261,Innominada,19.3307028,-100.3460433
6661320318,Innominada,19.3298891,-100.3462699
7808879258,Innominada,19.32874,-100.3463852
6661320330,Innominada,19.3268923,-100.3464161
7808879259,Innominada,19.3296486,-100.3464147
6661320322,Innominada,19.3305028,-100.3462283
6661320325,Innominada,19.3326327,-100.345543
6661291896,Innominada,19.3331152,-100.3465549
7808879270,Innominada,19.334038,-100.3467621
7808879274,Innominada,19.3343113,-100.3477424
6661279970,Innominada,19.3347764,-100.3483942
6661279973,Innominada,19.3342778,-100.3492793
7808879278,Innominada,19.333664,-100.3512079
6661279979,Innominada,19.3350223,-100.3524946
8484593161,Innominada,19.3552668,-100.3361164
6753936188,Calle Mora del Cañonazo Sur,19.4303104,-100.3514645
4694471181,Calle Mora del Cañonazo Sur,19.4312,-100.3512147
1286494591,Calle Mora del Cañonazo Sur y Calle José María Coss Oriente,19.4333942,-100.3515757
1286494352,Calle Lerdo de Tejada Oriente y Calle Ignacio Manuel Altamirano Sur,19.4341349,-100.3524901
1286493174,Calle Lerdo de Tejada Oriente y Calle Nicolás Bravo Sur,19.4346947,-100.3537448
1215077759,Calle Salazar Sur y Calle Lerdo de Tejada Oriente,19.4352256,-100.3549991
7808896295,Innominada,19.3545165,-100.3360359
2635375259,Innominada,19.3532663,-100.3359219
7928081731,Innominada,19.3298385,-100.3586403
7928081734,Innominada,19.3307079,-100.3588374
5376726176,Innominada,19.3303307,-100.3600337
5376726178,Innominada,19.3303194,-100.3612125
7928081743,Innominada,19.3302966,-100.3622746
7928081745,Innominada,19.3298549,-100.3634428
7928081747,Innominada,19.3284742,-100.3655228
7928081749,Innominada,19.3280996,-100.3664026
6844986544,Innominada,19.328044,-100.367454
5376726183,Innominada,19.3288324,-100.3681366
7928173285,Innominada,19.3295803,-100.3686811
5376726186,Innominada,19.3292057,-100.3695703
7928173286,Innominada,19.3285565,-100.3703374
6311384171,Innominada,19.3275504,-100.3705144
5376726192,Innominada,19.3269101,-100.3698814
6311384173,Innominada,19.3262798,-100.370729
6311384175,Innominada,19.3269923,-100.3711541
7928081778,Innominada,19.3276441,-100.3717013
7928081779,Innominada,19.3266772,-100.3720433
7928081781,Innominada,19.3256901,-100.3727192
6893687371,Innominada,19.3249763,-100.3738618
7928081784,Innominada,19.3238538,-100.3739932
7928090585,Innominada,19.3226692,-100.3742105
6844809314,Innominada,19.3217947,-100.3743929
6844809311,Innominada,19.3214771,-100.3753585
7928090589,Innominada,19.3214758,-100.3765064
7928090591,Innominada,19.3213809,-100.377582
7929976276,Innominada,19.3218029,-100.3784329
7928090598,Innominada,19.3210278,-100.3783491
5376726218,Innominada,19.3195648,-100.3796701
7928173259,Innominada,19.3193838,-100.3804936
5376726222,Innominada,19.3197217,-100.3813612
5376726223,Innominada,19.319971,-100.3822759
7928173269,Innominada,19.3191218,-100.3825709
5376726226,Innominada,19.3187791,-100.3837627
5384983177,Innominada,19.3179066,-100.3835408
5384985167,Innominada,19.3171601,-100.382579
5384983169,Innominada,19.3166628,-100.3816476
5376726490,Innominada,19.315973,-100.3819433
5376726491,Innominada,19.3154301,-100.3828204
5384985149,Innominada,19.3149529,-100.3837095
5376726493,Innominada,19.3146998,-100.3847006
5376726494,Innominada,19.3144593,-100.3857373
5376726495,Innominada,19.3150719,-100.3870918
7927824700,Innominada,19.3157173,-100.3878884
5384985165,Innominada,19.3161726,-100.3886094
6893686552,Innominada,19.3160806,-100.3884638
7927824698,Innominada,19.3153263,-100.3875129
5384985158,Innominada,19.3147795,-100.3864896
7927824693,Innominada,19.3144429,-100.3855683
5384985151,Innominada,19.3147909,-100.3842513
7927824686,Innominada,19.3152276,-100.3834172
7927809578,Innominada,19.3165995,-100.3815081
5384985166,Innominada,19.3177522,-100.3834228
7927809572,Innominada,19.3186156,-100.3837605
7928173272,Innominada,19.3190282,-100.3828579
7928173266,Innominada,19.31979,-100.3824449
6844881369,Innominada,19.319747,-100.3815342
7928173260,Innominada,19.3194673,-100.3805847
7928090600,Innominada,19.3205418,-100.3782968
7928090597,Innominada,19.3212113,-100.3785436
7928173299,Innominada,19.3215365,-100.3779763
7928173296,Innominada,19.3214948,-100.375455
5376726204,Innominada,19.3248055,-100.3739074
6844809316,Innominada,19.3254332,-100.3730625
5376726201,Innominada,19.326171,-100.3723007
5376726199,Innominada,19.3274239,-100.3718314
7928173288,Innominada,19.3271606,-100.3713834
5376726194,Innominada,19.3263823,-100.3709637
7928081770,Innominada,19.3266658,-100.370151
5376726190,Innominada,19.3272821,-100.3703548
7928081762,Innominada,19.3281591,-100.3705546
5376726187,Innominada,19.3288881,-100.3698573
5376726185,Innominada,19.3295461,-100.369062
7928081754,Innominada,19.3289501,-100.3682104
7928081750,Innominada,19.3282211,-100.3676444
5376726180,Innominada,19.3294209,-100.3642085
6844986537,Innominada,19.3301498,-100.3629184
7928081742,Innominada,19.3303523,-100.3616148
5376726177,Innominada,19.3302295,-100.3606117
7928081737,Innominada,19.3305889,-100.3593805
7928081733,Innominada,19.3303801,-100.3587449
7928081730,Innominada,19.3293399,-100.3584471
9821327349,Calle Libramiento Samuel Ramos,19.4284396,-100.3546106
1286493746,Calle Libramiento Samuel Ramos,19.4283131,-100.3557762
9821327321,Innominada,19.4288953,-100.3566802
3268356015,Calle Artillería Oriente,19.4299911,-100.3566584
3268356018,Calle Artillería Oriente,19.4305708,-100.3574114
6746944753,Calle Artillería Oriente,19.4311827,-100.3582189
6606259449,Innominada,19.3986421,-100.3784884
6865119344,Innominada,19.3979122,-100.3791659
6606259954,Innominada,19.3980754,-100.3798539
6606259952,Innominada,19.3988736,-100.3808678
6865145833,Innominada,19.3994019,-100.381638
6606259939,Innominada,19.400704,-100.3828285
6606259941,Innominada,19.4011568,-100.3838638
6606259943,Innominada,19.4018551,-100.385685
6606259944,Innominada,19.4026267,-100.3870931
6606259400,Carretera Zitácuaro-Ciudad Altamirano,19.4041967,-100.38859
6865160000,Carretera Zitácuaro-Ciudad Altamirano,19.4055256,-100.3895238
6865159998,Carretera Zitácuaro-Ciudad Altamirano,19.407469,-100.3908815
8241188675,Carretera Zitácuaro-Ciudad Altamirano,19.4089368,-100.3918946
1935415496,Carretera Zitácuaro-Ciudad Altamirano,19.4098178,-100.3921444
6606259891,Carretera Zitácuaro-Ciudad Altamirano,19.4108761,-100.3916852
6606259890,Carretera Zitácuaro-Ciudad Altamirano,19.411714,-100.3911942
6606255939,Carretera Zitácuaro-Ciudad Altamirano,19.4127838,-100.3908806
6865158766,Carretera Zitácuaro-Ciudad Altamirano,19.4145415,-100.3906984
6820671558,Carretera Zitácuaro-Ciudad Altamirano,19.4171175,-100.3904203
6820676294,Carretera Zitácuaro-Ciudad Altamirano,19.4180768,-100.3903171
1935414891,Carretera Zitácuaro-Ciudad Altamirano y Avenida Hermanos Rayón Norte,19.4191098,-100.3902237
6820676297,Carretera Zitácuaro-Ciudad Altamirano,19.4200412,-100.3901814
1935414711,Carretera Zitácuaro-Ciudad Altamirano,19.4208433,-100.3895773
6820676319,Carretera Zitácuaro-Ciudad Altamirano,19.4218751,-100.3890467
6820676367,Carretera Zitácuaro-Ciudad Altamirano,19.4227093,-100.3886603
6820671562,Carretera Zitácuaro-Ciudad Altamirano,19.4234458,-100.3879734
1935414320,Carretera Zitácuaro-Ciudad Altamirano y Calle Suprema Junta Nacional Americana,19.4241661,-100.3871759
6820671580,Calle Suprema Junta Nacional Americana,19.4249516,-100.3863471
6606228675,Calle Suprema Junta Nacional Americana,19.4254285,-100.385025
6818453577,Calle Suprema Junta Nacional Americana,19.4256783,-100.3839313
9968255178,Calle Suprema Junta Nacional Americana,19.426032,-100.3823629
9968301811,Calle Suprema Junta Nacional Americana,19.4263329,-100.3809702
1935414765,Calle Suprema Junta Nacional Americana,19.4265656,-100.3800173
9968006230,Calle Suprema Junta Nacional Americana,19.4278188,-100.3783571
9967915930,Calle Suprema Junta Nacional Americana,19.4284359,-100.3772236
1935414723,Calle Suprema Junta Nacional Americana,19.4293886,-100.375235
8238402347,Calle Suprema Junta Nacional Americana,19.4299754,-100.3739749
4694481490,Calle Suprema Junta Nacional Americana,19.4301498,-100.3728936
8238402348,Calle Suprema Junta Nacional Americana,19.4297675,-100.3744277
3262292438,Calle Suprema Junta Nacional Americana,19.4288214,-100.376425
1935414503,Calle Suprema Junta Nacional Americana,19.4281411,-100.3778127
1935414841,Calle Suprema Junta Nacional Americana,19.4266502,-100.3798889
6818453574,Calle Suprema Junta Nacional Americana,19.4257664,-100.3835215
6818453584,Calle Suprema Junta Nacional Americana,19.4254842,-100.3847691
1935414989,Calle Suprema Junta Nacional Americana,19.4252607,-100.3857521
6606246259,Carretera Zitácuaro-Ciudad Altamirano,19.4209184,-100.3895132
1935414809,Carretera Zitácuaro-Ciudad Altamirano,19.4201751,-100.390116
9968406726,Carretera Zitácuaro-Ciudad Altamirano,19.419234,-100.390225
6606259908,Carretera Zitácuaro-Ciudad Altamirano,19.4154084,-100.3905978
6606255950,Carretera Zitácuaro-Ciudad Altamirano,19.413353,-100.3908251
1935414385,Carretera Zitácuaro-Ciudad Altamirano,19.4122953,-100.3909609
6865158773,Carretera Zitácuaro-Ciudad Altamirano,19.4111574,-100.3915069
1935415415,Carretera Zitácuaro-Ciudad Altamirano,19.4103096,-100.3919992
1935414633,Carretera Zitácuaro-Ciudad Altamirano y Calle Morelos Oriente,19.4094189,-100.3921387
6903413718,Carretera Zitácuaro-Ciudad Altamirano,19.4075449,-100.3909369
6865159999,Carretera Zitácuaro-Ciudad Altamirano,19.405643,-100.3896066
1935414973,Carretera Zitácuaro-Ciudad Altamirano,19.4025101,-100.3874029
6606259940,Innominada,19.4007976,-100.3829545
6606259948,Innominada,19.399864,-100.3823242
6606259951,Innominada,19.3992492,-100.381498
6865145834,Innominada,19.3984979,-100.3803957
6606259955,Innominada,19.3977932,-100.379772
10989609640,Innominada,19.397974,-100.3789607
3930757844,Calle Vicente Guerrero,19.2147659,-100.4088698
3930757892,Calle Vicente Guerrero,19.2153491,-100.4077342
3930757922,Calle Vicente Guerrero,19.2156767,-100.4065371
3930757907,Calle Vicente Guerrero,19.2155364,-100.405349
3930757901,Innominada,19.215457,-100.4041728
3930757952,Innominada,19.216087,-100.4035136
8107803922,Innominada,19.2163707,-100.4021631
3930757980,Innominada,19.2164999,-100.400645
3930757938,Innominada,19.2158499,-100.3991285
3930757909,Innominada,19.2155349,-100.3979708
3930757897,Innominada,19.2154526,-100.3965707
3930757866,Innominada,19.21492,-100.395258
3930757838,Innominada,19.2146953,-100.3943244
3930757800,Innominada,19.214029,-100.3935645
3930757767,Innominada,19.213325,-100.3929095
3930757780,Innominada,19.2134998,-100.3916971
3930757808,Innominada,19.2141665,-100.3908903
6659126554,Innominada,19.2143331,-100.3899643
3930757807,Innominada,19.2141257,-100.388721
3930757778,Innominada,19.2135433,-100.3877874
3930757821,Innominada,19.214357,-100.3860171
3930757912,Innominada,19.2155459,-100.3851709
3930757990,Innominada,19.2166131,-100.3848063
3930757992,Innominada,19.2174487,-100.3837403
3930757995,Innominada,19.2184213,-100.3830231
3930757998,Innominada,19.2190435,-100.3822636
3930758000,Innominada,19.2201306,-100.3797135
3930758003,Innominada,19.2216105,-100.3786883
3930758006,Innominada,19.2228967,-100.3768854
3930758008,Innominada,19.223266,-100.3758719
3930758009,Innominada,19.2239329,-100.3742862
3930758013,Innominada,19.2246454,-100.3734607
3930758015,Innominada,19.2254912,-100.3730068
3930758018,Innominada,19.226093,-100.3719989
3930758019,Innominada,19.2265054,-100.3710057
3930758029,Innominada,19.2271348,-100.3697269
3930758040,Innominada,19.2274752,-100.3687338
3930758039,Innominada,19.2274752,-100.3675707
3930758048,Innominada,19.2277589,-100.3665622
8107792416,Innominada,19.2282552,-100.3655764
6620677372,Calle Moctezuma Oriente,19.4403063,-100.3531267
4775032823,Calle Moctezuma Oriente,19.4397314,-100.3518896
1286493183,Calle Moctezuma Oriente,19.4392811,-100.3509135
1286494276,Calle Moctezuma Oriente y Calle Mora del Cañonazo Norte,19.4383845,-100.3489958
3221800124,Calle Moctezuma Oriente,19.4377582,-100.3473923
4773818484,Calle Moctezuma Oriente,19.4373566,-100.3462286
8412013659,Periférico Francisco J. Múgica,19.433151,-100.3422762
8407827106,Periférico Francisco J. Múgica,19.432267,-100.3418144
4694462104,Periférico Francisco J. Múgica,19.4310714,-100.3416286
3254610078,Periférico Francisco J. Múgica y Calle Miguel Hidalgo Oriente,19.4299966,-100.3409093
775026335,Periférico Francisco J. Múgica y Calle Presa de Valsequillo,19.4289241,-100.3391275
4694462162,Periférico Francisco J. Múgica y Avenida Revolución Sur,19.4284783,-100.3379545
1210571253,Periférico Francisco J. Múgica,19.4276352,-100.3345849
8238099466,Periférico Francisco J. Múgica,19.4275808,-100.3333242
1210571351,Periférico Francisco J. Múgica,19.4278691,-100.3322017
1210571346,Periférico Francisco J. Múgica,19.4278843,-100.3312542
8506543493,Periférico Francisco J. Múgica,19.4286214,-100.3294036
5826020365,Periférico Francisco J. Múgica,19.4292629,-100.3282257
4773790758,Periférico Francisco J. Múgica,19.4298358,-100.3272758
8506894263,Periférico Francisco J. Múgica,19.4303271,-100.3264236
3260962963,Periférico Francisco J. Múgica y Carretera Morelia-Toluca y Ex-hacienda Manzanillos,19.4324903,-100.3245916
6794140637,Carretera Morelia-Toluca,19.4353121,-100.3226023
5381562056,Carretera Morelia-Toluca,19.4383832,-100.3204732
6803592169,Carretera Morelia-Toluca,19.4406916,-100.3188789
1210571206,Carretera Morelia-Toluca,19.4455062,-100.3154967
1210571033,Carretera Morelia-Toluca,19.446395,-100.3147438
6794140543,Carretera Morelia-Toluca y Morelia - Toluca,19.4481612,-100.3120887
3261033270,Innominada,19.4496604,-100.3127673
3261033269,Innominada,19.4513381,-100.313604
6794140638,Innominada,19.4509478,-100.317699
8238004983,Innominada,19.4497869,-100.3203115
8238004985,Innominada,19.4493292,-100.3218564
3261033257,Innominada,19.4490276,-100.3240633
4694454173,2a Cerrada de Manuel Doblado y Calle Enseñanza Norte,19.4464041,-100.3624382
1286493725,2a Cerrada de Manuel Doblado y Calle Manuel Doblado Norte,19.4458111,-100.3612146
1286493785,Calle Moctezuma Poniente,19.4436136,-100.3605967
1286493186,Calle Moctezuma Poniente,19.4430789,-100.3593681
1286494280,Calle Moctezuma Poniente y Calle Benedicto López Norte,19.4423564,-100.3576759
4773860273,Calle Benedicto López Norte y Calle González Ortega Poniente,19.4444166,-100.3566393
1215077567,Calle González Ortega Poniente y Calle José María Morelos Norte,19.4438825,-100.355478
6620667759,Calle José María Morelos Norte,19.4416477,-100.356645
6747218338,Calle José María Morelos Norte,19.4407967,-100.3571099
1215077689,Calle Santos Degollado Poniente y Calle José María Morelos Norte,19.4394637,-100.3578336
1286493959,Avenida Morelia,19.4259113,-100.3603689
6852695283,Avenida Morelia,19.4258923,-100.3593403
4773818633,Avenida Morelia,19.425995,-100.3580786
3211897160,Avenida Morelia,19.4261438,-100.3567962
6760370027,Avenida Morelia,19.4264259,-100.3558655
1286494008,Avenida Morelia y Calle Artillería Oriente,19.4267056,-100.3554025
3211897150,Calle Artillería Oriente,19.425853,-100.3548443
3123987358,Calle Artillería Oriente y Calle Plan de Ayala,19.4249401,-100.3546839
3123987351,Calle Plan de Ayala,19.4247654,-100.3557475
3123987347,Calle Plan de Ayala y Avenida Ciudad de la Independencia,19.4250687,-100.3566548
4773818579,Calle Plan de Ayala,19.4255071,-100.3576294
3123987348,Avenida Morelia y Calle Plan de Ayala,19.4259353,-100.3586736
6760370019,Avenida Morelia,19.4258559,-100.3600962
8449194178,Avenida Morelia,19.4271532,-100.3619472
4773860185,Avenida Morelia,19.4279753,-100.3622921
6620746425,Calle Cuauhtémoc Poniente,19.4405497,-100.3580985
9891803848,Calle Benedicto López Norte,19.4421107,-100.3577975
1286494055,Calle Moctezuma Poniente,19.44279,-100.3586888
1286494242,Calle Moctezuma Poniente y Calle Benito Juárez Norte,19.4433325,-100.3599514
1286494075,Calle Moctezuma Poniente y Calle Pípila Norte,19.4438931,-100.3612628
1286493251,Calle Pípila Norte,19.4461367,-100.3603449
3221800111,Calle Santos Degollado Oriente y Primera de Santos Degollado,19.4354166,-100.3490309
3221800107,Calle Miguel Hidalgo Oriente y Primera de Hidalgo Oriente,19.4343581,-100.3487735
1286494792,Calle Juan de Dios Peza Sur,19.4334221,-100.3487472
1286494440,Calle Juan de Dios Peza Sur,19.4325718,-100.3491314
1286494839,Calle Juan de Dios Peza Sur,19.4317156,-100.3495252
4694471185,Calle Juan de Dios Peza Sur,19.4308773,-100.3499166
4694471176,Calle Juan de Dios Peza Sur,19.4297529,-100.3504537
1286494597,Avenida Revolución Sur y Calle Juan de la Barrera Sur,19.4289671,-100.350484
6769595118,Avenida Revolución Sur,19.4290107,-100.3493303
1286493114,Calle General Pueblita Sur,19.4283382,-100.3489329
1286494278,Avenida Morelia y Pablo González,19.4278689,-100.3534066
1286493798,Avenida Morelia,19.4271682,-100.3546311
1286494943,Avenida Morelia,19.426606,-100.3555463
4773818651,Belisario Domínguez,19.4267783,-100.3563
3268356046,Belisario Domínguez,19.4270066,-100.3572703
6852695284,Avenida Independencia,19.4274932,-100.3580762
3211894999,Avenida Independencia,19.4286281,-100.3582417
3211894654,Avenida Independencia,19.429191,-100.358948
3211894651,Avenida Independencia,19.4282367,-100.3593408
3211894649,Avenida Independencia,19.4271784,-100.3596016
6760236511,Avenida Independencia,19.4264567,-100.3601176
1286494567,Avenida Morelia y Avenida Independencia,19.4261166,-100.3608414
1210626690,Línea O,19.4824866,-100.3973786
1210626632,Línea O,19.4831921,-100.3981357
6603756154,Línea O y Toluca - Morelia,19.4852538,-100.398467
1210626710,Toluca - Morelia,19.4847445,-100.3936366
6860806914,Toluca - Morelia,19.4845899,-100.3922731
6933102355,Toluca - Morelia,19.4845754,-100.3911781
5247519695,Toluca - Morelia,19.4847751,-100.3900918
8451882804,Toluca - Morelia,19.4852286,-100.3887871
6032171872,Toluca - Morelia,19.4858738,-100.3869818
6032171898,Toluca - Morelia,19.4876492,-100.3819523
6913104023,Toluca - Morelia,19.4887652,-100.3787769
1210626723,Toluca - Morelia,19.4896904,-100.3760863
1210626664,Toluca - Morelia,19.4901699,-100.3747451
6859156727,Toluca - Morelia,19.4901519,-100.3736659
1210571188,Periférico Francisco J. Múgica,19.4416245,-100.344906
1210571192,Periférico Francisco J. Múgica,19.4411155,-100.3440611
8238664293,Periférico Francisco J. Múgica,19.4404377,-100.3433798
1210570960,Periférico Francisco J. Múgica,19.4396182,-100.342893
10691736945,Periférico Francisco J. Múgica,19.4382286,-100.3434088
6906776122,Periférico Francisco J. Múgica,19.4368786,-100.3440085
6754384764,Periférico Francisco J. Múgica,19.437451,-100.3437029
8238664263,Periférico Francisco J. Múgica,19.4389074,-100.3428451
3256824928,Periférico Francisco J. Múgica,19.4401015,-100.3430431
8238664269,Periférico Francisco J. Múgica,19.4409186,-100.3436772
1210570985,Periférico Francisco J. Múgica,19.4415504,-100.3445064
1983883587,Avenida Revolución,19.4418741,-100.3454232
775026461,Avenida Revolución,19.4416169,-100.3456849
1286493909,Calle Pablo González Oriente y Pablo González y Calle General Pueblita Sur,19.4272058,-100.3491774
1286493862,Calle Pablo González Oriente,19.4270393,-100.3481634
1286493147,Calle Pablo González Oriente,19.4268555,-100.3469053
1286494801,Calle Pablo González Oriente y Calle Vicente Suárez Sur,19.4266843,-100.3457074
1286493980,Calle Vicente Suárez Sur,19.4278175,-100.3451317
4694471124,Avenida Revolución Sur y Carretera a Aputzio de Juárez,19.4283826,-100.34443
6736906425,Avenida Revolución Norte,19.4369761,-100.3561266
1210602298,Avenida Revolución y Salazar Norte,19.4434254,-100.3510863
4694454230,Calle Salazar Norte y Salazar Norte,19.4433822,-100.3508578
6754292838,Calle Salazar Norte,19.4423264,-100.3513684
1950211851,Calle Miguel Carrillo Oriente y Calle Leandro Valle Norte,19.4420563,-100.3525695
8238587338,Calle Leandro Valle Norte,19.44288,-100.3521788
6754082811,Avenida Revolución,19.4427104,-100.3529074
1215077912,Calle Miguel Hidalgo Oriente y Avenida Miguel Hidalgo Poniente y Avenida Revolución y Avenida Revolución Norte,19.4375828,-100.3558867
1950211821,Avenida Revolución Norte y Avenida Revolución y Calle Melchor Ocampo Poniente,19.4365961,-100.3564137
4773818517,Avenida Revolución y Calle José María Coss Poniente y Calle José María Coss Oriente,19.4351495,-100.357185
1215077632,Calle Mariano Matamoros Poniente y Avenida Revolución,19.4335528,-100.3580019
1286494952,Pablo González,19.4275805,-100.3514558
1286493300,Pablo González y Calle Francisco Márquez,19.4277678,-100.3526051
8240827636,Innominada,19.4261253,-100.4533774
8240827629,Innominada,19.4261057,-100.4543598
8240827625,Innominada,19.4267149,-100.4552721
8240827622,Innominada,19.4271901,-100.456087
8240812815,Innominada,19.4268623,-100.4569196
6878793278,Innominada,19.4269857,-100.4578726
7883058513,Innominada,19.4262526,-100.4586432
8241084746,Innominada,19.4257822,-100.4600107
7883058521,Innominada,19.4249702,-100.4611581
7883058524,Innominada,19.4249804,-100.4622366
2998915777,Innominada,19.4256016,-100.463106
2998915772,Innominada,19.4264103,-100.4629876
2998915767,Innominada,19.4273079,-100.4633601
4119775089,Innominada,19.4290516,-100.4636381
7883058540,Innominada,19.4300483,-100.4636621
7883058546,Innominada,19.4309589,-100.4636487
7883058551,Innominada,19.4315111,-100.4645474
2998915745,Innominada,19.4324894,-100.4649949
7883058558,Innominada,19.4335376,-100.4653157
2998915739,Innominada,19.434809,-100.4658372
7883058564,Innominada,19.4358065,-100.46606
7883058566,Innominada,19.4366348,-100.4664812
7883058570,Innominada,19.4374518,-100.4660574
7883058576,Innominada,19.4381702,-100.4653157
7883058579,Innominada,19.438547,-100.4643716
2998915522,Innominada,19.4393197,-100.4637359
7883061988,Innominada,19.439837,-100.4628763
7883036213,Innominada,19.4405534,-100.4628729
7883036209,Innominada,19.4413539,-100.4629641
7883036204,Innominada,19.442162,-100.4625008
7883036198,Innominada,19.4430175,-100.4626637
7883036193,Innominada,19.4438629,-100.4624337
1820713072,Innominada,19.4443713,-100.4614386
7883013281,Innominada,19.4453274,-100.4611335
7883013278,Innominada,19.446604,-100.4605629
7883013276,Innominada,19.4476511,-100.4602692
7883013272,Innominada,19.4485552,-100.4606849
7883062003,Innominada,19.4494259,-100.4617115
7883061998,Innominada,19.4501224,-100.4624723
1820712811,Innominada,19.4513803,-100.4628901
1820712877,Innominada,19.4520961,-100.4622939
7883061991,Innominada,19.4526461,-100.4615445
7883013255,Innominada,19.4534987,-100.4614131
1820712830,Innominada,19.4531198,-100.460423
7883013262,Innominada,19.4529079,-100.4594457
1820712938,Innominada,19.4534921,-100.4587354
1820713079,Innominada,19.4541964,-100.4581962
1820712958,Innominada,19.4545556,-100.4571259
1820713091,Innominada,19.4552568,-100.4565948
1820712772,Innominada,19.4553676,-100.4558806
1820712872,Innominada,19.4562257,-100.4550683
6932235497,Innominada,19.4572793,-100.4549061
7883036239,Innominada,19.4574177,-100.4541985
3256297687,Innominada,19.4579305,-100.4509746
7883036247,Innominada,19.4592071,-100.4497536
7883036249,Innominada,19.4598665,-100.4490843
1820713114,Innominada,19.461589,-100.4487121
1820713066,Innominada,19.4627748,-100.4480597
1820713000,Innominada,19.463354,-100.4472913
7824859866,Innominada,19.4640785,-100.4464491
1820713008,Innominada,19.4648397,-100.4457048
7824859863,Innominada,19.4669817,-100.4448317
3256297714,Innominada,19.468064,-100.4443838
1820712884,Innominada,19.4700416,-100.4435697
7824859861,Innominada,19.4711745,-100.4433726
7824859859,Innominada,19.4720533,-100.4430199
7824859856,Innominada,19.4729813,-100.4427369
1820713103,Innominada,19.4738531,-100.442464
6878735321,Innominada,19.4751409,-100.441609
8008546772,Innominada,19.4762498,-100.4412282
6861310021,Innominada,19.4772537,-100.4415447
2998673599,Innominada,19.477949,-100.4410122
1820712913,Innominada,19.4785117,-100.4390556
1820713076,Innominada,19.4800352,-100.4369048
1820713023,Toluca - Morelia,19.479356,-100.4317791
1210626670,Toluca - Morelia,19.479283,-100.4308246
8240682227,Toluca - Morelia,19.4793929,-100.429692
6861389458,Toluca - Morelia,19.4796787,-100.4287277
6861389464,Toluca - Morelia,19.4801288,-100.4277997
6861389308,Toluca - Morelia,19.4808172,-100.4264063
8240682221,Toluca - Morelia,19.4814203,-100.4251775
6603928808,Toluca - Morelia,19.4822453,-100.4234974
6604002232,Toluca - Morelia,19.482807,-100.4223505
6861422932,Toluca - Morelia,19.4833204,-100.4213153
6861459704,Toluca - Morelia,19.4840743,-100.4197638
6861452863,Toluca - Morelia,19.4853958,-100.4170912
8240642415,Toluca - Morelia,19.4858757,-100.4161682
1210626675,Toluca - Morelia,19.4866859,-100.4144513
6603860463,Toluca - Morelia,19.486787,-100.4132157
8459941762,Toluca - Morelia,19.4866604,-100.4120037
6932983404,Toluca - Morelia,19.4865181,-100.4106411
6603891350,Toluca - Morelia,19.4863275,-100.4088794
8459941764,Toluca - Morelia,19.4862316,-100.4078518
8459941765,Toluca - Morelia,19.4859004,-100.4046783
3256940274,Toluca - Morelia,19.4856127,-100.4019302
6864245401,Toluca - Morelia,19.485315,-100.3988875
1950211848,Calle Moctezuma Poniente y Calle 5 de Mayo Norte,19.4412118,-100.3550804
10676460710,Calle 5 de Mayo Norte,19.4400836,-100.3556705
6736906416,Calle Cuauhtémoc Oriente y Calle Leandro Valle Norte,19.4388045,-100.3542596
1215077618,Calle José María Morelos Norte y Calle Cuauhtémoc Poniente,19.4402852,-100.3573823
3211894975,Avenida Independencia,19.4271246,-100.3596136
3123974031,Avenida Independencia,19.4291148,-100.3590783
9932037010,Innominada,19.4623075,-100.3667397
3261049157,Innominada,19.4642087,-100.3641981
3261049964,Innominada,19.465478,-100.363809
3261049976,Innominada,19.466307,-100.3632716
3261049967,Innominada,19.4669229,-100.3625364
3261049969,Innominada,19.4677363,-100.3620082
3261049121,Innominada,19.4683839,-100.3614928
3261049127,Innominada,19.4684838,-100.3607689
8238746083,Innominada,19.4687072,-100.3597939
8238746082,Innominada,19.4698924,-100.3591029
3261049136,Calle Los Pinos,19.4698425,-100.3583835
8238746078,Calle Los Pinos,19.4705404,-100.3575962
3261047510,Calle Los Pinos,19.4716259,-100.3569089
3211898667,Calle Los Pinos,19.4731596,-100.356575
6860723690,Calle Los Pinos,19.4743831,-100.3563124
3211898687,Calle Los Pinos,19.4757418,-100.3560393
3099910983,Toluca - Morelia,19.4902127,-100.3742701
1210626634,Toluca - Morelia,19.4900024,-100.3753556
6603899384,Toluca - Morelia,19.4888653,-100.3785395
6603899337,Toluca - Morelia,19.4877781,-100.3816106
8454066013,Toluca - Morelia,19.4862214,-100.4077435
6603860476,Toluca - Morelia,19.4863172,-100.4087638
6932983405,Toluca - Morelia,19.4864568,-100.410002
8459941763,Toluca - Morelia,19.4865929,-100.4113573
2013533948,Toluca - Morelia,19.486771,-100.4142409
6861457354,Toluca - Morelia,19.4860581,-100.4158173
6603928945,Toluca - Morelia,19.4855175,-100.4168572
3256931193,Toluca - Morelia,19.4843076,-100.4192944
8240682220,Toluca - Morelia,19.4817438,-100.4245322
6604004919,Toluca - Morelia,19.4810908,-100.4258331
6861389477,Toluca - Morelia,19.4804373,-100.4271747
6603928845,Toluca - Morelia,19.4801907,-100.4365531
1820712895,Innominada,19.4787974,-100.4384896
1820712781,Innominada,19.4780641,-100.4406957
1820712779,Innominada,19.4775495,-100.4414669
1820713073,Innominada,19.4765052,-100.4412496
8008546771,Innominada,19.4742432,-100.4420838
3256297715,Innominada,19.4682613,-100.444302
7824859864,Innominada,19.4652924,-100.4455009
2997149009,Innominada,19.4638711,-100.4456042
2997149007,Innominada,19.4626775,-100.444542
7883012209,Innominada,19.4618075,-100.4436623
2997149002,Innominada,19.4608994,-100.4433346
2997149000,Innominada,19.4595439,-100.4433218
7883012198,Innominada,19.4586324,-100.4432686
2997148990,Innominada,19.458401,-100.4435724
7882787933,Innominada,19.4589681,-100.4443395
7882787936,Innominada,19.4594568,-100.4450999
2997148983,Innominada,19.4599769,-100.4473248
2997148982,Innominada,19.4605657,-100.4488279
6878735334,Innominada,19.4594625,-100.4495202
1820712785,Innominada,19.4582771,-100.4503695
1820712966,Innominada,19.4570538,-100.4533876
1820713101,Innominada,19.4576068,-100.4543683
7883036230,Innominada,19.4570514,-100.4549738
1820712934,Innominada,19.455485,-100.4554711
1820712947,Innominada,19.4555932,-100.4562784
1820713093,Innominada,19.4547743,-100.4567505
1820712813,Innominada,19.4543616,-100.4578964
7883013268,Innominada,19.4536438,-100.4584942
1820712923,Innominada,19.4530136,-100.4592079
7883013260,Innominada,19.4529717,-100.4601283
1820712834,Innominada,19.4535401,-100.4609833
1820713034,Innominada,19.4529142,-100.4614953
2997148900,Innominada,19.4521386,-100.4620681
7883061995,Innominada,19.4516155,-100.4628669
7883061997,Innominada,19.4506279,-100.4627656
7883062000,Innominada,19.4498761,-100.462138
7883062005,Innominada,19.4490427,-100.4614466
7883013273,Innominada,19.44843,-100.4605662
1820713110,Innominada,19.4474057,-100.4603858
1820713033,Innominada,19.4461715,-100.4608472
7883013282,Innominada,19.445132,-100.4611724
6847763066,Innominada,19.4442215,-100.4616049
7883036190,Innominada,19.4437599,-100.4625718
6847763065,Innominada,19.4429031,-100.4625685
7883036205,Innominada,19.4420811,-100.4626107
7883036208,Innominada,19.441285,-100.4630144
7883036216,Innominada,19.4403985,-100.4626758
7883061986,Innominada,19.439732,-100.4633001
2998915523,Innominada,19.4389542,-100.4639317
2998915526,Innominada,19.4385078,-100.4647766
7883058574,Innominada,19.4379577,-100.4654807
2998915733,Innominada,19.4372693,-100.466214
2998915735,Innominada,19.4363465,-100.4664396
7883058563,Innominada,19.4355675,-100.4659595
7883058561,Innominada,19.4340169,-100.4654861
2998915743,Innominada,19.4331481,-100.4652487
7883058555,Innominada,19.4322463,-100.4648414
7883058549,Innominada,19.4313187,-100.4641785
7883058542,Innominada,19.4306965,-100.4633973
7883058539,Innominada,19.4296594,-100.4636662
2998915764,Innominada,19.4279071,-100.4636844
7883058534,Innominada,19.4271919,-100.4629775
7883058529,Innominada,19.4261636,-100.46318
2998915779,Innominada,19.4251401,-100.4624365
2998915782,Innominada,19.4247269,-100.4615545
6879220518,Innominada,19.4254978,-100.4606897
7883058516,Innominada,19.4260022,-100.4589941
7883058512,Innominada,19.4267283,-100.4582562
8240812812,Innominada,19.426778,-100.4573773
8240827618,Innominada,19.4271766,-100.4564331
8240827624,Innominada,19.4268878,-100.4554874
8240827628,Innominada,19.426208,-100.4548351
8240827632,Innominada,19.4260004,-100.4539117
6852747892,Calle Artillería Oriente,19.4264396,-100.3552538
8238349557,Calle Artillería Oriente,19.4255658,-100.3547056
3211897278,Calle Plan de Ayala,19.4248148,-100.3553505
3211897264,Calle Plan de Ayala,19.4250047,-100.3565082
4773818592,Avenida Ciudad de la Independencia,19.4242418,-100.3570465
3222551972,Avenida Ciudad de la Independencia,19.4236847,-100.3580784
3123987338,Avenida Ciudad de la Independencia y 5 de Diciembre de 1810,19.4233249,-100.359083
3123987335,Avenida Ciudad de la Independencia,19.4239631,-100.3597605
3123987331,Avenida Ciudad de la Independencia,19.4249169,-100.3596437
3123986328,Avenida Ciudad de la Independencia,19.4254439,-100.3608776
6903832276,Innominada,19.4257392,-100.3612528
6860532645,Innominada,19.4634301,-100.3396836
9949938497,Innominada,19.4633539,-100.3407361
8248757937,Innominada,19.4632273,-100.3417755
3261034385,Innominada,19.4635194,-100.3423263
8248881526,Innominada,19.4639309,-100.3428672
6927458934,Carretera Toluca-Morelia,19.4647082,-100.3433275
4694454037,Carretera Toluca-Morelia y Calle José María Morelos,19.4656184,-100.3432402
3261035188,Calle José María Morelos y Línea O,19.4655276,-100.3442234
3261035164,Línea O,19.4643715,-100.3439507
9949956176,Línea O,19.4630805,-100.3446321
3261035210,Línea O,19.4621501,-100.3454151
9949956248,Línea O,19.4613596,-100.3459087
9949956244,Línea O,19.4604748,-100.3457623
3099914333,Carretera Zitácuaro-Loma Larga-Curungueo,19.4598737,-100.345155
8238693566,Carretera Toluca-Morelia,19.4591241,-100.3449618
4694454045,Periférico Francisco J. Múgica,19.4582452,-100.3452225
1286494560,Calle Juan de la Barrera Sur y Pablo González,19.4274124,-100.3504417
3930758043,Innominada,19.2275362,-100.3671013
3930758041,Innominada,19.2274825,-100.3684348
8107803917,Innominada,19.225591,-100.3729177
3930758005,Innominada,19.222101,-100.3783621
3930758002,Innominada,19.2204538,-100.3793958
3930757993,Innominada,19.2176092,-100.3835567
3930757991,Innominada,19.2170582,-100.3843643
3930757988,Innominada,19.2161798,-100.3850007
3930757851,Innominada,19.2149126,-100.3854173
3930757788,Innominada,19.2137251,-100.3869344
3930757784,Innominada,19.213615,-100.3879568
3930757812,Innominada,19.2142771,-100.3891116
3930757819,Innominada,19.2143278,-100.390592
8107803918,Innominada,19.2132668,-100.3927325
3930757891,Innominada,19.215393,-100.3961617
3930757905,Innominada,19.2154792,-100.3973499
3930757924,Innominada,19.2156851,-100.3986686
3930757973,Innominada,19.216396,-100.4002158
3930757970,Innominada,19.2163656,-100.4020572
3930757986,Innominada,19.2165606,-100.4030744
3930757928,Innominada,19.2157654,-100.4037885
3930757916,Calle Vicente Guerrero,19.2156314,-100.404623
3930757930,Calle Vicente Guerrero,19.2157618,-100.4059511
3930757900,Calle Vicente Guerrero,19.2154953,-100.4072763
3930757868,Calle Vicente Guerrero,19.2149754,-100.4085223
3261056033,Calle Tapachula,19.4239155,-100.3359796
3261056031,Calle Tapachula,19.4241123,-100.337069
3261056029,Calle Tapachula,19.4246952,-100.3385929
3261056054,Avenida Juchitán,19.4255595,-100.3388821
8248757820,Avenida Juchitán,19.4262617,-100.3383614
6841590986,Avenida Juchitán,19.4265981,-100.3373726
3261056367,Avenida Nicolás Romero,19.4273735,-100.3373054
3261056363,Avenida Nicolás Romero,19.4276227,-100.3384727
6775596770,Avenida Revolución Sur,19.4279891,-100.3392581
4694454114,Periférico Francisco J. Múgica y Calle La Palma,19.4443732,-100.3473723
6871204230,Innominada,19.3597447,-100.3765836
6871165226,Innominada,19.3603267,-100.3771968
6391603463,Innominada,19.3609637,-100.3778174
6391603457,Innominada,19.3617503,-100.3783134
6391603452,Innominada,19.3618793,-100.3794061
6896209027,Innominada,19.3620351,-100.3802545
6871165247,Innominada,19.362532,-100.3807966
6391603440,Innominada,19.3622705,-100.3818707
6871165256,Innominada,19.3616235,-100.3826232
6391603433,Innominada,19.360675,-100.3828458
6391603429,Innominada,19.3613607,-100.383086
6391603426,Innominada,19.3620417,-100.3838199
6871172697,Innominada,19.3611922,-100.3857333
6871172700,Innominada,19.3609745,-100.3867002
6871172701,Innominada,19.3604595,-100.3875572
6871172713,Innominada,19.3608277,-100.3876443
6871172716,Innominada,19.3615046,-100.3872903
6871172718,Innominada,19.3611858,-100.388457
5384984244,Innominada,19.3610737,-100.389507
6871030204,Innominada,19.3603419,-100.3901106
5384984237,Innominada,19.3599104,-100.3911621
3254310106,Innominada,19.3605054,-100.3918295
6871030208,Innominada,19.3615937,-100.3918907
6870999249,Innominada,19.3623941,-100.3923744
6870999253,Innominada,19.363023,-100.3926017
6870999256,Innominada,19.3639048,-100.3925233
3254310080,Innominada,19.3647863,-100.3918203
6870999259,Innominada,19.3655547,-100.3914946
3254310074,Innominada,19.3661161,-100.392633
3254310069,Innominada,19.3668187,-100.3919202
3254310066,Innominada,19.3677048,-100.39156
8488879263,Innominada,19.3684222,-100.392929
3254310063,Innominada,19.3688958,-100.3942483
1935415404,Carretera Zitácuaro-Ciudad Altamirano,19.3694369,-100.3951383
8241213668,Carretera Zitácuaro-Ciudad Altamirano,19.3703624,-100.3950639
1935415452,Carretera Zitácuaro-Ciudad Altamirano,19.3711899,-100.3951882
6871230807,Carretera Zitácuaro-Ciudad Altamirano,19.3717961,-100.3959484
8241213662,Carretera Zitácuaro-Ciudad Altamirano,19.3726664,-100.3956266
6871868490,Carretera Zitácuaro-Ciudad Altamirano,19.3731813,-100.394779
1935415061,Carretera Zitácuaro-Ciudad Altamirano,19.3739821,-100.3941111
1935414699,Carretera Zitácuaro-Ciudad Altamirano,19.3779952,-100.3941259
6638370891,Carretera Zitácuaro-Ciudad Altamirano,19.3789605,-100.3943472
6638362847,Carretera Zitácuaro-Ciudad Altamirano,19.3797385,-100.3948849
6638362838,Carretera Zitácuaro-Ciudad Altamirano,19.3810536,-100.3959983
6638351347,Carretera Zitácuaro-Ciudad Altamirano,19.3817441,-100.3966377
8241213643,Carretera Zitácuaro-Ciudad Altamirano,19.3826146,-100.3972243
8241213640,Carretera Zitácuaro-Ciudad Altamirano,19.3834535,-100.397597
8241213639,Carretera Zitácuaro-Ciudad Altamirano,19.3844741,-100.3976745
6896518634,Carretera Zitácuaro-Ciudad Altamirano,19.3863033,-100.3982182
6871875203,Carretera Zitácuaro-Ciudad Altamirano,19.3871927,-100.3985923
1935414362,Carretera Zitácuaro-Ciudad Altamirano,19.3879505,-100.3991927
8241213631,Carretera Zitácuaro-Ciudad Altamirano,19.3886343,-100.3986628
1935414554,Carretera Zitácuaro-Ciudad Altamirano,19.3891435,-100.3978712
8241213624,Carretera Zitácuaro-Ciudad Altamirano,19.3900661,-100.3977518
8241213619,Carretera Zitácuaro-Ciudad Altamirano,19.3906983,-100.3969962
8241188716,Carretera Zitácuaro-Ciudad Altamirano,19.3911405,-100.3959936
8241188714,Carretera Zitácuaro-Ciudad Altamirano,19.3917158,-100.3951621
8241188711,Carretera Zitácuaro-Ciudad Altamirano,19.3926416,-100.3949058
1935414732,Carretera Zitácuaro-Ciudad Altamirano,19.393559,-100.3956252
8241188705,Carretera Zitácuaro-Ciudad Altamirano,19.3944082,-100.3957017
1935414668,Carretera Zitácuaro-Ciudad Altamirano,19.3953,-100.3954951
6871875326,Carretera Zitácuaro-Ciudad Altamirano,19.39614,-100.3950995
8241188695,Carretera Zitácuaro-Ciudad Altamirano,19.3966649,-100.3943767
8241188692,Carretera Zitácuaro-Ciudad Altamirano,19.3964885,-100.3930404
1935414509,Carretera Zitácuaro-Ciudad Altamirano,19.3963013,-100.3917638
9970440519,Carretera Zitácuaro-Ciudad Altamirano,19.3969214,-100.3894759
8241188687,Carretera Zitácuaro-Ciudad Altamirano,19.3974629,-100.3885723
6606262386,Carretera Zitácuaro-Ciudad Altamirano,19.3984677,-100.3882171
9970440541,Carretera Zitácuaro-Ciudad Altamirano,19.4001558,-100.3876807
1935414873,Carretera Zitácuaro-Ciudad Altamirano,19.4015613,-100.3872315
6794140636,Carretera Toluca-Morelia,19.4353553,-100.3226848
8506619527,Carretera Toluca-Morelia,19.4331576,-100.3242285
4694454005,Periférico Francisco J. Múgica,19.4322689,-100.3248515
4773790798,Periférico Francisco J. Múgica,19.4314845,-100.3253997
1210571117,Periférico Francisco J. Múgica,19.4306933,-100.32603
6859105189,Periférico Francisco J. Múgica,19.4301607,-100.326872
8506619534,Periférico Francisco J. Múgica,19.4291625,-100.328637
1210571064,Periférico Francisco J. Múgica,19.4282347,-100.3302692
1210571175,Periférico Francisco J. Múgica,19.4279501,-100.3312375
4694454022,Periférico Francisco J. Múgica,19.4278654,-100.3325035
1210571078,Periférico Francisco J. Múgica,19.4276567,-100.3334362
6841596629,Periférico Francisco J. Múgica,19.427682,-100.334412
1210571049,Periférico Francisco J. Múgica,19.4283697,-100.3371476
4694462118,Periférico Francisco J. Múgica y Calle Presa de Valsequillo,19.4290078,-100.3390962
1210571005,Periférico Francisco J. Múgica,19.4294865,-100.340216
1210571097,Periférico Francisco J. Múgica,19.4307739,-100.3414148
1210570931,Periférico Francisco J. Múgica,19.4318135,-100.3416898
1210571318,Periférico Francisco J. Múgica,19.4327448,-100.3418496
8407860036,Periférico Francisco J. Múgica,19.4336915,-100.3426304
1210570939,Periférico Francisco J. Múgica,19.4345244,-100.3432871
6754387415,Periférico Francisco J. Múgica,19.4354992,-100.3437316
775026345,Calle Moctezuma Oriente y Periférico Francisco J. Múgica,19.4365346,-100.343964
6841296232,Calle General Pueblita Norte,19.4364179,-100.3454255
3222551918,Calle Nicolás Romero,19.422426,-100.3640307
3222551893,Calle Leona Vicario,19.4232323,-100.3642443
8238751976,Calle Matamoros,19.4238496,-100.3635028
3123986319,Supremo Tribunal de Ario,19.4241339,-100.3624287
3123986316,Supremo Tribunal de Ario y Calle Congreso de Chilpancingo,19.4248194,-100.3617728
6760299460,Calle Congreso de Chilpancingo,19.4256948,-100.3618106
6903832280,Calle Congreso de Chilpancingo,19.4265245,-100.3623828
3211895228,Calle Congreso de Chilpancingo y La Cuesta y Calle Cuauhtémoc,19.4269966,-100.3631799
3123986301,La Cuesta,19.427972,-100.3632083
6760236516,La Cuesta,19.4288607,-100.363078
6760236502,Calle Doctor Emilio García Sur,19.4294444,-100.3625174
2630668834,Calle Doctor Emilio García Sur,19.4303045,-100.3618245
6746741253,Calle Doctor Emilio García Sur,19.4312083,-100.3611621
1935414687,Calle Suprema Junta Nacional Americana y Calle Doctor Emilio García Sur,19.4320675,-100.3609575
3268356028,Calle Artillería Oriente y Calle Doctor Emilio García Sur,19.4326072,-100.3604842
4773818512,Avenida Revolución y Calle Cuauhtémoc Oriente y Calle Cuauhtémoc Poniente,19.4391352,-100.3549796
1215077774,Calle 5 de Mayo Norte,19.4428686,-100.3543384
1950211853,Calle 5 de Mayo Norte y México 68,19.4434051,-100.3540915
6754292829,México 68,19.4432268,-100.3536441
4773818513,Avenida Miguel Hidalgo Poniente y Calle 5 de Mayo Sur,19.4378901,-100.35665
1215077746,Calle 5 de Mayo Sur y Calle Melchor Ocampo Poniente,19.4369099,-100.3571475
1215077757,Calle Doctor Emilio García Sur y Calle Lerdo de Tejada Poniente,19.4366765,-100.3582991
3123986296,La Cuesta,19.4289733,-100.3629412
6903832282,La Cuesta,19.4280173,-100.363207
8238751984,La Cuesta,19.4271017,-100.3631883
8238751975,Calle Matamoros,19.4238677,-100.3632731
3222551894,Calle Matamoros,19.4233951,-100.3641503
3222551917,Calle Nicolás Romero y Calle Leona Vicario y Calle Supremo Tribunal de Ario,19.4225598,-100.3639561
1286494650,Calle Suprema Junta Nacional Americana y Calle Tabachines,19.4292301,-100.366436
4694454113,Periférico Francisco J. Múgica y Calle La Palma,19.4443429,-100.3474689
6778264698,Periférico Francisco J. Múgica,19.4430934,-100.346919
8248757819,Avenida Juchitán,19.4264185,-100.3380328
9968072171,Calle Tapachula,19.42476,-100.3388078
9968072172,Calle Tapachula,19.4244119,-100.3378786
6620764923,Innominada,19.4169826,-100.363538
6620764916,Innominada,19.4175417,-100.3643467
6620764913,Innominada,19.4180697,-100.3653485
9979468982,Calle Nicolás Romero,19.4186204,-100.3659432
8248291452,Calle Nicolás Romero,19.4192649,-100.3652519
6620725136,Calle Nicolás Romero,19.4201186,-100.364918
9968450646,Calle Nicolás Romero,19.4210105,-100.3647786
9968450658,Calle Nicolás Romero,19.4220349,-100.3642268
3222551905,Calle Leona Vicario,19.4228917,-100.3642047
6841041378,Calle Matamoros,19.4237503,-100.3637404
3123986321,Supremo Tribunal de Ario,19.423863,-100.3627349
3123986317,Supremo Tribunal de Ario,19.4246638,-100.3619265
4694454250,Privada de Moctezuma,19.442682,-100.3539331
3222551862,Calle Leona Vicario,19.4217187,-100.3636067
6620725139,Calle Leona Vicario,19.4204886,-100.3637919
9968450660,Calle Leona Vicario,19.4194895,-100.3639171
6620764909,Calle Leona Vicario,19.4185528,-100.3635299
6620764942,Innominada,19.4177864,-100.3632188
6620764924,Innominada,19.4168492,-100.3635421
8238751952,Innominada,19.4160484,-100.3640476
8238751950,Innominada,19.4150113,-100.3642407
6897069596,Innominada,19.4140108,-100.3642675
6897069593,Innominada,19.413353,-100.363656
6865064055,Innominada,19.4127978,-100.3638692
6821368729,Calle Paseo de las Rosas,19.4165566,-100.3465852
3262241032,Calle Janitzio,19.4175463,-100.3458968
3262241026,Calle Yunuén,19.4180835,-100.3452065
6620769330,Calle Paseo del Manantial,19.4183868,-100.3455179
3261061242,Calle Paseo del Manantial,19.4181205,-100.3468832
3261061240,Calle Paseo del Manantial,19.4184054,-100.347755
3261061234,Calle Lago Zirahuén y Calle Paseo de la Carolina,19.4179589,-100.3485594
6773184957,Innominada,19.4173299,-100.3486956
3262240969,Calle Paseo de la Carolina,19.4172265,-100.3493801
6789209344,Avenida Escuela Rural Mexicana,19.431746,-100.3792447
6789209308,Circuito Universidad Pedagógica,19.4314216,-100.3783713
4775071013,Circuito Universidad Pedagógica,19.4305882,-100.3779046
6791431264,Calle Melchor Ocampo,19.4301053,-100.3772901
6736225516,Avenida Miguel Hidalgo Poniente,19.4396549,-100.360113
1215077842,Calle Guadalupe Victoria Sur y Calle Crescencio Morales Poniente,19.4372745,-100.3614613
1215077700,Calle Guadalupe Victoria Sur y Calle Ignacio Zaragoza Poniente,19.436259,-100.3619224
1286493290,Guadalupe Victoria Sur,19.4342839,-100.3625626
1286494916,Calle Artillería Poniente y Calle Benedicto López Sur,19.4334942,-100.3620431
1286494121,José María Morelos Norte y Calle Artillería Poniente y Calle Artillería Oriente,19.4331442,-100.3611413
6746495528,Calle Artillería Oriente,19.4323028,-100.3602163
8238587343,Calle Artillería Oriente,19.4316734,-100.3593551
3268356040,Calle Artillería Oriente y Calle Leandro Valle Sur,19.4312691,-100.3584553
3268356019,Calle Artillería Oriente,19.4308698,-100.3576319
4694481550,Calle Artillería Oriente,19.4300493,-100.3566771
1935414291,Calle Libramiento Samuel Ramos y Calle Artillería Oriente,19.4290113,-100.3568012
9950397548,Calle Artillería Oriente,19.4280693,-100.3568295
4773818652,Calle Artillería Oriente,19.427252,-100.3559379
3221769153,Calle Artillería Oriente,19.4245615,-100.3543949
3123987361,Calle Artillería Oriente,19.4239622,-100.3536625
8248291474,Calle Artillería Oriente,19.4230994,-100.3534187
3123987367,Calle Artillería Oriente,19.4223967,-100.3524972
6620718583,Calle Artillería Oriente,19.421346,-100.3519276
6858263391,Calle Artillería Oriente,19.4201646,-100.3513605
6620769747,Calle Artillería Oriente,19.4189587,-100.3506054
8499287570,Calle Artillería Oriente,19.4181369,-100.3500949
8248291483,Calle Artillería Oriente,19.417353,-100.3496132
3262240970,Innominada,19.4168176,-100.3486354
3261061232,Calle Paseo de la Carolina,19.4180135,-100.3489047
3261061253,Calle Paseo de la Carolina y Calle Loma Larga,19.4191653,-100.3492366
3261061235,Calle Paseo del Manantial y Calle Lago Zirahuén,19.4183845,-100.348662
6773241929,Calle Paseo del Manantial,19.4180734,-100.347438
3261062971,Calle Paseo del Manantial,19.4182329,-100.3463084
6773184973,Calle Paseo del Manantial,19.4184718,-100.3450868
3262241024,Calle Janitzio y Calle Yunuén,19.41798,-100.3456625
3262241030,Calle Janitzio,19.4171343,-100.3461098
3262240980,Calle Paseo de las Rosas,19.4162683,-100.3461909
10691693501,Innominada,19.4156639,-100.3452936
3262241060,Innominada,19.4139758,-100.3444654
3262240992,Innominada,19.4128826,-100.3442033
4773818518,Avenida Revolución y Calle Ignacio Zaragoza Oriente y Calle Ignacio Zaragoza Poniente,19.434453,-100.3575466
6775712495,Avenida Revolución Sur,19.4280819,-100.3381303
6802970084,Morelia - Toluca,19.4489672,-100.3107568
6794140497,Morelia - Toluca,19.4502396,-100.3085894
6794140490,Morelia - Toluca,19.4508324,-100.3075942
6794140496,Morelia - Toluca,19.4514893,-100.3064584
6794140494,Morelia - Toluca,19.4520385,-100.3054862
6794129117,Carretera Toluca-Morelia,19.4522293,-100.3045443
6928068052,Carretera Toluca-Morelia,19.4520425,-100.300629
6799838267,Carretera Toluca-Morelia,19.4519384,-100.2986611
6794129128,Carretera Toluca-Morelia,19.4518713,-100.2975815
6799838256,Carretera Toluca-Morelia,19.4517989,-100.2961542
6799838264,Carretera Toluca-Morelia,19.4517445,-100.2948681
6794129110,Carretera Toluca-Morelia,19.4516623,-100.2932225
6794129127,Carretera Toluca-Morelia,19.4516117,-100.2920558
6799838262,Carretera Toluca-Morelia,19.4515459,-100.2910124
8485290605,Carretera Toluca-Morelia,19.4515351,-100.289918
1210585277,Toluca - Morelia,19.451522,-100.2889597
1210585374,Toluca - Morelia,19.451462,-100.2879489
1210591645,Carretera Zitácuaro - Lengua de Vaca,19.4514417,-100.286364
9432406049,Carretera Zitácuaro - Lengua de Vaca,19.4514455,-100.2861844
6775759972,Innominada,19.4414816,-100.3454923
6783589374,Periférico Francisco J. Múgica,19.4414765,-100.344565
1210571037,Periférico Francisco J. Múgica,19.4407602,-100.3436467
8238664295,Periférico Francisco J. Múgica,19.4397484,-100.342952
1210570912,Periférico Francisco J. Múgica,19.4388935,-100.342952
4694461780,Periférico Francisco J. Múgica,19.4379779,-100.343581
6754387416,Periférico Francisco J. Múgica,19.4358722,-100.34403
6775596763,Innominada,19.4285297,-100.3382347
6638979274,Innominada,19.4902311,-100.2422954
7839459255,Innominada,19.4893667,-100.2417244
7839459259,Innominada,19.4883145,-100.2418032
6641077183,Innominada,19.4872367,-100.2422974
5381393999,Innominada,19.4858814,-100.243198
5381394000,Innominada,19.4850413,-100.2437827
8241491239,Innominada,19.4832769,-100.2458681
8241491243,Innominada,19.4829341,-100.2467565
8241491245,Innominada,19.4821342,-100.2471073
8241491247,Innominada,19.4811975,-100.2474694
8241491251,Innominada,19.4805406,-100.2482808
6641068379,Innominada,19.4793621,-100.2489565
6641069456,Innominada,19.4785191,-100.249415
5381394010,Innominada,19.4774484,-100.2500215
6638836898,Innominada,19.4745507,-100.246667
6916976934,Innominada,19.4738728,-100.2459215
8417711322,Innominada,19.4729516,-100.2457353
5381394018,Innominada,19.4722259,-100.2461592
5381394019,Innominada,19.4723672,-100.2471445
5381394622,Innominada,19.4718422,-100.2482151
5381394625,Innominada,19.470928,-100.2482499
6638836296,Innominada,19.4682279,-100.2464455
5381394626,Innominada,19.4673989,-100.2459472
5381394627,Innominada,19.4664178,-100.2452579
6638803781,Innominada,19.4644403,-100.2446489
5381394629,Innominada,19.4634659,-100.2444022
5381394630,Innominada,19.4625897,-100.2441722
6638833676,Innominada,19.4624252,-100.2428359
8241523430,Innominada,19.4629607,-100.2420647
6638833671,Innominada,19.462771,-100.2411515
6638833667,Innominada,19.4619416,-100.2407254
6638833662,Innominada,19.4624965,-100.2398095
6638833660,Innominada,19.4622577,-100.2377799
8241523437,Innominada,19.4611841,-100.2372099
6638833657,Innominada,19.4602636,-100.2368586
6872023544,Innominada,19.4591875,-100.2365085
6638833652,Innominada,19.4582214,-100.2363758
6872023549,Innominada,19.4577788,-100.2355671
5381394671,Innominada,19.4566425,-100.2357372
6813286368,Innominada,19.455528,-100.235783
6813286525,Innominada,19.4545166,-100.2356822
6813286370,Innominada,19.4532534,-100.2363551
6817704753,Innominada,19.4520248,-100.2373114
6813286374,Innominada,19.4511021,-100.2377853
6813286376,Innominada,19.4496581,-100.2388735
6813286378,Innominada,19.4484709,-100.2392031
8182847205,Innominada,19.4474045,-100.2391371
6817695469,Innominada,19.4463539,-100.2393227
6817707990,Innominada,19.4449891,-100.2396078
1820737195,Toluca - Morelia,19.4433653,-100.2394417
1820737264,Toluca - Morelia,19.4428418,-100.2405185
6638890259,Toluca - Morelia,19.4427277,-100.2416896
291420450,Toluca - Morelia,19.4431967,-100.2429139
6817804851,Toluca - Morelia,19.44554,-100.244195
6864187671,Toluca - Morelia,19.4465774,-100.2446115
6638950411,Toluca - Morelia,19.4463232,-100.2464783
1820737394,Toluca - Morelia,19.4457681,-100.247861
8241320481,Toluca - Morelia,19.4458486,-100.2488518
8241320477,Toluca - Morelia,19.4461518,-100.2496863
1820737280,Toluca - Morelia,19.4454445,-100.2494559
1990560258,Toluca - Morelia,19.4447649,-100.2488461
1820737076,Toluca - Morelia,19.4450937,-100.2512712
1990560266,Toluca - Morelia,19.445085,-100.2521396
8241320464,Toluca - Morelia,19.444409,-100.2515583
8241320461,Toluca - Morelia,19.4437466,-100.2507538
1990560235,Toluca - Morelia,19.4434164,-100.251472
8241320453,Toluca - Morelia,19.4439386,-100.2522619
8241320452,Toluca - Morelia,19.4444143,-100.2534966
8241303881,Toluca - Morelia,19.4444602,-100.2545473
8241303875,Toluca - Morelia,19.444785,-100.2555154
8241303865,Toluca - Morelia,19.4440095,-100.2558754
8241303854,Toluca - Morelia,19.4440835,-100.257006
8241303846,Toluca - Morelia,19.4442114,-100.2578149
8241303836,Toluca - Morelia,19.4432733,-100.2577302
291421126,Toluca - Morelia,19.4432588,-100.2584956
8241328981,Toluca - Morelia,19.4445415,-100.2593609
8241328974,Toluca - Morelia,19.4449707,-100.260136
8241328965,Toluca - Morelia,19.4448051,-100.2610999
8241328959,Toluca - Morelia,19.4455307,-100.2617182
6861319557,Toluca - Morelia,19.4455158,-100.2629822
8241328934,Toluca - Morelia,19.4455126,-100.2640951
8241328939,Toluca - Morelia,19.444998,-100.264801
8241328947,Toluca - Morelia,19.4445743,-100.2655157
8241328953,Toluca - Morelia,19.4449385,-100.2665447
8241328929,Toluca - Morelia,19.4445059,-100.267473
6861319556,Toluca - Morelia,19.4436593,-100.2678427
1820737400,Toluca - Morelia,19.442126,-100.2677348
8241327212,Toluca - Morelia,19.4413495,-100.2686146
8241328920,Toluca - Morelia,19.4405515,-100.2689056
291421133,Toluca - Morelia,19.4401949,-100.2704291
8241327204,Toluca - Morelia,19.4406893,-100.2712724
1990568716,Toluca - Morelia,19.4415882,-100.2713193
1820737056,Toluca - Morelia,19.4424977,-100.2715027
8241327192,Toluca - Morelia,19.4429217,-100.2723699
8241327190,Toluca - Morelia,19.4436578,-100.2729755
8241327187,Toluca - Morelia,19.4447425,-100.2728999
1990568738,Toluca - Morelia,19.4456358,-100.2729699
6818313065,Toluca - Morelia,19.4465268,-100.2736533
6818313013,Toluca - Morelia,19.4477428,-100.2747357
8556033974,Toluca - Morelia,19.4485448,-100.2752402
1990568746,Toluca - Morelia,19.4493895,-100.2755783
8241327175,Toluca - Morelia,19.4500126,-100.276291
8241327174,Toluca - Morelia,19.4514226,-100.2769068
8241327171,Toluca - Morelia,19.4522478,-100.2772812
1210585283,Toluca - Morelia,19.45257,-100.278207
6638962521,Toluca - Morelia,19.451882,-100.2791994
6818335135,Toluca - Morelia,19.4505899,-100.2806503
6818335126,Toluca - Morelia,19.4497395,-100.2816643
6806578414,Toluca - Morelia,19.4492902,-100.2826589
6806525335,Toluca - Morelia,19.4489301,-100.2835789
6806525336,Toluca - Morelia,19.4490249,-100.2845438
6799838238,Toluca - Morelia,19.4498391,-100.2851423
1990568751,Toluca - Morelia,19.4513222,-100.2861999
1990568760,Toluca - Morelia,19.451755,-100.2870367
8241327164,Toluca - Morelia,19.4515901,-100.2881926
6928127440,Toluca - Morelia,19.4515573,-100.2895163
6799838263,Carretera Morelia-Toluca,19.4517053,-100.2909802
8509256774,Carretera Morelia-Toluca,19.4518639,-100.2940112
6799838257,Carretera Morelia-Toluca,19.4519721,-100.2961501
6621043216,Carretera Morelia-Toluca,19.4520277,-100.2977072
8474925410,Carretera Morelia-Toluca,19.4521011,-100.2995056
6794129115,Carretera Morelia-Toluca,19.4521372,-100.300637
6806611505,Carretera Morelia-Toluca,19.4523005,-100.3034997
6794129121,Carretera Morelia-Toluca,19.452361,-100.3045875
6794129129,Toluca - Morelia,19.4521375,-100.3055425
6620921308,Toluca - Morelia,19.4516079,-100.3064632
6794140486,Toluca - Morelia,19.451141,-100.3073118
6794140541,Toluca - Morelia,19.4503322,-100.3086089
6927706666,Toluca - Morelia,19.4494574,-100.3101177
6802970130,Toluca - Morelia,19.4486386,-100.3114434
6802970134,Carretera Toluca-Morelia,19.4479135,-100.3126317
1210571438,Carretera Toluca-Morelia,19.4470567,-100.3140307
291423399,Carretera Toluca-Morelia,19.4464755,-100.3147912
6620964190,Carretera Toluca-Morelia,19.4444842,-100.3163097
8452207334,Carretera Toluca-Morelia,19.4428833,-100.3174259
8452207337,Carretera Toluca-Morelia,19.441648,-100.3182871
6803838453,Carretera Toluca-Morelia,19.4387739,-100.3202909
8506894260,Carretera Toluca-Morelia,19.4368907,-100.3216232
6775596761,Avenida Revolución Sur,19.4283093,-100.3380871
9943164888,Calle Ignacio Zaragoza Oriente,19.434356,-100.3573292
1215077930,Avenida Revolución y Calle Ignacio Zaragoza Oriente,19.4344231,-100.3574797
1215077772,Calle Lerdo de Tejada Poniente y Calle 5 de Mayo Sur,19.4363111,-100.3574464
8238381122,Calle José María Morelos Sur,19.4314044,-100.3618441
3262266085,Calle José María Morelos Sur y Privada Morelos Sur,19.4304478,-100.3622294
2630704885,Calle de José María Morelos Sur y De José María Morelos Sur,19.4295149,-100.3631179
8238751985,Calle Cuauhtémoc,19.4267178,-100.3641775
3211895234,Calle Cuauhtémoc,19.4269975,-100.3650558
3211895236,Calle Cuauhtémoc,19.4271611,-100.366379
6759744177,Calle Cuauhtémoc,19.4272494,-100.3676324
6759744175,Calle Cuauhtémoc,19.4273721,-100.369345
3222551940,Calle Hidalgo,19.4278477,-100.3701721
3222551941,Calle Hidalgo,19.4271254,-100.3714948
3222551943,Calle Hidalgo,19.4262243,-100.3722251
3222551945,Calle Hidalgo y Calle Melchor Ocampo,19.4252571,-100.3728321
6793380062,Calle Melchor Ocampo,19.4254246,-100.3732718
3222551944,Calle Hidalgo,19.4257613,-100.3725328
6789209398,Calle Hidalgo,19.4265906,-100.3719745
4773860213,Calle Hidalgo,19.4274315,-100.3709781
3211895246,Calle Cuauhtémoc y Calle Hidalgo,19.4278672,-100.3700906
3211895241,Calle Cuauhtémoc,19.4271453,-100.368512
8445276833,Calle Cuauhtémoc,19.427221,-100.3670054
3211895235,Calle Cuauhtémoc,19.4271036,-100.3654996
6759931717,Calle Cuauhtémoc,19.4267028,-100.3645653
6838693106,Calle Cuauhtémoc,19.4269073,-100.3634188
6860806917,Innominada,19.4847681,-100.3920662
6863786312,Innominada,19.4891963,-100.3936029
6863787128,Innominada,19.4915553,-100.3942774
2013569347,Innominada,19.493126,-100.3947204
6861500105,Innominada,19.4944596,-100.3950913
2013569609,Innominada,19.4954336,-100.395508
6933118713,Innominada,19.4962841,-100.39648
2013569612,Innominada,19.4984736,-100.3983348
6847927121,Innominada,19.4995903,-100.3996093
6603901744,Innominada,19.5007028,-100.4007406
8417295837,Innominada,19.5020193,-100.4020793
6935180726,Innominada,19.5033808,-100.4031381
2013569639,Innominada,19.5039995,-100.4038265
8417356582,Innominada,19.5054192,-100.4046536
6603869408,Innominada,19.5077768,-100.4059163
8417377109,Innominada,19.5089635,-100.4065526
6847927145,Innominada,19.5104764,-100.4073625
8417403418,Innominada,19.5116897,-100.4081774
6603880732,Innominada,19.5158702,-100.4101826
8417370000,Innominada,19.5168412,-100.4106421
7986716117,Innominada,19.5179394,-100.4110533
2013569337,Innominada,19.5192809,-100.41155
2013569454,Calle Emiliano Zapata,19.5205989,-100.4113227
3262294234,Calle Emiliano Zapata,19.5205182,-100.409401
3262294260,Calle Emiliano Zapata,19.5204641,-100.4080193
3262302985,Calle Emiliano Zapata y Calle Morelos,19.5203906,-100.4068879
3262302988,Calle Benito Juárez,19.52076,-100.4061832
3262302995,Calle 20 de Noviembre y Calle Francisco I. Madero,19.5212008,-100.4055035
3262303000,Calle Independencia,19.5215501,-100.4047804
3262302993,Calle Vicente Guerrero,19.5219669,-100.4054472
3262302981,Calle Vicente Guerrero y Calle Morelos,19.521999,-100.4067823
3262302984,Calle Morelos y Calle Benito Juárez,19.5208011,-100.4068615
1286494949,Prolongación de Morelos,19.446424,-100.3566546
8248771305,Prolongación de Morelos,19.4471356,-100.3573165
4694454189,Prolongación de Morelos,19.4478631,-100.358122
1286493233,Prolongación de Morelos,19.4489262,-100.3587738
6925263494,Prolongación de Morelos,19.4495316,-100.3594567
4694454194,Calle Profesora Antonia García,19.4491675,-100.3604412
1286495009,Prolongación de Benedicto López Norte,19.4480839,-100.3597803
4694454188,Prolongación de Benedicto López Norte y Calle Benedicto López Norte,19.4475702,-100.3585559
9955278039,Calle Benedicto López Norte,19.4471775,-100.357682
9955278048,Calle Profesor Vicente Marín Iturbe Poniente,19.4470247,-100.3581485
8238587335,Calle Jesús Teja Andrade,19.4460767,-100.3584287
1286493184,Calle Profesor Juan Escutia Poniente y Calle Guadalupe Victoria Norte,19.4456201,-100.3572871
1286494397,Calle González Ortega Poniente,19.4451741,-100.3583109
1215077790,Calle Cuauhtémoc Poniente y Calle Benito Juárez Norte,19.4414593,-100.3607285
1215077665,Calle Benito Juárez Norte y Avenida Miguel Hidalgo Poniente,19.4402795,-100.3612338
1286493794,Calle Melchor Ocampo Oriente,19.4353184,-100.3534352
1286494019,Calle Melchor Ocampo Oriente y Calle Ignacio Manuel Altamirano Sur,19.4348052,-100.3521566
4775031963,Calle Ignacio Manuel Altamirano Sur y Calle José María Coss Oriente,19.4335362,-100.3528099
1215077913,Calle José María Coss Oriente y Calle Nicolás Bravo Sur,19.4339569,-100.3541043
1286494130,Calle Nicolás Bravo Sur,19.4330765,-100.3545479
1286493214,Calle Nicolás Bravo Sur,19.4317062,-100.3551896
1286494920,Calle Sixto Verduzco Oriente,19.4309149,-100.3551906
1286493908,Calle Sixto Verduzco Oriente,19.4302833,-100.3542927
1286494570,Prolongación Altamirano Sur y Monte de las Cruces,19.4293715,-100.3536926
1286493192,Monte de las Cruces,19.429313,-100.352286
1286493866,Calle Vicente Suárez Sur,19.4289657,-100.3440377
1286494613,Calle Vicente Suárez Sur,19.4294862,-100.3431394
1286493990,Calle Vicente Suárez Sur,19.4300521,-100.3423787
4694462107,Calle Miguel Hidalgo Oriente,19.4310383,-100.3425669
1286493109,Calle Miguel Hidalgo Oriente,19.4318371,-100.3436193
8407860032,Calle Miguel Hidalgo Oriente,19.4324222,-100.344843
3254609652,Calle Martínez de Lejarza,19.4304574,-100.3472731
1286493314,Calle Lerdo de Tejada Oriente y Calle Andrés Landa y Piña Sur,19.4344793,-100.3532671
1215077634,Calle Lerdo de Tejada Poniente y Calle Benedicto López Sur,19.437461,-100.3601357
8238381118,Calle Benedicto López Norte,19.4385163,-100.3596619
1215077919,Calle Benedicto López Norte y Calle Santos Degollado Poniente,19.4399606,-100.3588838
4694454177,Avenida Miguel Hidalgo Poniente,19.4401834,-100.3610581
8273668744,Calle Benito Juárez Norte,19.4426417,-100.3602408
1286493905,Calle González Ortega Poniente y Calle Benito Juárez Norte,19.4455329,-100.3590555
1215077942,Calle Guadalupe Victoria Norte y Calle González Ortega Poniente,19.4448464,-100.3576125
1215077583,Calle Guadalupe Victoria Norte y Calle Profesora Esperanza Olivares Escutia Poniente,19.4459464,-100.3571845
1286494506,Calle Jesús Teja Andrade y Calle Profesora Esperanza Olivares Escutia Poniente,19.4463499,-100.3582988
4694454164,Calle Profesor Vicente Marín Iturbe Poniente,19.4470574,-100.3580465
4694454165,Calle Benedicto López Norte,19.4472302,-100.3577166
9955278045,Prolongación de Benedicto López Norte,19.4477972,-100.3591364
1286493783,Prolongación de Benedicto López Norte,19.448536,-100.3606285
4775032836,Calle Manuel Doblado Norte y Calle Profesora Antonia García,19.4493024,-100.3597161
4694454191,Prolongación de Morelos,19.449243,-100.3590432
1286494443,Prolongación de Morelos,19.4480657,-100.3583067
1286494267,Prolongación de Morelos,19.4473213,-100.3575694
9949956252,Carretera Zitácuaro-Loma Larga-Curungueo,19.459891,-100.3457593
9949956253,Carretera Zitácuaro-Loma Larga-Curungueo,19.4601851,-100.3467559
8524245869,Carretera Zitácuaro-Loma Larga-Curungueo,19.4602464,-100.347869
8238700211,Carretera Zitácuaro-Loma Larga-Curungueo,19.4602357,-100.349096
8238700210,Carretera Zitácuaro-Loma Larga-Curungueo,19.4600876,-100.3502707
6620642602,Carretera Zitácuaro-Loma Larga-Curungueo,19.4602547,-100.3522837
8238746096,Carretera Zitácuaro-Loma Larga-Curungueo,19.4601506,-100.3542192
3099914359,Carretera Zitácuaro-Loma Larga-Curungueo,19.4602625,-100.3552977
8249733629,Carretera Zitácuaro-Loma Larga-Curungueo,19.4604585,-100.3564692
3099914368,Carretera Zitácuaro-Loma Larga-Curungueo,19.4603957,-100.3579
3099914375,Carretera Zitácuaro-Loma Larga-Curungueo,19.4591615,-100.3587627
3099914378,Carretera Zitácuaro-Loma Larga-Curungueo,19.4587701,-100.3597704
9932037031,Carretera Zitácuaro-Loma Larga-Curungueo,19.4587077,-100.3608316
3099914385,Carretera Zitácuaro-Loma Larga-Curungueo,19.4580863,-100.3618612
3099914403,Innominada,19.4571466,-100.3617594
8238700171,Innominada,19.4561997,-100.3620271
3099914408,Innominada,19.4554294,-100.3629289
3099914411,Innominada,19.455041,-100.3638579
3099914414,Innominada,19.4542301,-100.3645798
6858659998,Innominada,19.4529846,-100.3660787
3099914423,Innominada,19.4522048,-100.3653172
9961984380,Innominada,19.4513796,-100.3656812
9962113854,Innominada,19.4504507,-100.3661646
3099914796,Innominada,19.4492736,-100.366956
3099914799,Innominada,19.4485715,-100.3678553
3099914803,Innominada,19.4483928,-100.3691161
9962157356,Innominada,19.4483649,-100.3699423
3099914812,Innominada,19.4470182,-100.3712341
3099914816,Innominada,19.4463392,-100.3707509
3099914821,Innominada,19.4448069,-100.3720296
3099914825,Innominada,19.4453582,-100.3732666
6860423049,Innominada,19.4461789,-100.3735793
9962208739,Innominada,19.4460456,-100.3746316
3099914838,Innominada,19.4459969,-100.3755101
6605924070,Innominada,19.4452032,-100.3762485
3099914847,Innominada,19.4446904,-100.3772466
3099914850,Innominada,19.444473,-100.378026
6860423041,Innominada,19.4438774,-100.3784472
6903873001,Innominada,19.4208661,-100.3633489
3222551876,Innominada,19.4204816,-100.3617691
9968452880,Innominada,19.4196985,-100.3609717
8248322795,Innominada,19.4189474,-100.360267
3222551882,Innominada,19.4173967,-100.359221
5381562037,Innominada,19.4165579,-100.3582316
8248322798,Innominada,19.4159644,-100.3574527
6858151242,Innominada,19.4157983,-100.3563765
5381562041,Innominada,19.4154527,-100.3548825
9979308163,Innominada,19.4153905,-100.3545373
5381562040,Innominada,19.415817,-100.3561944
6903896591,Innominada,19.4171564,-100.3590319
9968452905,Innominada,19.4187338,-100.3601229
6903886066,Innominada,19.4196412,-100.3609154
3261061200,Innominada,19.4203437,-100.3616108
3222551875,Innominada,19.4207257,-100.3624798
3222551872,Calle Leona Vicario,19.4209594,-100.3634431
6903872998,Calle Leona Vicario,19.4219194,-100.3636442
1286494454,Calle Leandro Valle Sur y Calle Ignacio Zaragoza Oriente,19.4340785,-100.3567107
1210585288,Toluca - Morelia,19.4513575,-100.2868282
1210585306,Toluca - Morelia,19.4507746,-100.2858679
1990568744,Toluca - Morelia,19.449749,-100.2851249
291421141,Toluca - Morelia,19.4524828,-100.2784653
1210585366,Toluca - Morelia,19.4524658,-100.2775124
291421139,Toluca - Morelia,19.4504199,-100.276529
8241327177,Toluca - Morelia,19.4495724,-100.2757565
8241327184,Toluca - Morelia,19.4457987,-100.2730751
1820737369,Toluca - Morelia,19.4449456,-100.2728515
1990568726,Toluca - Morelia,19.4440172,-100.2730308
1820737159,Toluca - Morelia,19.4431094,-100.2726419
1990568721,Toluca - Morelia,19.4426628,-100.2717051
291421184,Toluca - Morelia,19.4402556,-100.269198
8241327211,Toluca - Morelia,19.4410624,-100.2689016
8241328921,Toluca - Morelia,19.4414949,-100.2680956
6638903942,Toluca - Morelia,19.4430248,-100.2678364
8241328924,Toluca - Morelia,19.4440068,-100.2677827
8241328955,Toluca - Morelia,19.4449017,-100.2668696
8241328949,Toluca - Morelia,19.4447981,-100.2658761
8241328942,Toluca - Morelia,19.444683,-100.264944
8241328935,Toluca - Morelia,19.4455127,-100.2642895
8241328957,Toluca - Morelia,19.4455617,-100.261968
8241328964,Toluca - Morelia,19.4449355,-100.261245
8241328972,Toluca - Morelia,19.4449018,-100.260352
8241328980,Toluca - Morelia,19.4447061,-100.259483
9962130218,Toluca - Morelia,19.4439051,-100.2589495
1990560227,Toluca - Morelia,19.4431325,-100.2583663
8241303838,Toluca - Morelia,19.4434462,-100.2577122
8241303848,Toluca - Morelia,19.4443393,-100.2576909
8241303855,Toluca - Morelia,19.4437205,-100.2565669
8241303867,Toluca - Morelia,19.4442297,-100.2558867
8241303877,Toluca - Morelia,19.4447324,-100.2552618
1820737176,Toluca - Morelia,19.4444939,-100.2541927
1990560241,Toluca - Morelia,19.4440468,-100.2525284
8241320454,Toluca - Morelia,19.4436131,-100.2516948
8241320459,Toluca - Morelia,19.4435076,-100.250794
1820737372,Toluca - Morelia,19.4444671,-100.2495536
6817895050,Toluca - Morelia,19.4448561,-100.2488348
1820737313,Toluca - Morelia,19.4455525,-100.2496178
1820737278,Toluca - Morelia,19.4462242,-100.2494274
1990560280,Toluca - Morelia,19.4457152,-100.248545
1820737020,Toluca - Morelia,19.4467798,-100.2453598
6817809780,Toluca - Morelia,19.4457596,-100.2442829
1820737259,Toluca - Morelia,19.443694,-100.2434254
6861425995,Toluca - Morelia,19.443048,-100.2424695
291420449,Toluca - Morelia,19.4425686,-100.2413003
1820737182,Toluca - Morelia,19.4431162,-100.2402516
6638922792,Innominada,19.4441684,-100.2395065
8241320501,Innominada,19.4459148,-100.2397044
6817695470,Innominada,19.446518,-100.2392122
5381394666,Innominada,19.4481994,-100.2392154
6813286377,Innominada,19.4494332,-100.2389757
6817695452,Innominada,19.4504869,-100.2382259
5381394663,Innominada,19.4512836,-100.2376879
6817695448,Innominada,19.4526664,-100.2369478
6813286361,Innominada,19.4541469,-100.235852
6813286369,Innominada,19.4551284,-100.2357535
6872023550,Innominada,19.4575993,-100.2355349
6638833650,Innominada,19.4581089,-100.2362444
8241523438,Innominada,19.460084,-100.2367996
6638833659,Innominada,19.4621654,-100.2375238
8241523433,Innominada,19.4625705,-100.239393
6638833663,Innominada,19.461945,-100.2401857
8241523431,Innominada,19.462454,-100.240882
6638833673,Innominada,19.4629911,-100.2418703
8241523432,Innominada,19.4624492,-100.2426582
6638833677,Innominada,19.4622728,-100.2441394
5381394628,Innominada,19.4659284,-100.2450528
6638836291,Innominada,19.4668527,-100.2455324
5381394012,Innominada,19.4769995,-100.2499397
8241491252,Innominada,19.4803815,-100.2483913
8241491248,Innominada,19.4810878,-100.247597
6641093347,Innominada,19.4849564,-100.2438921
7839459256,Innominada,19.4892633,-100.2416946
5247519698,Innominada,19.4999084,-100.3893527
5247519692,Innominada,19.4987991,-100.3896712
5247519671,Innominada,19.4981648,-100.3910092
5247519662,Innominada,19.4976925,-100.3918872
6861500104,Innominada,19.4969006,-100.3924924
6861500103,Innominada,19.4964252,-100.3933782
6861512345,Innominada,19.4955024,-100.3935787
6860806919,Innominada,19.4848867,-100.3921462
10691688369,Calle Doctor Emilio García Norte,19.4393096,-100.3568935
6606227849,Innominada,19.4259927,-100.4521514
8240827639,Innominada,19.4259989,-100.4511653
8240827644,Innominada,19.4253883,-100.4504859
8240827646,Innominada,19.4251717,-100.4494636
8240827651,Innominada,19.4243339,-100.4493105
3076869457,Innominada,19.4239564,-100.4504062
8240827663,Innominada,19.4235112,-100.4499293
8240827669,Innominada,19.4229892,-100.4501976
7883089125,Innominada,19.4221897,-100.4506727
3076869376,Innominada,19.4214709,-100.4499885
8240827672,Innominada,19.4213037,-100.4488014
8240827682,Innominada,19.4206157,-100.4487504
8240827690,Innominada,19.4199334,-100.4490886
3076869452,Innominada,19.4196313,-100.4498599
3076869629,Innominada,19.4195037,-100.4511444
3076869619,Innominada,19.4187624,-100.4517839
8240827697,Innominada,19.4183763,-100.4509211
8240827703,Innominada,19.4181732,-100.4500133
8240827704,Innominada,19.4176042,-100.4490164
8240827711,Innominada,19.4172596,-100.449419
8240827716,Innominada,19.4169649,-100.4503956
3076869386,Innominada,19.4163863,-100.4509719
7883074960,Innominada,19.4155646,-100.4505891
3076869411,Innominada,19.4145527,-100.4508282
3076869367,Innominada,19.414224,-100.4500438
8240827731,Innominada,19.4137337,-100.4492611
8240827742,Innominada,19.4132902,-100.4483894
3076869464,Innominada,19.4120139,-100.4475278
8240827752,Innominada,19.4117777,-100.4466797
7883283506,Innominada,19.4112677,-100.446228
8240775061,Innominada,19.4111749,-100.4451764
8240775070,Innominada,19.4111041,-100.4444589
8240775075,Innominada,19.410411,-100.4436619
8240775082,Innominada,19.4102621,-100.4422545
8240775093,Innominada,19.4105684,-100.4413445
8240775096,Innominada,19.4102387,-100.4407434
8240775099,Innominada,19.4092707,-100.4408742
3076869547,Innominada,19.4083592,-100.4405381
8240775105,Innominada,19.4080869,-100.439363
3076869448,Innominada,19.4078465,-100.4386176
8240775116,Innominada,19.406986,-100.4394296
8240795320,Innominada,19.4058979,-100.4396653
8240795328,Innominada,19.4050683,-100.43938
8058966818,Innominada,19.4059362,-100.4385849
8058966821,Innominada,19.4067935,-100.438224
8058966825,Innominada,19.4071052,-100.4369114
8058966827,Innominada,19.4072775,-100.4358287
3076869571,Innominada,19.4080039,-100.4352818
3076869382,Innominada,19.4092599,-100.4349464
7883267172,Innominada,19.4127801,-100.4326008
8240795336,Innominada,19.4120945,-100.42992
7883267166,Innominada,19.4128269,-100.4277501
7883267164,Innominada,19.4133821,-100.4269414
3076869433,Innominada,19.414112,-100.4262936
7883267159,Innominada,19.4143232,-100.4252476
8240795341,Innominada,19.4132202,-100.4236449
6606237170,Innominada,19.4140331,-100.4230591
7883267147,Innominada,19.4149266,-100.4230335
7931138926,Innominada,19.4155652,-100.4224275
7883267142,Innominada,19.4156698,-100.4211938
7883267140,Innominada,19.4161761,-100.4199344
8240795352,Innominada,19.4158988,-100.419024
3076869637,Innominada,19.4160204,-100.4180995
7883267132,Innominada,19.4160285,-100.4171483
3076869562,Innominada,19.4153854,-100.4161678
7883267128,Innominada,19.414881,-100.4153399
3076869357,Innominada,19.4114888,-100.4136819
8240795365,Innominada,19.4114331,-100.4128847
8240795360,Innominada,19.4125735,-100.4123082
3076869459,Innominada,19.4137147,-100.4116339
8240795358,Innominada,19.4145003,-100.4109058
8418163178,Innominada,19.4160834,-100.4093308
3076869365,Innominada,19.4180038,-100.4074202
3076869626,Innominada,19.4204688,-100.4059784
6606254412,Innominada,19.4223802,-100.4052676
6606254433,Innominada,19.423265,-100.4049428
3076869624,Innominada,19.4256278,-100.4040676
3076869602,Innominada,19.4267576,-100.4036612
3076869473,Innominada,19.4270586,-100.4025642
6606265695,Innominada,19.4272565,-100.4015637
8241252627,Innominada,19.4276744,-100.4006289
3076869643,Innominada,19.4276997,-100.3996941
3076869471,Innominada,19.4282207,-100.3988197
3076869527,Calle Melchor Ocampo,19.4280803,-100.3981679
3076869544,Calle Melchor Ocampo,19.4278148,-100.397189
9949887552,Calle Melchor Ocampo,19.4275653,-100.3960709
6878650041,Calle Melchor Ocampo,19.4279349,-100.3939583
11184016476,Calle Melchor Ocampo,19.4278892,-100.3915329
6818453523,Calle Melchor Ocampo,19.4276668,-100.3894441
3076869537,Calle Melchor Ocampo,19.4275669,-100.3884906
3076869349,Calle Melchor Ocampo,19.4275997,-100.3874538
9968171262,Calle Melchor Ocampo,19.4275816,-100.3862931
3076869359,Calle Melchor Ocampo,19.4275056,-100.385584
5133852346,Línea O,19.4830999,-100.3936726
5133852349,Línea O,19.4820391,-100.3914904
5133852351,Innominada,19.4803639,-100.3916824
5133852352,Innominada,19.4794587,-100.3916233
6860806909,Innominada,19.4789529,-100.3906283
6933110945,Innominada,19.4774828,-100.3914221
5133852358,Innominada,19.4765026,-100.3915362
5133852359,Innominada,19.4745833,-100.3905746
5133852361,Innominada,19.4734707,-100.3895044
5133852363,Innominada,19.47231,-100.3894508
5133852365,Innominada,19.4711644,-100.3898585
5133852367,Innominada,19.4700467,-100.3901267
6605932807,Innominada,19.4698035,-100.3901535
3254308106,Carretera Zitácuaro-Ciudad Altamirano,19.3597418,-100.4106821
1935414985,Carretera Zitácuaro-Ciudad Altamirano,19.3607316,-100.4107302
1935414236,Carretera Zitácuaro-Ciudad Altamirano,19.361459,-100.411467
8241213735,Carretera Zitácuaro-Ciudad Altamirano,19.362493,-100.4114365
8241213733,Carretera Zitácuaro-Ciudad Altamirano,19.363261,-100.4107774
8241213730,Carretera Zitácuaro-Ciudad Altamirano,19.3638073,-100.409924
8241213726,Carretera Zitácuaro-Ciudad Altamirano,19.3641815,-100.4089672
8241213722,Carretera Zitácuaro-Ciudad Altamirano,19.3645874,-100.4080907
8241213718,Carretera Zitácuaro-Ciudad Altamirano,19.3651677,-100.4072745
8241213713,Carretera Zitácuaro-Ciudad Altamirano,19.3655433,-100.4062814
8241213707,Carretera Zitácuaro-Ciudad Altamirano,19.3659681,-100.4053004
8241213699,Carretera Zitácuaro-Ciudad Altamirano,19.3661805,-100.4043274
8241213691,Carretera Zitácuaro-Ciudad Altamirano,19.3662829,-100.4032378
1935414898,Carretera Zitácuaro-Ciudad Altamirano,19.3660819,-100.4022226
1935414680,Carretera Zitácuaro-Ciudad Altamirano,19.3657576,-100.4012737
1935414518,Carretera Zitácuaro-Ciudad Altamirano,19.3651469,-100.4004817
8241213683,Carretera Zitácuaro-Ciudad Altamirano,19.3648946,-100.399366
8241213681,Carretera Zitácuaro-Ciudad Altamirano,19.3651772,-100.3984151
6871253449,Carretera Zitácuaro-Ciudad Altamirano,19.365474,-100.3972441
6871253450,Carretera Zitácuaro-Ciudad Altamirano,19.3657481,-100.3960972
1935414602,Carretera Zitácuaro-Ciudad Altamirano,19.3663004,-100.395364
1935414788,Carretera Zitácuaro-Ciudad Altamirano,19.3684065,-100.3948487
1935414458,Carretera Zitácuaro-Ciudad Altamirano,19.3693231,-100.3950458
8241213670,Carretera Zitácuaro-Ciudad Altamirano,19.3701936,-100.3951504
1935414507,Carretera Zitácuaro-Ciudad Altamirano,19.3710672,-100.3950714
1215077905,Calle Mariano Matamoros Poniente y Calle Benedicto López Sur,19.4349395,-100.3613018
1215077684,José María Morelos Norte y Calle Mariano Matamoros Poniente,19.4344793,-100.3605009
1215077797,Calle Benedicto López Sur y Calle Guillermo Prieto Poniente,19.4341397,-100.3617543
4773860248,Guadalupe Victoria Sur,19.433215,-100.3630009
1935415301,Calle Suprema Junta Nacional Americana,19.43307,-100.3637446
1986254877,Carretera Zitácuaro-Ciudad Altamirano,19.400619,-100.38753
1935415573,Carretera Zitácuaro-Ciudad Altamirano,19.3975363,-100.3885329
8241188690,Carretera Zitácuaro-Ciudad Altamirano,19.396363,-100.3910409
8241188694,Carretera Zitácuaro-Ciudad Altamirano,19.3966447,-100.3942144
8241188699,Carretera Zitácuaro-Ciudad Altamirano,19.3962437,-100.3950392
8241188710,Carretera Zitácuaro-Ciudad Altamirano,19.392776,-100.3949643
6871834106,Carretera Zitácuaro-Ciudad Altamirano,19.3918422,-100.3950993
1935414756,Carretera Zitácuaro-Ciudad Altamirano,19.3851992,-100.3978112
6871834101,Carretera Zitácuaro-Ciudad Altamirano,19.384283,-100.3976503
6871834099,Carretera Zitácuaro-Ciudad Altamirano,19.3833246,-100.3975689
1935414307,Carretera Zitácuaro-Ciudad Altamirano,19.382425,-100.397111
6638351340,Carretera Zitácuaro-Ciudad Altamirano,19.3816397,-100.3965565
6871868491,Carretera Zitácuaro-Ciudad Altamirano,19.3743238,-100.3940669
8241213658,Carretera Zitácuaro-Ciudad Altamirano,19.3734153,-100.3944974
8241213661,Carretera Zitácuaro-Ciudad Altamirano,19.3728005,-100.3953865
8241213664,Carretera Zitácuaro-Ciudad Altamirano,19.3721584,-100.3960811
8241213665,Carretera Zitácuaro-Ciudad Altamirano,19.3713101,-100.3953235
6871230806,Carretera Zitácuaro-Ciudad Altamirano,19.3704856,-100.3950016
8241213673,Carretera Zitácuaro-Ciudad Altamirano,19.3695601,-100.3952167
6871230803,Carretera Zitácuaro-Ciudad Altamirano,19.368719,-100.3947978
8241213677,Carretera Zitácuaro-Ciudad Altamirano,19.3667609,-100.3952569
6871253451,Carretera Zitácuaro-Ciudad Altamirano,19.3659264,-100.3956529
1935414275,Carretera Zitácuaro-Ciudad Altamirano,19.3650141,-100.4002786
8241213698,Carretera Zitácuaro-Ciudad Altamirano,19.3662109,-100.4042028
8241213706,Carretera Zitácuaro-Ciudad Altamirano,19.3660629,-100.4051637
8241213712,Carretera Zitácuaro-Ciudad Altamirano,19.3656191,-100.4060764
8241213717,Carretera Zitácuaro-Ciudad Altamirano,19.3652664,-100.4070896
8241213721,Carretera Zitácuaro-Ciudad Altamirano,19.3647164,-100.4078977
8241213725,Carretera Zitácuaro-Ciudad Altamirano,19.3642612,-100.4087219
8241213729,Carretera Zitácuaro-Ciudad Altamirano,19.3639274,-100.4097101
8241213732,Carretera Zitácuaro-Ciudad Altamirano,19.3633698,-100.4106036
1935414713,Carretera Zitácuaro-Ciudad Altamirano,19.362699,-100.4113405
1935414628,Carretera Zitácuaro-Ciudad Altamirano,19.3616696,-100.4114982
1935414978,Carretera Zitácuaro-Ciudad Altamirano,19.3609061,-100.4109604
6606035988,Innominada,19.470689,-100.3899229
5133852364,Innominada,19.4718269,-100.3895366
5133852362,Innominada,19.4730003,-100.3894079
5133852360,Innominada,19.4739764,-100.3901535
6603899322,Innominada,19.4786141,-100.3906417
5133852353,Innominada,19.479221,-100.3914974
5133852350,Innominada,19.4813223,-100.3915859
6864245406,Línea O,19.4831101,-100.394901
775026597,Línea O,19.4825732,-100.3963955
5381394661,Innominada,19.4473033,-100.240261
5381394660,Innominada,19.4486547,-100.2407543
5381394659,Innominada,19.4494062,-100.2413861
5381394656,Innominada,19.4504497,-100.2413304
5381394655,Innominada,19.4516079,-100.2395368
5381394652,Innominada,19.4525325,-100.2391383
6817809752,Innominada,19.4529863,-100.2399528
6817809754,Innominada,19.4524055,-100.2406991
6817804860,Innominada,19.4532695,-100.2409689
5381393972,Innominada,19.4541756,-100.2410394
5381394643,Innominada,19.4549248,-100.2414143
5381394641,Innominada,19.4552523,-100.2423504
5381394640,Innominada,19.4562842,-100.2430719
5381394638,Innominada,19.4574551,-100.2429163
5381394635,Innominada,19.4587323,-100.2436607
8528234679,Innominada,19.459859,-100.2438822
6638836901,Innominada,19.4751679,-100.2442736
6638836902,Innominada,19.4750943,-100.2432924
7839536444,Innominada,19.4748842,-100.242333
6638836161,Innominada,19.4746661,-100.2413975
6638836164,Innominada,19.4741066,-100.2401865
6638836165,Innominada,19.4738177,-100.2389601
6638824681,Innominada,19.4747761,-100.2384304
6872023540,Innominada,19.4758376,-100.2382929
7839552772,Innominada,19.4759627,-100.2371436
6638841351,Innominada,19.4760446,-100.2356341
6872023530,Innominada,19.4761198,-100.2345837
6638841355,Innominada,19.4765298,-100.2333684
7839552767,Innominada,19.4766297,-100.2323847
6638841359,Innominada,19.4768522,-100.2311428
6910629843,Innominada,19.4769818,-100.2301014
6639019339,Innominada,19.4772334,-100.2291881
6639019335,Innominada,19.477559,-100.2281971
6910725362,Innominada,19.4779257,-100.2273656
7839552746,Innominada,19.4774076,-100.2265026
7839552742,Innominada,19.4770985,-100.2255641
6872023538,Innominada,19.4769761,-100.2255537
7841955482,Innominada,19.4746592,-100.2238217
7841972191,Innominada,19.475316,-100.2240507
7841972197,Innominada,19.476282,-100.2241771
7841972207,Innominada,19.4767438,-100.2249694
6638841354,Innominada,19.4761214,-100.2343376
6872023539,Innominada,19.4759539,-100.2382027
7839552775,Innominada,19.4750012,-100.2383626
7839552777,Innominada,19.4739758,-100.2388461
7839588201,Innominada,19.4740409,-100.2397386
6638836163,Innominada,19.4741085,-100.2407766
7839588204,Innominada,19.4747338,-100.2414596
6916976929,Innominada,19.4749443,-100.2430189
6638836900,Innominada,19.4748865,-100.2463018
5381394014,Innominada,19.4740644,-100.2460652
8417711323,Innominada,19.4731135,-100.2457494
6916976935,Innominada,19.4722219,-100.2460495
1475331958,Innominada,19.4532222,-100.2946399
1475331961,Innominada,19.4541164,-100.2943754
1475331966,Innominada,19.4551689,-100.2942511
9949797940,Innominada,19.4561214,-100.2937244
6806525329,Innominada,19.4568633,-100.2931219
6806578252,Innominada,19.4575854,-100.2922395
1475331971,Innominada,19.4581531,-100.2914616
6806611413,Innominada,19.4588764,-100.2909413
8509309419,Innominada,19.4596954,-100.290328
1475331986,Innominada,19.4602054,-100.2919029
1475332001,Innominada,19.4618818,-100.2915835
6806646364,Innominada,19.4622235,-100.2906825
6806646366,Innominada,19.4619314,-100.2895962
1475331997,Innominada,19.4616845,-100.2885401
6806646361,Innominada,19.4614149,-100.2875629
6806572684,Innominada,19.4618707,-100.2873284
1475332017,Innominada,19.462546,-100.2884763
6806658713,Innominada,19.4634656,-100.2884943
6620677224,Innominada,19.4649086,-100.2878664
1475332030,Innominada,19.4668457,-100.2876085
1475332032,Innominada,19.4679951,-100.287396
1475332037,Innominada,19.4691386,-100.2871636
8241491336,Innominada,19.4700709,-100.2867617
1475332039,Innominada,19.4713106,-100.2860222
1475332041,Innominada,19.4730896,-100.2847144
8417052557,Innominada,19.4737694,-100.285755
1475332045,Innominada,19.4743397,-100.286628
1475332055,Innominada,19.4758333,-100.2858385
8241454116,Innominada,19.4755581,-100.2850592
1475332051,Innominada,19.4752815,-100.2839254
1475332062,Innominada,19.4760665,-100.2831993
1475332065,Innominada,19.4770311,-100.2831048
1475332084,Innominada,19.4778366,-100.2825578
1475332105,Innominada,19.4786292,-100.2817363
1475332118,Innominada,19.4796844,-100.2812451
1475332131,Innominada,19.4806237,-100.2811283
1475332139,Innominada,19.4815386,-100.2809745
1475332153,Innominada,19.4824582,-100.280843
6641131219,Innominada,19.4829887,-100.2790833
8241454105,Innominada,19.4833268,-100.2781687
6937925438,Innominada,19.4830249,-100.2772936
6641131209,Innominada,19.483229,-100.2765854
6641131206,Innominada,19.4844246,-100.2760765
6641131203,Innominada,19.4851057,-100.2752847
8241454099,Innominada,19.4856209,-100.2761894
6641190193,Innominada,19.4862278,-100.2768812
6641190195,Innominada,19.4870774,-100.2761087
8417195861,Innominada,19.488343,-100.2759759
8241454095,Innominada,19.4887311,-100.275937
8241454096,Innominada,19.4872746,-100.2760161
8241454101,Innominada,19.4845197,-100.276026
8241454102,Innominada,19.4836499,-100.2763782
8241454103,Innominada,19.4828952,-100.2769147
6641131215,Innominada,19.4833353,-100.2777853
6937925441,Innominada,19.4831038,-100.2788621
1475332161,Innominada,19.4827371,-100.2799617
1475332150,Innominada,19.4823756,-100.2809554
1475332136,Innominada,19.481119,-100.2810015
1475332126,Innominada,19.4802366,-100.2811944
1475332114,Innominada,19.4790975,-100.2814617
1475332094,Innominada,19.4781236,-100.2822082
8241454111,Innominada,19.4776516,-100.2830473
1475332064,Innominada,19.476713,-100.283113
1475332057,Innominada,19.4757144,-100.2833653
1475332049,Innominada,19.4752872,-100.2841801
8241454117,Innominada,19.4757781,-100.2853502
1475332048,Innominada,19.4745129,-100.2866663
1475332040,Innominada,19.4720683,-100.2855254
6808358045,Innominada,19.4670398,-100.2876006
1475332029,Innominada,19.4656874,-100.2876548
1475332025,Innominada,19.4640244,-100.2881875
1475332021,Innominada,19.462959,-100.2889303
1475332007,Innominada,19.462049,-100.2877387
1475331992,Innominada,19.461413,-100.2871755
6806646362,Innominada,19.4616432,-100.2883428
1475331989,Innominada,19.4604545,-100.2920732
1475331985,Innominada,19.460177,-100.2904011
1475331967,Innominada,19.4553054,-100.2942351
1475331962,Innominada,19.4542357,-100.2941954
1475331957,Innominada,19.4520399,-100.2948226
3261033250,Innominada,19.4479961,-100.3296427
9975410530,Innominada,19.4485058,-100.3299646
9975410532,Innominada,19.4497421,-100.3297297
6925457160,Innominada,19.452445,-100.3309357
6620643162,Innominada,19.4512204,-100.3327482
6858676905,Innominada,19.4501005,-100.3317256
6858676903,Innominada,19.4492433,-100.3317342
8417392190,Innominada,19.4481175,-100.3315668
4773766961,Fernando Montes de Oca,19.4495453,-100.3379368
8240682248,Calle Fernando Montes de Oca,19.4496153,-100.339468
3887096060,Calle Fernando Montes de Oca,19.4493526,-100.340631
3261033232,Gertrudis Bocanegra y Calle Fernando Montes de Oca,19.4495434,-100.3416921
6858527700,Avenida La Palma,19.4501318,-100.342074
3221815151,Avenida La Palma,19.4493806,-100.343205
3221815146,Innominada,19.4508133,-100.3429302
3221815144,Innominada,19.4515725,-100.3416991
8238693597,Calle Fernando Montes de Oca Sur,19.4481872,-100.345484
8526989295,Calle La Palma,19.4473812,-100.3459491
8249531466,Calle La Palma,19.4453544,-100.3469327
8238664284,Calle La Palma,19.4444491,-100.3472738
3040540432,Innominada,19.5195574,-100.4115576
7986716091,Innominada,19.5183881,-100.4112384
7986716090,Innominada,19.5170621,-100.4107368
2013569614,Innominada,19.5119797,-100.408334
1210709073,Innominada,19.5109254,-100.407677
6935201043,Innominada,19.5090211,-100.4065835
6603887774,Innominada,19.5059499,-100.4049382
2013569611,Innominada,19.5043687,-100.4040902
2013569582,Innominada,19.5036466,-100.4033799
6847927119,Innominada,19.5024377,-100.4024662
6847927118,Innominada,19.5013305,-100.4013642
8417295836,Innominada,19.5001451,-100.4002078
6847927132,Innominada,19.4989561,-100.3988956
2013569403,Innominada,19.4965926,-100.3967555
2013569613,Innominada,19.495925,-100.3961031
6861564989,Innominada,19.4952748,-100.3953771
8452402774,Innominada,19.4932897,-100.3947685
6789209261,Calle Día del Trabajo,19.4307389,-100.3803488
6903665298,Calle Día del Trabajo,19.4296461,-100.3806193
3221206545,Calle Melchor Ocampo,19.4291707,-100.3815527
3076869523,Calle Melchor Ocampo,19.428872,-100.3830657
3076869586,Calle Melchor Ocampo,19.4284724,-100.3841414
3076869641,Calle Melchor Ocampo,19.4275871,-100.3853846
9968252997,Calle Melchor Ocampo,19.4277963,-100.3906955
3262255236,Innominada,19.4285881,-100.3909815
8238591062,Innominada,19.4295706,-100.3908912
6818453551,Innominada,19.4305928,-100.3910097
6818453557,Innominada,19.4317948,-100.3908767
4773764863,De la Vía,19.4552177,-100.342921
4773764871,De la Vía,19.4542258,-100.3429137
8238693588,Calle de la Vía,19.4535716,-100.3437769
3221815156,Calle de la Vía,19.4530591,-100.3448497
4773764875,Calle de la Vía,19.4522635,-100.346063
6858480446,Calle de la Vía,19.4511765,-100.3468184
8241296941,Calle de la Vía,19.4501812,-100.3472713
8241296944,Calle de la Vía,19.4490579,-100.3471663
6620736133,Calle de la Vía,19.4481399,-100.3473549
4694454110,Calle de la Vía,19.4444023,-100.3463872
8238664258,Calle de la Vía,19.4427939,-100.3438685
3261026731,Calle de la Vía,19.4415132,-100.3428265
1215077629,Calle Ignacio Zaragoza Poniente y Calle Benedicto López Sur,19.4358576,-100.3608652
1215077918,Calle Ignacio Zaragoza Poniente y Guadalupe Victoria Sur,19.4361999,-100.3617653
1950211822,Calle Ignacio Zaragoza Poniente y Calle Benito Juárez Sur,19.4367096,-100.3630695
1286494678,Calle Ignacio Zaragoza Poniente,19.4370934,-100.3640435
1286494282,Calle Ignacio Zaragoza Poniente y Calle Manuel Doblado Sur,19.4374417,-100.3649424
1950211820,Calle Manuel Doblado Sur y Calle Mariano Matamoros Poniente,19.4364734,-100.3653157
1286493284,Calle Manuel Doblado Sur y Calle Guillermo Prieto Poniente,19.4354789,-100.365736
3262255213,Innominada,19.4321817,-100.390869
3262255227,Innominada,19.4310254,-100.391022
6818453545,Innominada,19.4298248,-100.3911454
3262255203,Innominada,19.4288679,-100.3909537
3262255202,Calle Melchor Ocampo,19.4278363,-100.3910829
3076869493,Calle Melchor Ocampo,19.4279564,-100.3848441
6818435636,Calle Melchor Ocampo,19.4286912,-100.383613
3211906618,Calle Día del Trabajo y Calle Melchor Ocampo,19.4293724,-100.3805672
6789209235,Calle Día del Trabajo,19.4304304,-100.3805526
6789209322,Avenida Escuela Rural Mexicana,19.4310891,-100.3796637
6789209350,Avenida Escuela Rural Mexicana,19.4317873,-100.37906
6789209264,Circuito Universidad Pedagógica,19.4311468,-100.3781536
8238402345,Circuito Universidad Pedagógica,19.4301554,-100.3778705
3076869422,Calle Melchor Ocampo y Calle Margarita Maza de Juárez,19.4301161,-100.377072
6789209189,Calle Melchor Ocampo,19.4301423,-100.3759911
3262255215,Innominada,19.4306082,-100.3910695
6852445653,Innominada,19.4297404,-100.3910983
3076869466,Calle Melchor Ocampo,19.4280804,-100.3931576
6606246224,Calle Melchor Ocampo,19.4276099,-100.3951585
9968198196,Calle Melchor Ocampo,19.4276489,-100.3964979
3076869465,Calle Melchor Ocampo,19.4279893,-100.3979333
3076869468,Innominada,19.4283826,-100.3986803
8241252623,Innominada,19.4277831,-100.3994581
3076869449,Innominada,19.4276858,-100.4003902
8527250475,Innominada,19.4548568,-100.3414026
8527250464,Innominada,19.4556424,-100.342617
8238693586,De la Vía,19.4548996,-100.3429476
3221815153,Calle de la Vía y De la Vía,19.4540126,-100.3431399
3221815155,Calle de la Vía,19.4535135,-100.3439379
6606259898,Calle Morelos Oriente,19.4095008,-100.3922688
6800087270,Calle Nicolás Romero,19.4232921,-100.325928
3261057916,Innominada,19.424155,-100.325042
6799976132,El Ucaz,19.4244926,-100.3234037
3262231772,El Ucaz,19.4262617,-100.3220706
6800521272,El Ucaz,19.4242076,-100.3157051
6800534360,El Ucaz,19.4242046,-100.3146684
6800612469,El Ucaz,19.4239681,-100.3137101
6800534364,El Ucaz,19.4229992,-100.3133258
6800534363,El Ucaz,19.4220685,-100.3132148
8478254383,El Ucaz,19.4214258,-100.3122082
6800534445,El Ucaz,19.4189592,-100.3067583
6800511826,El Ucaz,19.4187432,-100.3057436
8248356086,El Ucaz,19.4183536,-100.3047437
6621163880,Innominada,19.4188816,-100.3040387
8248356081,Innominada,19.4198036,-100.303707
8248356078,Innominada,19.4207301,-100.3036081
6925550603,Innominada,19.4209749,-100.303476
1935415029,Carretera Zitácuaro-Ciudad Altamirano,19.4120813,-100.3910291
1286494128,Calle Aldama Sur,19.4340638,-100.3635769
1286494489,Calle Aldama Sur,19.435095,-100.3631271
1286493806,Calle Andrés Landa y Piña Norte,19.4356311,-100.3527482
8527250461,Innominada,19.4550456,-100.3413011
6865037029,Innominada,19.4131484,-100.3385389
3262231577,Innominada,19.4129485,-100.3375431
9980296837,Innominada,19.4131369,-100.3367168
3262220651,Innominada,19.4139893,-100.3372688
6620757109,Innominada,19.414894,-100.336221
3262220649,Innominada,19.4157948,-100.3351884
3262220635,Innominada,19.4166902,-100.3348039
3262220639,Innominada,19.4180393,-100.3336352
3262220663,Innominada,19.4190914,-100.3328562
3262220662,Innominada,19.4199582,-100.333558
9979504680,Innominada,19.4209499,-100.3341486
8238349579,Innominada,19.4217439,-100.3347679
9980296849,Innominada,19.4224057,-100.3360867
3262220253,Innominada,19.4228526,-100.3371502
3262220252,Innominada,19.4229433,-100.3374056
8407860025,Innominada,19.4358628,-100.3464894
8404578092,Estacionamiento del Centro Comercial,19.4358406,-100.3471698
4775032832,México 68,19.4429833,-100.3532083
3262566224,Calle José María Morelos y Pavón,19.3419657,-100.3486006
3262240988,Innominada,19.4150232,-100.344813
10726671066,Innominada,19.4158701,-100.3456758
3262241022,Calle Inchatiro y Calle Tzintziki,19.4166852,-100.3453116
3262241019,Calle Tzintziki y Calle Erandeni,19.4161034,-100.3440443
3262240999,Calle Paseo de las Rosas,19.4157924,-100.344758
3262240994,Calle Paseo de las Rosas y Calle Inchatiro,19.416028,-100.3457551
3261061236,Calle Loma Larga y Calle Lago Zirahuén,19.4192565,-100.3489059
6905954015,Calle Paseo de la Carolina,19.4182641,-100.349113
3261061223,Calle Paseo de la Carolina,19.4174503,-100.3492788
6858263395,Calle Artillería Oriente,19.4199348,-100.3512188
8248291481,Calle Artillería Oriente,19.4208414,-100.3517436
3123987368,Calle Artillería Oriente,19.4218296,-100.3520962
3123987366,Calle Artillería Oriente,19.4225829,-100.3527475
8248291473,Calle Artillería Oriente,19.4231921,-100.353469
4773818566,Calle Artillería Oriente,19.4241165,-100.353829
3123987359,Calle Artillería Oriente,19.4247283,-100.3546944
4773818650,Calle Artillería Oriente,19.4274518,-100.3562517
6760750561,Calle Artillería Oriente,19.4281696,-100.3568426
3268356032,José María Morelos Norte y Artillería Poniente,19.4333032,-100.36108
1215077926,Calle Benedicto López Sur y Calle Crescencio Morales Poniente,19.4368082,-100.3604423
1215077656,Calle Benedicto López Sur,19.4381931,-100.3598378
6773184980,Innominada,19.4157502,-100.3448169
3261061244,Calle Paseo del Manantial,19.4184941,-100.3449858
3261062967,Calle Paseo del Manantial,19.4180327,-100.3472879
3261062965,Calle Paseo del Manantial,19.4184128,-100.3482304
3261061233,Calle Paseo de la Carolina,19.4179759,-100.3488205
8248291514,Calle Paseo de la Carolina,19.417761,-100.349109
6661183088,Innominada,19.2878087,-100.3508603
6661172100,Innominada,19.2867259,-100.3511153
7768655015,Innominada,19.2863145,-100.3524886
6864201415,Innominada,19.2862613,-100.3535306
7768655024,Innominada,19.2866436,-100.3542978
6661187593,Innominada,19.2858084,-100.3540316
6661187590,Innominada,19.2852233,-100.3548476
6864201404,Innominada,19.2846891,-100.3556255
6864201403,Innominada,19.2843474,-100.3567506
7811730935,Innominada,19.2838208,-100.3574353
7811730938,Innominada,19.2828486,-100.3592558
7811730940,Innominada,19.2825106,-100.3603636
7811760824,Innominada,19.2821448,-100.361757
7811760826,Innominada,19.2815042,-100.3630015
7811760828,Innominada,19.2812409,-100.3640047
7811760834,Innominada,19.2807194,-100.3647986
7811760844,Innominada,19.2801953,-100.3650749
7811760848,Innominada,19.2813422,-100.3654933
7811760857,Innominada,19.2823422,-100.3656998
7811760863,Innominada,19.2834638,-100.3656247
7811760869,Innominada,19.2846993,-100.3655764
7811760873,Innominada,19.2855094,-100.3660995
7811760877,Innominada,19.2867525,-100.3669336
7811760881,Innominada,19.2875246,-100.3675211
7811772185,Innominada,19.2884158,-100.367981
7811772192,Innominada,19.2893145,-100.3679878
7811772202,Innominada,19.289593,-100.36861
7811772207,Innominada,19.2898158,-100.3697553
7811772211,Innominada,19.2895803,-100.370898
7811772204,Innominada,19.2895373,-100.3687736
7811772194,Innominada,19.289531,-100.3680629
7811760875,Innominada,19.2859196,-100.3665072
7811760872,Innominada,19.285117,-100.3657267
7811760867,Innominada,19.284079,-100.3655657
7811760861,Innominada,19.2831904,-100.3657508
7811760856,Innominada,19.2821929,-100.3656301
7811760846,Innominada,19.2807472,-100.3653646
7811760839,Innominada,19.2800839,-100.3648335
7811760831,Innominada,19.2809384,-100.364572
7811760827,Innominada,19.2813903,-100.3633583
7811760825,Innominada,19.2818561,-100.3623953
7811760823,Innominada,19.2823397,-100.3612071
6661187603,Innominada,19.2825625,-100.3601141
6661180782,Innominada,19.2837284,-100.3574795
7811730934,Innominada,19.2846284,-100.3557435
7768655014,Innominada,19.2864778,-100.351456
6661183085,Innominada,19.2872525,-100.3510322
3368069593,Innominada,19.288087,-100.351455
6864245411,Innominada,19.4799846,-100.3977442
5133852344,Innominada,19.4789277,-100.3978568
6603899291,Innominada,19.4780344,-100.397978
6864281994,Innominada,19.4765823,-100.3981613
1286494139,Calle González Ortega Poniente y Calle Manuel Doblado Norte,19.4464136,-100.3609706
4694454171,Calle González Ortega Poniente y Calle Enseñanza Norte,19.4469868,-100.3621895
4694454172,Calle Enseñanza Norte,19.445754,-100.3627167
10691944303,Calle Enseñanza Norte,19.4448166,-100.363182
1215077899,Calle Cuauhtémoc Poniente y Calle Guadalupe Victoria Norte,19.4410588,-100.35956
1286494248,Calle Cuauhtémoc Poniente,19.4419182,-100.3620781
1286494369,Calle Manuel Doblado Norte,19.4452183,-100.3614755
6903832277,Avenida Independencia,19.4256483,-100.36105
3123987330,Avenida Ciudad de la Independencia,19.4250477,-100.3598166
8415021772,Avenida Ciudad de la Independencia,19.4240913,-100.3597641
8238349543,Avenida Ciudad de la Independencia,19.4233378,-100.3591761
9968391692,Calle 5 de Diciembre de 1810,19.4225762,-100.3593751
4773818605,5 de Diciembre de 1810 y Calle Carlos María de Bustamante,19.4226405,-100.3604492
4773818609,Calle Cornelio Ortiz,19.4233354,-100.3599599
3211899594,Calle 5 de Diciembre de 1810 y 5 de Diciembre de 1810 y Cerrada Independencia,19.4226104,-100.3596382
8238349550,Avenida Ciudad de la Independencia,19.4241022,-100.357197
3123987346,Avenida Ciudad de la Independencia,19.4249362,-100.3566445
1286494266,Avenida Morelia,19.4274089,-100.3541977
4775032011,Calle Mora del Cañonazo Norte,19.4377524,-100.3493273
1286493950,Calle Moctezuma Oriente,19.4389375,-100.350174
1286494027,Calle Moctezuma Oriente,19.4396528,-100.3517348
4773860253,Calle Lerdo de Tejada Poniente,19.4372585,-100.3596304
1215077929,Calle Guadalupe Victoria Sur y Calle Lerdo de Tejada Poniente,19.4378967,-100.3611454
1215077576,Calle Lerdo de Tejada Poniente,19.4383023,-100.3620498
4775032859,Calle Lerdo de Tejada Poniente,19.4388666,-100.3633249
1286494803,Calle Lerdo de Tejada Poniente y Calle Manuel Doblado Sur,19.4392459,-100.3641918
1286494702,Calle Crescencio Morales Poniente y Calle Lázaro Cárdenas Sur,19.4391298,-100.3654113
1215077630,Calle Crescencio Morales Poniente,19.4397605,-100.3667977
1286493727,Calle Crescencio Morales Poniente,19.4402041,-100.3678185
3262262494,Calle Crescencio Morales Poniente,19.440401,-100.3695135
3262262487,Calle Crescencio Morales Poniente,19.4405138,-100.3705185
6860453955,Prolongación de Crescencio Morales,19.4398474,-100.3711671
6606202306,Prolongación de Crescencio Morales,19.4392992,-100.3713353
3262256384,Avenida Hermanos Rayón Norte,19.4173902,-100.3910758
6820671546,Avenida Hermanos Rayón Norte,19.4164657,-100.3915107
3262256386,Avenida Hermanos Rayón Norte,19.4155544,-100.3921177
6606255909,Avenida Hermanos Rayón Norte,19.4146123,-100.3923175
6606255907,Avenida Hermanos Rayón Norte,19.4136408,-100.3923786
8241188672,Avenida Hermanos Rayón Sur,19.4124691,-100.3927664
8241188674,Avenida Hermanos Rayón Sur,19.4116139,-100.3932626
6865158782,Calle Morelos Oriente,19.4104881,-100.3929881
3099912618,Innominada,19.4883398,-100.3645777
3099912615,Innominada,19.4890494,-100.3638358
3099912613,Innominada,19.4896736,-100.3630921
3099912610,Innominada,19.4900172,-100.3617955
3099912606,Innominada,19.4908882,-100.361304
3099912603,Innominada,19.4916899,-100.3608533
3099912600,Innominada,19.4922493,-100.3597927
8431063281,Innominada,19.4933178,-100.3594422
3099912592,Innominada,19.4940989,-100.3586611
3099912585,Innominada,19.4952618,-100.3575409
3099912581,Innominada,19.4959538,-100.3567954
3099912576,Innominada,19.4976304,-100.3567074
3099912572,Innominada,19.4984778,-100.3565177
3099912568,Innominada,19.4994214,-100.3562772
3099912565,Innominada,19.4999751,-100.3552929
3099912561,Innominada,19.5011767,-100.3543149
6603784599,Innominada,19.501152,-100.3529298
6603771582,Innominada,19.5012436,-100.3509055
6603771584,Innominada,19.5013119,-100.3497891
8506619524,Innominada,19.5013811,-100.3486765
6603784588,Innominada,19.5021027,-100.3477692
6603784591,Innominada,19.5027601,-100.346463
6603784594,Innominada,19.5034731,-100.3455537
6603784596,Innominada,19.5042645,-100.3447632
6603784673,Innominada,19.5046627,-100.3436387
6603784676,Innominada,19.5046418,-100.342505
6603784680,Innominada,19.5045949,-100.3414532
6603784681,Innominada,19.5047662,-100.341069
3262262492,Calle Crescencio Morales Poniente y Prolongación de Crescencio Morales,19.4402223,-100.3710591
3262262486,Calle Crescencio Morales Poniente,19.4404736,-100.3700695
1286493158,Calle Crescencio Morales Poniente,19.4402666,-100.3682465
1215077921,Calle Lázaro Cárdenas Sur y Calle Ignacio Zaragoza Poniente,19.4378635,-100.3659612
1950211823,Calle Lázaro Cárdenas Sur,19.4367772,-100.3661003
1215077592,Calle Benito Juárez Sur y Calle Crescencio Morales Poniente,19.4377038,-100.3623851
1950211819,Calle Doctor Emilio García Sur y Calle José María Coss Poniente,19.4358764,-100.3587173
1215077611,Calle 5 de Mayo Sur y Calle José María Coss Poniente,19.43544,-100.3578484
9943164889,Calle José María Coss Oriente,19.4348181,-100.3564551
1286494652,Prolongación de Morelos,19.4494223,-100.359211
6620667761,Calle Miguel Carrillo Poniente,19.44325,-100.3551259
1286493978,Calle Mora del Cañonazo Sur,19.4318677,-100.3511777
1286494134,Calle Mora del Cañonazo Sur y Monte de las Cruces,19.4292752,-100.351743
1286493992,Monte de las Cruces,19.4293491,-100.3528
1286493210,Calle Sixto Verduzco Oriente y Prolongación Altamirano Sur,19.4300155,-100.3536779
6746944755,Calle Sixto Verduzco Oriente,19.4304808,-100.3546196
1286494787,Calle Nicolás Bravo Sur y Calle Sixto Verduzco Oriente,19.4311239,-100.3555069
1286494346,Calle Nicolás Bravo Sur,19.432272,-100.354926
1215077742,Calle Nicolás Bravo Sur,19.4337894,-100.3541941
1215077815,Calle Doctor Emilio García Sur,19.437261,-100.3579814
1215077596,Calle Miguel Carrillo Poniente y Calle Doctor Emilio García Norte,19.4431234,-100.3548597
8238380616,Calle José María Morelos Norte,19.4436426,-100.3555322
4694454163,Calle Benedicto López Norte,19.4452835,-100.3563516
1286494584,Calle Benedicto López Norte y Calle Profesor Vicente Marín Iturbe Poniente,19.4469146,-100.357511
8248735308,Prolongación de Morelos,19.4457779,-100.3559413
1215077914,Prolongación de Morelos y Calle José María Morelos Norte,19.4453904,-100.3551059
4694454160,Calle José María Morelos Norte,19.4445134,-100.3553817
1215077654,Calle José María Morelos Norte y Calle Miguel Carrillo Poniente,19.4434843,-100.3555963
1286493294,Calle Juan de Dios Peza Sur,19.4330144,-100.3489314
1286494044,Calle Juan de Dios Peza Sur,19.4321436,-100.3493246
1935414752,Calle Juan de Dios Peza Sur,19.4313056,-100.3497149
4694471171,Calle Juan de Dios Peza Sur,19.4302524,-100.3502148
8404556900,Calle Juan de Dios Peza Sur,19.4292212,-100.3506996
2630699041,Monte de las Cruces,19.4299912,-100.3532916
1286493915,Calle Ignacio Manuel Altamirano Sur,19.430623,-100.3535202
4775031957,Calle 16 de Septiembre Oriente,19.4312765,-100.354258
1286493203,Calle Andrés Landa y Piña Sur,19.4320708,-100.3544793
1286494232,Calle José María Coss Oriente y Calle Andrés Landa y Piña Sur,19.4337719,-100.3536277
3261033248,Innominada,19.4480172,-100.3307846
3261033222,Innominada,19.4454821,-100.3354545
9977585286,Innominada,19.4442452,-100.3360538
4773766990,Calle Leona Vicario,19.4438109,-100.3357146
9977861175,Calle Antiguo Camino Real,19.4433787,-100.3347436
3261033207,Calle Antiguo Camino Real,19.4426546,-100.3340813
9977834950,Calle Antiguo Camino Real,19.4428441,-100.3348291
6917151693,Calle Antiguo Camino Real,19.4430304,-100.3357603
6917151695,Calle Antiguo Camino Real,19.442679,-100.3366975
6858776500,Calle Antiguo Camino Real,19.4424339,-100.3377078
8238005001,Calle Río San Isidro,19.4413623,-100.339072
3261033186,Calle Josefa Ortiz de Domínguez y Calle Río San Isidro,19.4409499,-100.3399669
3261026721,Calle Barranca y Calle Río San Isidro,19.4405941,-100.3409355
3261026718,Calle Barranca,19.4402135,-100.3399274
8249531486,Calle Barranca,19.4399856,-100.3389249
3261026636,Calle Barranca,19.4398958,-100.3377824
3261026661,San azul,19.4392108,-100.3375051
9969415508,Calle Lago Azul,19.4373286,-100.33841
8238046835,Calle Lago Azul,19.4372276,-100.339338
3221790072,Calle Lago Azul,19.4358377,-100.3418587
8238639388,Calle Lago Azul,19.434674,-100.3413743
8249531502,Calle Lago Azul,19.4342782,-100.3421245
6906857430,Calle Lago de Chapultepec,19.4343708,-100.3429282
4694454181,Avenida Miguel Hidalgo Poniente,19.438919,-100.358728
4694454175,Calle Ignacio López Rayón Poniente,19.4408615,-100.3654138
3887839801,Calle Lázaro Cárdenas Norte,19.4410134,-100.3645891
1286493144,Calle Lázaro Cárdenas Norte y Avenida Miguel Hidalgo Poniente,19.441867,-100.3642295
1286493207,Calle Lázaro Cárdenas Norte,19.4431024,-100.3634595
4694454184,Calle Lázaro Cárdenas Norte,19.4444949,-100.3628207
8444454155,Calle Ignacio Ramírez y Calle Moctezuma Poniente y Calle Lázaro Cárdenas Norte,19.444569,-100.362761
6847789723,Innominada,19.5318774,-100.4037282
7986737518,Innominada,19.5314552,-100.4045261
6603795532,Innominada,19.5314919,-100.405528
7986737528,Innominada,19.5319127,-100.4063494
7986737532,Innominada,19.5308321,-100.4070233
7986737534,Innominada,19.5300396,-100.4074913
7986737536,Innominada,19.5284736,-100.407958
6847851846,Innominada,19.5274485,-100.4082584
6935427698,Innominada,19.5259191,-100.4086581
3262563782,Innominada,19.5251215,-100.4091865
7986737541,Innominada,19.5243821,-100.4097739
7986737543,Innominada,19.5231484,-100.4104874
2013569433,Innominada,19.521983,-100.4109487
7986737547,Innominada,19.5208896,-100.4112746
7986716112,Innominada,19.5198428,-100.4115017
7986716092,Innominada,19.5187711,-100.4113805
6927480078,Línea O,19.4639041,-100.3440375
3261035167,Línea O,19.4652065,-100.3441025
9949956118,Innominada,19.4638533,-100.3427292
9949938504,Innominada,19.4633972,-100.3423565
9949938500,Innominada,19.4632551,-100.3415722
9949938494,Innominada,19.463399,-100.3403968
4694454187,Calle Enseñanza Norte y Calle Moctezuma Poniente,19.4447478,-100.3632162
1286494050,Calle Moctezuma Poniente y Calle Lázaro Cárdenas Norte,19.4446057,-100.3628476
1286494177,Calle Miguel Hidalgo Oriente,19.4311574,-100.3426909
3254610074,Calle Miguel Hidalgo Oriente,19.4302899,-100.3416476
6775596713,Periférico Francisco J. Múgica,19.4298443,-100.3407869
9949809618,Calle Santos Degollado Oriente,19.4329381,-100.3428847
3221769665,Calle Miguel Hidalgo Oriente y 4a Cerrada de Hidalgo,19.4321753,-100.3443138
6606259907,Carretera Zitácuaro-Ciudad Altamirano,19.4099609,-100.3921273
6621176149,Innominada,19.4316485,-100.2917785
9961831621,Innominada,19.4323574,-100.2924725
6621176139,Innominada,19.4329328,-100.2935236
6621176137,Innominada,19.4340471,-100.292733
6621176120,Innominada,19.4347163,-100.2924345
6621056511,Innominada,19.4355023,-100.293083
6621056509,Innominada,19.4364817,-100.2936141
6621033662,Innominada,19.4374809,-100.2934284
6806029689,Innominada,19.4380854,-100.2940701
8241378185,Innominada,19.4390276,-100.2942109
6621033630,Innominada,19.4397788,-100.2947916
8241378189,Innominada,19.4405553,-100.2953884
6806029675,Innominada,19.4407564,-100.2963124
8241378192,Innominada,19.4412395,-100.2972016
8241378195,Innominada,19.4417959,-100.2982128
6621053409,Innominada,19.4425648,-100.299345
2630694070,Tecnologico/Ex-hacienda Manzanillos,19.4428025,-100.3003089
8451944043,Tecnologico/Ex-hacienda Manzanillos,19.4431085,-100.3014778
6806029789,Tecnologico/Ex-hacienda Manzanillos,19.4433444,-100.3024869
6806029738,Tecnologico/Ex-hacienda Manzanillos,19.4433639,-100.303538
2630694061,Tecnologico/Ex-hacienda Manzanillos,19.4432646,-100.3049909
2630694059,Tecnologico/Ex-hacienda Manzanillos,19.4429924,-100.305994
8238087306,Tecnologico/Ex-hacienda Manzanillos,19.4421427,-100.3069988
6620934681,Tecnologico/Ex-hacienda Manzanillos,19.4414315,-100.307678
6794140584,Tecnologico/Ex-hacienda Manzanillos,19.4409979,-100.3086814
2630694053,Tecnologico/Ex-hacienda Manzanillos,19.4406463,-100.3101137
8238087308,Tecnologico/Ex-hacienda Manzanillos,19.4401013,-100.3109854
8451880512,Tecnologico/Ex-hacienda Manzanillos,19.439579,-100.3119255
8238087309,Av. Tecnologico,19.438875,-100.3126235
2630694041,Av. Tecnologico,19.4382465,-100.3133146
6803592182,Av. Tecnologico,19.4373516,-100.3136164
6794140573,Av. Tecnologico,19.4366774,-100.3144356
6794140568,Av. Tecnologico,19.4359314,-100.3150607
2630694030,Av. Tecnologico,19.4355088,-100.3160846
2630694028,Av. Tecnologico,19.4351975,-100.3171325
2630694025,Av. Tecnologico,19.4345493,-100.3180782
2630694021,Av. Tecnologico,19.4340725,-100.3189394
2630694018,Av. Tecnologico,19.433707,-100.3198549
2630694013,Ex-hacienda Manzanillos,19.4339379,-100.3208124
2630694009,Ex-hacienda Manzanillos,19.4334108,-100.3214545
2630694006,Ex-hacienda Manzanillos,19.4330817,-100.3224251
2630694003,Ex-hacienda Manzanillos,19.4329129,-100.3235182
6859105186,Ex-hacienda Manzanillos,19.4325069,-100.3244353
6861512336,Innominada,19.4949474,-100.3936766
6861512344,Innominada,19.4958993,-100.3936243
5247519681,Innominada,19.4982963,-100.3900462
6871803544,Innominada,19.5043492,-100.3445754
6603784589,Innominada,19.502248,-100.3475241
6603784587,Innominada,19.5014706,-100.3485123
6603784598,Innominada,19.50105,-100.3521624
6603784600,Innominada,19.5012785,-100.3534501
3099912563,Innominada,19.500592,-100.3546518
3099912578,Innominada,19.4966591,-100.356824
3099912582,Innominada,19.4957585,-100.3568975
3099912588,Innominada,19.4946545,-100.3582221
3099912593,Innominada,19.4937862,-100.3591443
3099912599,Innominada,19.4924264,-100.3596935
8425151642,Innominada,19.4917354,-100.3607036
6860723691,Calle Los Pinos,19.4747658,-100.3562412
3211898672,Calle Los Pinos,19.4707111,-100.3572764
6932056883,Calle Los Pinos,19.4700922,-100.3581481
3261049133,Calle Los Pinos,19.4701172,-100.3588926
3261049130,Innominada,19.4692375,-100.3594346
8238746084,Innominada,19.4685368,-100.3602548
6932109250,Innominada,19.4687595,-100.3610677
3261049119,Innominada,19.4682688,-100.3618578
3261049968,Innominada,19.4672054,-100.3623164
6932070019,Innominada,19.4643461,-100.3641846
3099914849,Innominada,19.4447881,-100.3777788
6903501655,Innominada,19.4447185,-100.3767253
3099914842,Innominada,19.4453663,-100.3759571
3099914836,Innominada,19.4463102,-100.3752885
9962208740,Innominada,19.4460128,-100.3743396
3099914830,Innominada,19.4459982,-100.3731284
3099914824,Innominada,19.4447228,-100.3724615
9962167175,Innominada,19.4457107,-100.3712615
6925197295,Innominada,19.4464739,-100.3707593
9962157358,Innominada,19.4478162,-100.3704686
3099914805,Innominada,19.4485591,-100.3697561
3099914802,Innominada,19.4482595,-100.3686901
8238700149,Innominada,19.4490694,-100.3671816
8452678526,Innominada,19.4499142,-100.3665085
9962113856,Innominada,19.4508161,-100.3659432
3099914426,Innominada,19.4517576,-100.365455
8238700166,Innominada,19.45257,-100.365967
3099914416,Innominada,19.4538056,-100.3651686
9931778703,Innominada,19.4546709,-100.3641782
8238746106,Carretera Zitácuaro-Loma Larga-Curungueo,19.4587039,-100.3608421
8238746099,Carretera Zitácuaro-Loma Larga-Curungueo,19.4599761,-100.3581157
3099914364,Carretera Zitácuaro-Loma Larga-Curungueo,19.4604628,-100.3572528
8249733628,Carretera Zitácuaro-Loma Larga-Curungueo,19.4604053,-100.3559872
8482660834,Carretera Zitácuaro-Loma Larga-Curungueo,19.460191,-100.355021
8249733631,Carretera Zitácuaro-Loma Larga-Curungueo,19.4602873,-100.3528649
3099914350,Carretera Zitácuaro-Loma Larga-Curungueo,19.4600257,-100.3507873
3099914343,Carretera Zitácuaro-Loma Larga-Curungueo,19.460283,-100.3481064
3887839781,Calle Aguacate,19.4234704,-100.3379304
3887839779,Calle Aguacate,19.4241609,-100.3388435
3261056059,Calle Aguacate,19.4248449,-100.339651
3261056021,Calle Aguacate y Calle Tapachula,19.4255375,-100.340464
9950184456,Calle Tapachula,19.4261951,-100.3410422
4775032857,Avenida Miguel Hidalgo Poniente y Calle Reforma Agraria Sur,19.4425236,-100.3655887
6859080284,Ex-hacienda Manzanillos,19.4328573,-100.3236618
2630694032,Av. Tecnologico,19.4358668,-100.3151676
9964492312,Av. Tecnologico,19.4373263,-100.3136471
2630694049,Tecnologico/Ex-hacienda Manzanillos y Av. Tecnologico,19.4394979,-100.3120096
8238087304,Tecnologico/Ex-hacienda Manzanillos,19.4427397,-100.3062779
8238087303,Tecnologico/Ex-hacienda Manzanillos,19.4432492,-100.3053274
6806029791,Tecnologico/Ex-hacienda Manzanillos,19.4433834,-100.3038107
2630694065,Tecnologico/Ex-hacienda Manzanillos,19.4433527,-100.3026558
6806102967,Innominada,19.4413141,-100.2973585
8241378191,Innominada,19.4407943,-100.2964358
8241378186,Innominada,19.4398787,-100.2948372
6806029693,Innominada,19.436554,-100.2936209
6621176151,Innominada,19.4310773,-100.2913692
6621053410,Innominada,19.4427017,-100.2989115
8241378198,Innominada,19.4429037,-100.2974765
6806029781,Innominada,19.4430529,-100.2962427
6621053414,Innominada,19.4430744,-100.2951255
6806029777,Innominada,19.4439319,-100.2941747
6621053421,Innominada,19.4441759,-100.29313
8241378206,Innominada,19.4433742,-100.2926002
8241378207,Innominada,19.442327,-100.2918519
6621053429,Innominada,19.4415177,-100.2913557
6621053431,Innominada,19.4406906,-100.2905041
9945675773,Innominada,19.4398894,-100.2900526
6806029763,Innominada,19.4390061,-100.2891013
8241378213,Innominada,19.4389112,-100.2881236
8241378216,Innominada,19.4381714,-100.287213
6806102889,Innominada,19.4371265,-100.2876403
6621053448,Innominada,19.43674,-100.2878601
1286494547,Calle Begonia,19.4253019,-100.3530778
1286493166,Calle Begonia,19.4250765,-100.3519101
1286493146,Calle Begonia y Calle Juan de la Barrera Sur,19.4248891,-100.3508839
1286493969,Mascota,19.4257365,-100.3518029
1286494328,Mascota y Calle Francisco Márquez,19.4259228,-100.3529287
1286493193,Calle Francisco Márquez,19.4271381,-100.3527169
1286493797,Avenida Revolución Sur,19.428766,-100.3524687
1215077663,Calle José María Morelos Norte y Calle José María Coss Poniente,19.4362776,-100.3594989
6621053446,Innominada,19.4378199,-100.2870198
8241378217,Innominada,19.4386596,-100.2875537
6806029760,Innominada,19.4388252,-100.2884871
6621053436,Innominada,19.4392325,-100.2894031
6806074771,Innominada,19.4402039,-100.2902533
6806029771,Innominada,19.4409726,-100.2908716
8241378201,Innominada,19.4431604,-100.2948788
8241378199,Innominada,19.4430618,-100.2960281
6852747891,Avenida Morelia y Calle Artillería Oriente,19.4267826,-100.3552899
6620937897,Innominada,19.4491631,-100.3068383
5381562081,Innominada,19.448179,-100.3067054
5381562078,Innominada,19.4473607,-100.306843
6620900563,Innominada,19.4477131,-100.3056818
6620921441,Innominada,19.4476642,-100.3048506
6620921437,Innominada,19.4466614,-100.3045405
6806102945,Innominada,19.4466733,-100.3032922
6928064933,Innominada,19.4467759,-100.3019164
6620921445,Innominada,19.4457743,-100.3018866
6806530393,Innominada,19.4446855,-100.3020406
2630694066,Tecnologico/Ex-hacienda Manzanillos,19.4433135,-100.3022642
6620921443,Innominada,19.4467471,-100.3017465
8241277894,Innominada,19.4476111,-100.3048094
8475634481,Innominada,19.4506066,-100.3072228
6794140487,Toluca - Morelia,19.4509814,-100.3075708
9980256729,Innominada,19.4197755,-100.32804
9980256731,Innominada,19.4200845,-100.329091
8238287580,Innominada,19.4201677,-100.329487
3261056425,Innominada,19.4199198,-100.3283707
9980256728,Innominada,19.4196048,-100.3274663
3261056419,Innominada,19.42073,-100.3273457
6924953830,Innominada,19.4229145,-100.3269209
1210585348,Toluca - Morelia y Carretera Zitácuaro - Lengua de Vaca,19.4514369,-100.2872335
8485290606,Carretera Morelia-Toluca,19.451637,-100.2898993
2338634461,Carretera Morelia-Toluca,19.4730059,-100.346897
1820722282,Carretera Morelia-Toluca,19.4723285,-100.3461773
3261026602,Calle de los Albañiles,19.4397916,-100.3259847
3887838722,Calle de los Albañiles,19.4388122,-100.3261923
3261026613,Calle de los Zapateros,19.4380007,-100.325979
3261026596,Calle de los Zapateros,19.4378615,-100.3250437
8241296917,Lago de Pátzcuaro,19.4373532,-100.3248954
3261026582,Lago de Pátzcuaro,19.4361461,-100.325355
8241296921,Lago de Pátzcuaro,19.4353058,-100.3251928
3261026577,Lago de Pátzcuaro,19.4340785,-100.3248802
6859087979,Lago de Pátzcuaro,19.4330705,-100.3250773
9969451884,Calle Lago de Pátzcuaro,19.4324321,-100.3258066
3262272555,Calle Lago de Pátzcuaro,19.432408,-100.3267653
8238095917,Calle Lago de Pátzcuaro,19.4320736,-100.3281149
3261014253,Calle Lago de Pátzcuaro,19.4319076,-100.3292715
9969451895,Calle Lago de Pátzcuaro,19.4319977,-100.3302836
6620946373,Calle Lago de Pátzcuaro,19.4323302,-100.3321641
3260964156,Calle Lago de Pátzcuaro,19.4324955,-100.3332944
3260964141,Calle Lago de Pátzcuaro,19.4327149,-100.3345582
9968140433,Calle Lago de Pátzcuaro,19.432972,-100.3357453
9968140448,Calle Lago de Pátzcuaro,19.4333968,-100.3365974
9969436230,Calle Lago de Pátzcuaro,19.4338353,-100.337415
6841401622,Calle Lago de Pátzcuaro,19.4342878,-100.3382415
4773767057,Presa de Valsequillo,19.4340898,-100.33905
4773767055,Presa de Valsequillo,19.4329542,-100.339412
3221789969,Presa de Valsequillo,19.4317215,-100.3396844
6775596704,Presa de Valsequillo y Calle Presa de Valsequillo,19.4303532,-100.339683
6775596732,Calle Presa de Valsequillo,19.429547,-100.3393613
8408316025,Periférico Francisco J. Múgica,19.4291831,-100.3395064
4694462111,Periférico Francisco J. Múgica,19.4296538,-100.3404911
3221789966,Calle Presa de Valsequillo,19.4297858,-100.3395607
6906381678,Presa de Valsequillo,19.4308286,-100.3396731
3221789961,Presa de Valsequillo,19.4321312,-100.3396342
4773767056,Presa de Valsequillo,19.433464,-100.3391076
3221790021,Calle Lago de Pátzcuaro y Presa de Valsequillo,19.4343731,-100.3390242
4773767061,Calle Lago de Pátzcuaro,19.4342502,-100.3376769
9969436233,Calle Lago de Pátzcuaro,19.4336786,-100.3370082
3260962981,Calle Lago de Pátzcuaro,19.4329861,-100.3358028
3260964136,Calle Lago de Pátzcuaro,19.4325136,-100.3333702
3261014240,Calle Lago de Pátzcuaro,19.4321836,-100.3310507
9969451896,Calle Lago de Pátzcuaro,19.4319327,-100.329991
3261014231,Calle Lago de Pátzcuaro,19.4319583,-100.3287382
3260962968,Calle Lago de Pátzcuaro,19.4322797,-100.3273773
6859080279,Calle Lago de Pátzcuaro,19.4324061,-100.3263391
9969451886,Calle Lago de Pátzcuaro,19.4324581,-100.3252817
3261026574,Lago de Pátzcuaro,19.4332817,-100.3250747
3261026578,Lago de Pátzcuaro,19.4345974,-100.3249568
4773767136,Lago de Pátzcuaro,19.4355641,-100.3253623
6803592148,Lago de Pátzcuaro,19.4365324,-100.3251717
3261026586,Lago de Pátzcuaro,19.437663,-100.3247425
3261026603,Calle de los Albañiles,19.4406978,-100.3257755
3254310064,Innominada,19.3680005,-100.3918218
3254310068,Innominada,19.3671092,-100.3916186
6870999263,Innominada,19.3666681,-100.3924951
3254310076,Innominada,19.3657689,-100.391781
3254310084,Innominada,19.3640263,-100.3925257
3254310089,Innominada,19.3631639,-100.3925742
3254310094,Innominada,19.362386,-100.392506
3254310100,Innominada,19.3617508,-100.3919192
6871030205,Innominada,19.3608781,-100.3918659
3254310109,Innominada,19.3599648,-100.3914101
6391603424,Innominada,19.3619592,-100.3846398
6871172695,Innominada,19.3620044,-100.3836224
6871165265,Innominada,19.361101,-100.3831328
6871165258,Innominada,19.3610327,-100.3828378
6391603439,Innominada,19.3619176,-100.3825724
6871165249,Innominada,19.3624435,-100.3814257
6871165246,Innominada,19.3626238,-100.3804661
6896209026,Innominada,19.3618991,-100.3800459
6391603454,Innominada,19.3620424,-100.3788225
6871165232,Innominada,19.3615287,-100.378042
6391603464,Innominada,19.3607354,-100.3777282
6871165224,Innominada,19.3603646,-100.3769711
