stop_id,stop_name,stop_lat,stop_lon
2587966406,Calle Miguel Alemán y Calle Benito Juárez,19.9525896,-99.5304981
2587966478,Calle Miguel Alemán,19.9515912,-99.5303265
2587966476,Calle Mariano Escobedo y Calle Francisco I. Madero,19.9517056,-99.5288317
7326513751,Calle Francisco I. Madero y Calle Benito Juárez,19.952722,-99.5290013
8095672557,Calle Francisco I. Madero,19.953987,-99.5291344
5184051067,Calle Pino Suárez,19.955266,-99.5292081
5184051101,Calle Constituyentes,19.9561968,-99.5289971
7330156137,Calle Constituyentes,19.9570993,-99.5294643
5184051089,Calle Constituyentes,19.9579478,-99.5298825
8427662018,Calle Constituyentes y Constituyentes,19.95826,-99.5310018
7330184612,Constituyentes y Avenida Andrés Molina Enríquez,19.9584104,-99.5326761
8393645526,Avenida Andrés Molina Enríquez,19.9602058,-99.5324688
9870927042,Avenida Andrés Molina Enríquez,19.9612027,-99.5323375
6467002382,Avenida Andrés Molina Enríquez,19.9627602,-99.532157
7330367408,Innominada,19.9641915,-99.5319136
8393856624,Innominada,19.964344,-99.5305941
7330216645,Ixtlahuaca - Jilotepec,19.9642814,-99.5292287
6467004407,Ixtlahuaca - Jilotepec,19.9645058,-99.5298472
6467002376,Ixtlahuaca - Jilotepec,19.9645497,-99.5311846
2587954082,Ixtlahuaca - Jilotepec,19.9645169,-99.5323665
9809434150,Ixtlahuaca - Jilotepec,19.9645103,-99.5333701
7330217077,Ixtlahuaca - Jilotepec,19.9645305,-99.5353617
297559325,Ixtlahuaca - Jilotepec,19.9645338,-99.5372374
2587954122,Ixtlahuaca - Jilotepec,19.9644322,-99.538542
7330217637,Ixtlahuaca - Jilotepec,19.9634494,-99.5403049
6476936905,Ixtlahuaca - Jilotepec,19.9628693,-99.5413192
6467004829,Ixtlahuaca - Jilotepec,19.9622222,-99.5424625
297559323,Ixtlahuaca - Jilotepec,19.9612364,-99.5441575
6476936903,Ixtlahuaca - Jilotepec,19.9601564,-99.5460254
302001981,Ixtlahuaca - Jilotepec,19.9591201,-99.5478483
7330403074,Innominada,19.9609204,-99.5483047
3015602332,Innominada,19.9633354,-99.5481787
7330367984,Innominada,19.964412,-99.5480338
3015569848,Innominada,19.9653977,-99.5481357
8382859019,Innominada,19.9661689,-99.5490753
8354213598,Innominada,19.9668736,-99.5499339
3015569849,Innominada,19.9687616,-99.5522342
3015569850,Innominada,19.9695326,-99.5530842
3015569851,Innominada,19.9709883,-99.5542581
8382963232,Innominada,19.9719654,-99.5555158
8354211463,Innominada,19.9723556,-99.5563017
5319088589,Innominada,19.9711569,-99.5566919
5319088591,Innominada,19.9704258,-99.5572511
7934256007,Innominada,19.9704237,-99.5584501
5319088593,Innominada,19.9698107,-99.5592119
6467004682,Innominada,19.9702741,-99.56032
7933647427,Innominada,19.9711959,-99.5617895
7933647428,Innominada,19.9716837,-99.5627256
7936682896,Innominada,19.9721339,-99.5637234
3015602318,Innominada,19.9723752,-99.5648728
7936544166,Innominada,19.9726026,-99.5661148
7937437414,Innominada,19.972773,-99.5670594
7933647429,Innominada,19.9729152,-99.5680853
7333645453,Innominada,19.9730056,-99.5694202
7936516940,Innominada,19.9732256,-99.5708321
3015602316,Innominada,19.9735133,-99.5716825
3015602315,Innominada,19.9749615,-99.5721991
7333645408,Innominada,19.975213,-99.5730755
7933647440,Innominada,19.9767116,-99.5735862
3015602311,Innominada,19.9782279,-99.574147
3015602308,Innominada,19.9791618,-99.5743556
3015602307,Innominada,19.9800303,-99.5747073
3015602305,Innominada,19.9801563,-99.5758509
7937734969,Innominada,19.9805136,-99.5767579
5319088564,Innominada,19.9817002,-99.5788242
7927135543,Innominada,19.9824454,-99.5802072
5319088561,Innominada,19.9816309,-99.5821407
7335833389,Innominada,19.9811242,-99.5835368
7335833387,Innominada,19.979407,-99.5834067
7937437432,Innominada,19.9781891,-99.5832314
5319088557,Innominada,19.9772678,-99.58294
7934331326,Innominada,19.9772578,-99.5828981
3015602299,Innominada,19.9773085,-99.5825466
5319088556,Innominada,19.9775208,-99.581383
7934331364,Innominada,19.9775513,-99.5804054
5319088554,Innominada,19.977021,-99.5793787
7934331358,Innominada,19.9769851,-99.5783595
7936516938,Innominada,19.9770868,-99.5771032
5319088549,Innominada,19.9773543,-99.5738501
3015602312,Innominada,19.9759044,-99.5733659
7333645409,Innominada,19.9751399,-99.5729072
7933647433,Innominada,19.9742355,-99.5719269
7933647431,Innominada,19.9733488,-99.5715447
7335851083,Innominada,19.9730897,-99.5699912
7933647430,Innominada,19.9729549,-99.5685305
5319088579,Innominada,19.9706432,-99.5608876
3015602320,Innominada,19.9698715,-99.5596739
5319088594,Innominada,19.9702953,-99.5590744
5319088588,Innominada,19.9720808,-99.5566464
8354213604,Innominada,19.9712055,-99.5545328
7330426049,Innominada,19.9701598,-99.5535605
4316497620,Innominada,19.9588805,-99.5483722
302001980,Ixtlahuaca - Jilotepec,19.957916,-99.5486566
6476936900,Ixtlahuaca - Jilotepec,19.9566168,-99.548644
8375600375,Innominada,19.9552201,-99.5483905
9398676752,Innominada,19.9542545,-99.548247
4316403086,Jilotepec - Maravilla,19.9537742,-99.5486024
6476936882,Jilotepec - Maravilla,19.9531359,-99.547927
10245512978,Avenida Vicente Guerrero Poniente,19.9525923,-99.5471876
9943562221,Avenida Vicente Guerrero Poniente,19.9527305,-99.5459736
10245511016,Avenida Vicente Guerrero Poniente,19.9528187,-99.5448669
10245511020,Avenida Vicente Guerrero Poniente,19.9529019,-99.5436554
7327022069,Avenida Vicente Guerrero Poniente,19.9530045,-99.5420477
7327005323,Avenida Vicente Guerrero Poniente y Avenida Constituyentes,19.953155,-99.5395294
7327005325,Avenida Constituyentes,19.9520338,-99.5396881
7327005328,Avenida Constituyentes,19.9509028,-99.540445
7327005332,Avenida Constituyentes,19.9503786,-99.5394732
2587966489,José María Morelos y Pavón Oriente,19.9504284,-99.5372026
2587966444,José María Morelos y Pavón Oriente,19.9505419,-99.5358599
7323853419,Cerrada Morelos,19.9506088,-99.5347917
7323853423,Innominada,19.9501221,-99.5336791
3156496710,Calle Licenciado Ismael Reyes Retana,19.9495803,-99.5326799
8354148565,Calle Licenciado Ismael Reyes Retana,19.9496799,-99.5315366
2587966405,Calle Licenciado Ismael Reyes Retana,19.9498234,-99.5301317
2587966457,Calle Licenciado Ismael Reyes Retana y Calle Francisco I. Madero,19.9499697,-99.5285252
9809434165,Innominada,19.9635221,-99.5320129
7330389114,Innominada,19.9647012,-99.540509
6467004844,Innominada,19.9651283,-99.5416276
7330369661,Innominada,19.9657192,-99.5429134
7330375837,Innominada,19.9664415,-99.5440302
7330369645,Innominada,19.9675035,-99.5452232
5319088612,Innominada,19.9688111,-99.5461965
5319088613,Innominada,19.9694805,-99.5469274
7330375798,Innominada,19.970475,-99.5472989
5319088615,Innominada,19.971685,-99.5481035
5319088616,Innominada,19.9725799,-99.5496217
5319088617,Innominada,19.9738227,-99.5502117
7330420931,Innominada,19.9745988,-99.5507418
7333659189,Innominada,19.9769676,-99.5524416
7333659200,Innominada,19.9787435,-99.5537509
5319088608,Innominada,19.9798298,-99.5545757
7333659197,Innominada,19.9797567,-99.5555949
7333659191,Innominada,19.9796383,-99.5566852
5319088604,Innominada,19.979487,-99.5580197
7934152251,Innominada,19.9784806,-99.5588397
5319088575,Innominada,19.9779922,-99.5607877
7333641321,Innominada,19.9778876,-99.5618927
5319088572,Innominada,19.9779177,-99.5629401
7333645465,Innominada,19.9781037,-99.5640038
5319088570,Innominada,19.9785026,-99.564988
7937437423,Innominada,19.9790074,-99.5661303
7934072038,Innominada,19.9795948,-99.5668699
7934072039,Innominada,19.9801254,-99.568214
7934072041,Innominada,19.9805375,-99.5692259
5319088567,Innominada,19.9808501,-99.5701077
9929762606,Avenida Andrés Molina Enríquez,19.9574233,-99.5326116
8428766815,Avenida Andrés Molina Enríquez y Calle Felipe Ángeles,19.9561972,-99.5324335
6467004438,Calle Felipe Ángeles,19.9560818,-99.5334914
2587966433,Calle Felipe Ángeles y Calle Ignacio Zaragoza Poniente,19.9559656,-99.5350181
5912916737,Calle Ignacio Zaragoza Poniente,19.9558753,-99.5364234
2587966480,Calle Ignacio Zaragoza Poniente,19.955766,-99.5377613
7327028428,Calle Ignacio Zaragoza Poniente,19.9556676,-99.5387506
5912968228,Avenida Constituyentes,19.9552714,-99.5392803
6467004436,Avenida Constituyentes,19.9543298,-99.5393124
5914092920,Avenida Reforma Poniente,19.954204,-99.5402457
5914092940,Avenida Reforma Poniente,19.954055,-99.5415838
5914092946,Avenida Reforma Poniente,19.9542617,-99.542858
10257983198,Calle Justo Sierra y Avenida Vicente Guerrero Poniente,19.953004,-99.5430176
10245511013,Avenida Vicente Guerrero Poniente,19.9528996,-99.544639
10245511015,Avenida Vicente Guerrero Poniente,19.9528026,-99.5459337
9943562220,Avenida Vicente Guerrero Poniente y Jilotepec - Maravilla,19.9526983,-99.5469647
6476936898,Jilotepec - Maravilla,19.9530759,-99.5478568
8371342470,Jilotepec - Maravilla,19.9542991,-99.5520815
6467002353,Jilotepec - Maravilla,19.954386,-99.5541473
7324047907,Jilotepec - Maravilla,19.9544434,-99.5552081
6467004813,Jilotepec - Maravilla,19.9544983,-99.5562217
8027098438,Jilotepec - Maravilla,19.9549379,-99.5574237
7333689141,Jilotepec - Maravilla,19.9555687,-99.558367
7333771373,Jilotepec - Maravilla,19.9563282,-99.5603344
6467004799,Jilotepec - Maravilla,19.9566673,-99.5614354
7933645758,Jilotepec - Maravilla,19.9568368,-99.5624567
2995227030,Jilotepec - Maravilla,19.9564258,-99.563948
7333771361,Jilotepec - Maravilla,19.95607,-99.5650755
7933645759,Jilotepec - Maravilla,19.9558113,-99.5664029
2995227032,Jilotepec - Maravilla,19.9556172,-99.5677654
7933645762,Jilotepec - Maravilla,19.9553852,-99.5698562
7324082047,Jilotepec - Maravilla,19.9554231,-99.5713174
4333430878,Jilotepec - Maravilla,19.9553929,-99.5725585
3627288742,Jilotepec - Maravilla,19.9553764,-99.5735329
3627288744,MEX-13,19.955914,-99.5744794
3627288743,MEX-13,19.9569238,-99.5750215
7936682974,MEX-13,19.95819,-99.5764432
7933645770,MEX-13,19.9589413,-99.5771532
2995228040,MEX-13,19.9603884,-99.5773382
7933676645,MEX-13,19.9611989,-99.5777003
7933676647,MEX-13,19.9616263,-99.5787028
7936649792,MEX-13,19.9619665,-99.5795989
7333777657,MEX-13,19.9623964,-99.5807728
2995228043,MEX-13,19.9630941,-99.5822494
7936759503,MEX-13,19.9639213,-99.5836424
7933676649,MEX-13,19.9644108,-99.5845769
7933676651,MEX-13,19.9644076,-99.5855907
2995228047,Prolongación Carretera,19.9649679,-99.5864591
2995228048,Prolongación Carretera,19.9664414,-99.5869848
7333777651,Prolongación Carretera,19.9675418,-99.5875923
7936845378,Prolongación Carretera,19.9686189,-99.5882113
2995228050,MEX-13,19.9693519,-99.5893224
2995228051,MEX-13,19.9694477,-99.5902792
2995228052,MEX-13,19.9689851,-99.592081
2995228053,MEX-13,19.9688578,-99.5932974
7936869486,Avenida Independencia,19.969234,-99.5941805
7936869488,Avenida Independencia,19.9701523,-99.595124
2995228057,Avenida Independencia,19.9710863,-99.5962539
7936869489,Avenida Independencia,19.9717953,-99.5972389
2995228059,Avenida Independencia,19.9727058,-99.5991652
2997143706,Avenida Independencia,19.9734684,-99.6008633
2995264765,Avenida Independencia,19.9739071,-99.6018573
7357392012,Avenida Independencia,19.97456,-99.6036903
2995309592,Avenida Independencia,19.9752166,-99.6055987
2995309593,Avenida Independencia,19.975597,-99.6068107
2995264766,Avenida Independencia,19.9763066,-99.6075279
7357395975,Avenida Independencia,19.9773858,-99.6083019
2995264769,Avenida Independencia,19.9784781,-99.6090483
2995309617,Avenida Independencia,19.9793662,-99.6097173
4005048739,Avenida Independencia,19.9811372,-99.6109531
2997140720,Avenida Independencia,19.9828408,-99.6121402
7930574597,Avenida Independencia,19.9843268,-99.6132047
7357448838,Avenida Independencia,19.9858415,-99.6142483
7930521961,Avenida Independencia,19.9870693,-99.6150434
2995228077,Avenida Independencia,19.9894236,-99.6160291
2995228078,Avenida Independencia,19.9906638,-99.6165025
7941229580,Avenida Independencia,19.9930598,-99.6174322
7357418979,Innominada,19.9940391,-99.6166417
7357418978,Innominada,19.9944648,-99.614688
2995232061,Innominada,19.9947656,-99.6134187
7930453659,Innominada,19.9956356,-99.612207
2995232062,Innominada,19.9963832,-99.6113537
7930453661,Innominada,19.9971145,-99.6107901
7357458618,Innominada,19.9978322,-99.6095036
7930453663,Innominada,19.9984365,-99.6086376
7357458620,Innominada,20.0002884,-99.607725
2995232066,Innominada,20.0011403,-99.6069069
7357458621,Innominada,20.0025719,-99.604442
2995232069,Innominada,20.0042738,-99.6031659
7930733397,Innominada,20.0047779,-99.6021453
7930453675,Innominada,20.0048736,-99.6007955
7930453677,Innominada,20.0052296,-99.5991801
2995232075,Innominada,20.0053141,-99.5972208
7930453678,Innominada,20.005373,-99.5962173
2995232078,Innominada,20.0050443,-99.5945074
7357462428,Innominada,20.0048115,-99.593297
7357458623,Innominada,20.0046959,-99.5922118
7930453681,Innominada,20.0056115,-99.5906849
7930453684,Innominada,20.0062724,-99.589834
7348076601,Innominada,20.0074614,-99.5888516
7348170698,Innominada,20.0079844,-99.5880926
7348170697,Innominada,20.0079062,-99.5869446
7348170695,Innominada,20.0079239,-99.5848122
7348170694,Innominada,20.0079567,-99.5835872
7927801945,Innominada,20.0079366,-99.5821972
7348170692,Innominada,20.0079277,-99.5811282
7357465337,Innominada,20.0076915,-99.5800588
7348170688,Innominada,20.0075421,-99.5785379
7348170687,Innominada,20.0074487,-99.5774536
7926974532,Innominada,20.0075862,-99.5750872
7348069284,Innominada,20.0082805,-99.5729978
7893231749,Innominada,20.0086069,-99.5720724
7892901602,Innominada,20.0090574,-99.5711464
7348069282,Innominada,20.009547,-99.5702827
7348069280,Innominada,20.0099477,-99.568204
7348069279,Innominada,20.0100964,-99.5665115
7892901590,Innominada,20.0102476,-99.5652804
7892899679,Innominada,20.0105916,-99.5646514
7892899678,Innominada,20.0116653,-99.5650966
7348265623,Innominada,20.0128699,-99.5655794
7893543346,Innominada,20.0143181,-99.5661463
7892899672,Innominada,20.0159459,-99.5667985
7364296181,Innominada,20.0169943,-99.5672545
7892899670,Innominada,20.017836,-99.5675951
7348076604,Innominada,20.0200764,-99.5684454
7892899669,Innominada,20.0216414,-99.569073
7892899667,Innominada,20.0225865,-99.5694566
7893569235,Innominada,20.0243361,-99.5701734
2996969705,Innominada,20.0252401,-99.5705295
7364287150,Innominada,20.0242749,-99.5716788
7892698634,Innominada,20.0236096,-99.5724566
7892698628,Innominada,20.0226482,-99.5735818
7892698632,Innominada,20.0220358,-99.5742913
7364287145,Innominada,20.021242,-99.5752595
7892698627,Innominada,20.0205817,-99.576028
7892698623,Innominada,20.0190041,-99.5778868
7364287173,Innominada,20.018141,-99.5788926
7892698622,Innominada,20.0173055,-99.5797616
7892698615,Innominada,20.0165444,-99.5806454
7892698608,Innominada,20.0156397,-99.5811778
7892698606,Innominada,20.014808,-99.5815051
7892698596,Innominada,20.0141553,-99.5822132
2996969695,Innominada,20.0134408,-99.583215
7892698595,Innominada,20.0128523,-99.5839325
7892662783,Innominada,20.0126028,-99.584996
7892698587,Innominada,20.0125726,-99.5861815
7919586921,Innominada,20.0125373,-99.5872638
7348076594,Innominada,20.0125158,-99.5874797
7940869037,Calzada Guadalupe,19.9779562,-99.6082847
7940869036,Calzada Guadalupe,19.9780829,-99.6073143
7941340047,Guadalupe Victoria,19.9785819,-99.6063887
2995309614,Guadalupe Victoria y Calle Toluca,19.9797792,-99.605185
2995309601,Calle Toluca,19.9806338,-99.6043724
7936890113,Calle Toluca,19.9813344,-99.6037268
7930453654,Calle Toluca,19.9821912,-99.603243
7357194761,Calle Toluca,19.9835295,-99.602524
2996943720,Calle Toluca,19.9845753,-99.6019424
2996943721,Calle Toluca,19.9860551,-99.600413
7930453651,Calle Toluca,19.9874752,-99.5967172
7357174282,Calle Toluca,19.9888295,-99.5932301
7357174279,Calle Toluca,19.9902595,-99.5894893
2996943727,Innominada,19.9941619,-99.5792234
7347746673,Innominada,19.9797149,-99.5671347
5319088569,Innominada,19.9791587,-99.5663774
7934072035,Innominada,19.9781151,-99.5640694
5319088573,Innominada,19.9783211,-99.5595029
5319088602,Innominada,19.9789482,-99.5583274
5319088605,Innominada,19.9796155,-99.5575932
8440405189,Innominada,19.9796543,-99.5564931
5319088607,Innominada,19.979908,-99.5548211
5319088618,Innominada,19.9750327,-99.5510151
8382963236,Innominada,19.9706337,-99.5474044
7330375799,Innominada,19.9696431,-99.5470226
7330375854,Innominada,19.9666527,-99.5443639
7330369657,Innominada,19.9660621,-99.5434346
5319088610,Innominada,19.9651406,-99.5419746
6467004842,Innominada,19.9647549,-99.5406711
6467004841,Innominada,19.9642734,-99.5392174
7330217075,Ixtlahuaca - Jilotepec,19.9633948,-99.5400931
2587954115,Ixtlahuaca - Jilotepec,19.9641143,-99.5388528
2587954075,Ixtlahuaca - Jilotepec,19.9643605,-99.537919
7330217076,Ixtlahuaca - Jilotepec,19.9643712,-99.5353623
8842991204,Ixtlahuaca - Jilotepec,19.9643552,-99.5336066
6467002357,Ixtlahuaca - Jilotepec,19.9643676,-99.5326281
6476936629,Innominada,19.9634254,-99.5322814
6467002369,Innominada,19.9618998,-99.5324596
5912968237,Bulevar Andrés Molina Enríquez,19.9607131,-99.5325228
7330184613,Bulevar Andrés Molina Enríquez,19.9592268,-99.5327117
8395937615,Constituyentes y Avenida Andrés Molina Enríquez,19.9583491,-99.5326752
7327163243,Constituyentes,19.9583136,-99.531384
7327163257,Calle Constituyentes,19.9580398,-99.5304573
7327163261,Calle Constituyentes,19.9576215,-99.5296135
7327163244,Calle Constituyentes,19.9568261,-99.5292194
5184051062,Calle Emiliano Zapata y Calle Constituyentes,19.9557213,-99.5289628
2587966425,Calle Francisco I. Madero y Calle Pino Suárez y Calle Vicente Guerrero Oriente,19.9541268,-99.5291159
2587966439,Calle Francisco I. Madero y Calle Benito Juárez,19.9527747,-99.5290101
7919790245,Innominada,20.0118051,-99.5885271
7919586931,Innominada,20.0109848,-99.5889737
7919586932,Innominada,20.0101128,-99.5886558
7930574657,Innominada,20.008957,-99.588624
2995232083,Innominada,20.0080007,-99.588681
2995232080,Innominada,20.00481,-99.5918906
2995232076,Innominada,20.0053588,-99.5961117
7357458622,Innominada,20.0053078,-99.5982367
2995232072,Innominada,20.0048963,-99.6005454
7930453672,Innominada,20.0048777,-99.6015784
2995232070,Innominada,20.0046096,-99.6026275
2995232068,Innominada,20.0028516,-99.6041328
7930453666,Innominada,20.0012543,-99.6067393
2995232065,Innominada,20.000633,-99.6074883
7357458619,Innominada,19.9987068,-99.6084465
7930453660,Innominada,19.9972878,-99.6105453
7930487786,Innominada,19.9964375,-99.6113134
7930453656,Innominada,19.9948892,-99.6131079
7940953928,Innominada,19.9940832,-99.616471
2995232060,Avenida Independencia,19.9937313,-99.61768
4005044136,Avenida Independencia,19.9913746,-99.6167855
7357448848,Avenida Independencia,19.9902466,-99.616347
7930521962,Avenida Independencia,19.9875016,-99.6152741
7357463697,Avenida Independencia,19.9859963,-99.6143437
7942092978,Avenida Independencia,19.9811594,-99.6109686
7357129757,Avenida Independencia,19.9783553,-99.6090959
7357129758,Avenida Independencia,19.9774131,-99.608439
7357129761,Avenida Independencia,19.9762305,-99.6075922
7357129764,Avenida Independencia,19.9755278,-99.6068418
7357129765,Avenida Independencia,19.9751497,-99.6056244
7357129766,Avenida Independencia,19.9748074,-99.6046017
7357392009,Avenida Independencia,19.9743169,-99.6032228
7357129767,Avenida Independencia,19.9738356,-99.601893
7357129768,Avenida Independencia,19.9733938,-99.6008958
7357129769,Avenida Independencia,19.972929,-99.5998073
7357110550,Avenida Independencia,19.9719494,-99.5975338
7936869487,Avenida Independencia,19.969367,-99.5943321
7936845384,MEX-13,19.9688603,-99.5934516
7936845383,MEX-13,19.9689347,-99.5923774
7940939871,MEX-13,19.9694181,-99.5904308
7936845379,Prolongación Carretera,19.9689,-99.5884312
7936845376,Prolongación Carretera,19.9666103,-99.5870485
7937438613,Prolongación Carretera,19.9656062,-99.5866868
7933676653,Prolongación Carretera,19.9646458,-99.5862492
2995228045,MEX-13,19.9644587,-99.584827
5319088538,MEX-13,19.9594257,-99.577332
7933645769,MEX-13,19.9585001,-99.5768219
2995228038,MEX-13,19.9575446,-99.5755774
2995228037,MEX-13,19.9562068,-99.574671
7933645764,Jilotepec - Maravilla,19.9554508,-99.5738179
7933645761,Jilotepec - Maravilla,19.9554193,-99.5715158
2995228033,Jilotepec - Maravilla,19.9553739,-99.570099
7933645757,Jilotepec - Maravilla,19.9567908,-99.5629147
2995227028,Jilotepec - Maravilla,19.9558884,-99.559041
7933676654,Jilotepec - Maravilla,19.9554275,-99.5581296
7333689140,Jilotepec - Maravilla,19.954615,-99.5569468
7324047913,Jilotepec - Maravilla,19.9544758,-99.5558061
8374085549,Jilotepec - Maravilla,19.9543332,-99.5528928
4316403092,Jilotepec - Maravilla,19.9541796,-99.5492424
6476936880,Jilotepec - Maravilla,19.9533888,-99.548236
10245512977,Innominada,19.9526573,-99.5474761
9943562222,Avenida Vicente Guerrero Poniente,19.9527085,-99.5464435
10245511026,Avenida Vicente Guerrero Poniente,19.9527726,-99.5454121
4316496414,Calle Benito Juárez,19.9529155,-99.5268269
4316496416,Calle Benito Juárez,19.9531983,-99.5246177
4316402807,Calle Benito Juárez,19.9533431,-99.5232964
4316402813,Innominada,19.9523794,-99.5233581
4316402817,Innominada,19.9508518,-99.5233747
8382834445,Innominada,19.9502199,-99.5212791
4316402828,Innominada,19.9500628,-99.5201851
4316402830,Innominada,19.9494017,-99.5179198
4316402831,Innominada,19.9490857,-99.5168974
4316402834,Innominada,19.9487073,-99.515658
4316402839,Innominada,19.9483852,-99.5118707
6467002337,Innominada,19.9482765,-99.5102858
8377836762,Innominada,19.9481812,-99.5091683
7313965172,Innominada,19.9479601,-99.5076684
4316402851,Innominada,19.9476527,-99.5067955
4316402857,Innominada,19.9466108,-99.5067788
4316402860,Innominada,19.946774,-99.5057997
8377869571,Innominada,19.9473529,-99.5048477
7313853127,Innominada,19.946752,-99.5035566
4316402870,Innominada,19.9449516,-99.5015589
5184049769,Innominada,19.9442363,-99.5008604
7812673821,Innominada,19.9434319,-99.500265
7812673819,Innominada,19.9425369,-99.4996534
7822288935,Innominada,19.9418334,-99.4985812
4316402882,Innominada,19.9415958,-99.4976257
7812673812,Innominada,19.9408148,-99.4969833
4316402993,Innominada,19.9400201,-99.4965069
4316403000,Innominada,19.9396291,-99.4956918
7313894301,Innominada,19.9387674,-99.4947115
4316403008,Innominada,19.9379013,-99.494395
7812673791,Innominada,19.9370187,-99.4943923
7812635284,Innominada,19.9360606,-99.4942112
7313894336,Innominada,19.9351781,-99.4939202
4316403052,Innominada,19.934982,-99.4933623
7812673846,Innominada,19.9352512,-99.4925281
4316403059,Innominada,19.9363253,-99.4921352
4316403062,Innominada,19.937186,-99.4917559
7812673857,Innominada,19.9380967,-99.4919086
7812673863,Innominada,19.9389275,-99.4914566
4316403070,Innominada,19.9397179,-99.4909577
7812673869,Innominada,19.9410555,-99.491128
7812673873,Innominada,19.9420502,-99.4912139
7812673875,Innominada,19.9430777,-99.4908558
4316403075,Innominada,19.9439261,-99.4904058
7812673893,Innominada,19.945212,-99.4900914
7812673888,Innominada,19.9461285,-99.4898915
4316403079,Innominada,19.9471687,-99.4898409
7313861495,Innominada,19.9480775,-99.4899344
7812673881,Innominada,19.9488944,-99.4893792
7313838197,Innominada,19.9494629,-99.4883238
7812673878,Innominada,19.9498877,-99.4873488
7812841203,Innominada,19.9497642,-99.4863711
7313838272,Innominada,19.9503239,-99.4853757
7313838268,Innominada,19.9491541,-99.4847578
7812841195,Innominada,19.9482691,-99.4842884
7313838265,Innominada,19.9473539,-99.4840001
7812841189,Innominada,19.9470072,-99.4829486
7313838259,Innominada,19.9471295,-99.4818503
7822273722,Innominada,19.9481733,-99.479785
7313838256,Innominada,19.9483422,-99.4787576
7313838254,Innominada,19.9483145,-99.4774568
7313838253,Innominada,19.9484027,-99.476223
7313838251,Innominada,19.9486265,-99.4750978
7812903603,Innominada,19.9483094,-99.4772047
7313838258,Innominada,19.9476186,-99.4811019
7313838260,Innominada,19.9466706,-99.4826885
7313838263,Innominada,19.9472568,-99.4834462
7313838267,Innominada,19.9480535,-99.4842052
7812841198,Innominada,19.9490204,-99.4847015
7812841199,Innominada,19.949942,-99.4850273
7313838269,Innominada,19.949826,-99.4862276
4316403084,Innominada,19.9499293,-99.487267
7812673874,Innominada,19.9421284,-99.4912072
7812673868,Innominada,19.9399789,-99.4909832
7822273716,Innominada,19.9391342,-99.4911911
7812673859,Innominada,19.9384169,-99.4918616
4316403063,Innominada,19.937402,-99.4917409
4316403058,Innominada,19.9353911,-99.4924691
4316403053,Innominada,19.9350835,-99.4932275
7812673789,Innominada,19.9369255,-99.4943561
7812673800,Innominada,19.9394217,-99.4954853
4316402994,Innominada,19.9399487,-99.4963436
4316402868,Innominada,19.9462757,-99.5030656
4316402866,Innominada,19.9472353,-99.5040564
4316402862,Innominada,19.9473106,-99.5051048
4316402859,Innominada,19.9463762,-99.5065287
4316402853,Innominada,19.9472731,-99.5067893
4316402844,Innominada,19.9481546,-99.5088567
7313965134,Innominada,19.9482438,-99.5099025
4316402835,Innominada,19.9485998,-99.5151152
5914093091,Innominada,19.9504488,-99.5228726
4316402815,Innominada,19.9521316,-99.5233937
4316402808,Innominada,19.9531515,-99.5232274
8095672540,Calle Benito Juárez,19.952731,-99.5289002
7348307905,Innominada,19.9951345,-99.5806232
7348257509,Innominada,19.9957115,-99.5816231
7348257511,Innominada,19.9957641,-99.5830299
7348257513,Innominada,19.9961598,-99.5846728
7348257515,Innominada,19.996691,-99.5856819
7348257517,Innominada,19.9968586,-99.5866348
7930521917,Innominada,19.9974976,-99.5870022
7930521915,Innominada,19.9984415,-99.5869285
7348257525,Innominada,19.9990849,-99.5852038
7348257526,Innominada,19.9994717,-99.5842208
7348257527,Innominada,19.999853,-99.5831546
7927166931,Innominada,20.0007836,-99.5815909
7348257530,Innominada,20.0010949,-99.5806695
7348257533,Innominada,20.0009859,-99.5793512
7348307925,Innominada,20.0009613,-99.5780926
7348257537,Innominada,20.0012852,-99.5768561
7348257538,Innominada,20.0018019,-99.5757584
7927732443,Innominada,20.0022152,-99.5745298
7348257540,Innominada,20.00265,-99.5729515
7348170718,Innominada,20.0025379,-99.5721556
7348170720,Innominada,20.0014931,-99.5716483
7348170724,Innominada,20.0012918,-99.570739
7348170727,Innominada,20.0003022,-99.5699193
7348170728,Innominada,19.9992764,-99.5695139
7926974551,Innominada,19.998277,-99.5692065
7926974552,Innominada,19.9971,-99.568613
7347777443,Innominada,19.9961863,-99.5681906
2996943732,Innominada,19.996341,-99.5694301
7926955705,Innominada,19.9962884,-99.5704758
7926955701,Innominada,19.9960124,-99.5715507
7927232266,Innominada,19.9958004,-99.5728167
7347958394,Innominada,19.9956494,-99.5742014
7347777438,Innominada,19.995294,-99.5761548
7347777437,Innominada,19.9947004,-99.5777933
7347777436,Innominada,19.9941837,-99.579156
7347777434,Calle Toluca,19.9861991,-99.60017
7357194772,Calle Toluca,19.9851107,-99.601399
7347777433,Calle Toluca,19.9835706,-99.6025014
2995309610,Guadalupe Victoria,19.9786957,-99.6062091
2995309609,Guadalupe Victoria y Calzada Guadalupe,19.9781931,-99.6070027
7143177125,Calzada Guadalupe,19.9780199,-99.6082575
7347958401,Innominada,19.9945587,-99.5686184
7347958403,Innominada,19.9935838,-99.5693469
7926974520,Innominada,19.9933034,-99.5702552
7927207944,Innominada,19.9933463,-99.5713308
7347958409,Innominada,19.9934414,-99.5727107
7927097059,Innominada,19.9931837,-99.5740673
7927097060,Innominada,19.9929934,-99.5751999
7347958414,Innominada,19.9930047,-99.5762868
7927097069,Innominada,19.9936021,-99.5771746
7927097070,Innominada,19.9938488,-99.578625
2995228085,Avenida Independencia y Carretera a Llano Grande,19.9940615,-99.6178128
2995774428,Carretera a Llano Grande,19.9937162,-99.6194784
4005044132,Carretera a Llano Grande,19.9931465,-99.622166
2995774754,Carretera a Llano Grande,19.9928831,-99.6233475
2995228087,Carretera a Llano Grande,19.9925,-99.6251969
4005037294,Carretera a Llano Grande,19.9922429,-99.6265876
2995228088,Carretera a Llano Grande,19.9922984,-99.6278208
7940953934,Carretera a Llano Grande,19.9926667,-99.6290965
7940953937,Carretera a Llano Grande,19.9929896,-99.630222
2995228091,Carretera a Llano Grande,19.9928189,-99.6313887
7940953929,Carretera a Llano Grande,19.9923431,-99.633782
7377171987,Carretera a Llano Grande,19.9920999,-99.6348958
4005050689,Carretera a Llano Grande,19.9914447,-99.6387365
4005049155,Carretera a Llano Grande,19.9910103,-99.6409133
7377171998,Carretera a Llano Grande,19.9901899,-99.6439362
7936838757,Carretera a Llano Grande,19.9897043,-99.645294
2995228097,Carretera a Llano Grande,19.988865,-99.6474274
7377171995,Carretera a Llano Grande,19.9887846,-99.648567
7936838766,Carretera a Llano Grande,19.9886958,-99.6495574
7936838767,Carretera a Llano Grande,19.9885792,-99.6510494
2995228099,Carretera a Llano Grande,19.9886706,-99.6520398
7936838773,Carretera a Llano Grande,19.9876182,-99.6538221
7936838777,Carretera a Llano Grande,19.9877398,-99.6559558
2995228102,Carretera a Llano Grande,19.9876724,-99.6575122
7936838784,Innominada,19.9880603,-99.6596212
7936890186,Innominada,19.9886803,-99.6619569
7377190998,Innominada,19.9892302,-99.6634482
3015749408,Innominada,19.991677,-99.6682651
7936890191,Innominada,19.9918399,-99.6692488
7936890192,Innominada,19.9925781,-99.6699938
7936890194,Innominada,19.9927924,-99.671858
7936890196,Innominada,19.9929124,-99.6734804
3015749413,Innominada,19.9930734,-99.6750525
7377173048,Innominada,19.9931553,-99.6762823
8021258853,Innominada,19.9933015,-99.6776931
3015749415,Innominada,19.9939257,-99.6786442
7377173047,Innominada,19.9941258,-99.6796149
8021258862,Innominada,19.9944963,-99.6805899
8021258880,Innominada,19.9953419,-99.6811035
8021258882,Innominada,19.9958977,-99.6814254
8021278285,Innominada,19.9961491,-99.6833083
6467127618,Innominada,19.9961309,-99.6844831
6467127621,Innominada,19.9968416,-99.6860012
8021245799,Innominada,19.9949071,-99.6871975
8021245795,Innominada,19.9939934,-99.6871754
8021245791,Innominada,19.9909057,-99.6877138
8021245785,Innominada,19.9899781,-99.6876528
8021245788,Innominada,19.9887468,-99.6875972
6467124878,Innominada,19.9877827,-99.6876266
8021258845,Innominada,19.9869244,-99.6876964
6467124873,Innominada,19.9856722,-99.688198
6467124871,Innominada,19.9845307,-99.6882947
8021258831,Innominada,19.9829978,-99.6886298
8021258829,Innominada,19.9818679,-99.6886486
8021451188,Innominada,19.9807877,-99.6886124
8021440884,Innominada,19.979492,-99.6888243
7431834181,Innominada,19.9783463,-99.6885788
7403424560,Innominada,19.9780929,-99.6871173
6467127594,Innominada,19.9778741,-99.6858896
6467127591,Innominada,19.9786715,-99.6854313
6467127587,Innominada,19.9777632,-99.6850075
6467125983,Innominada,19.9766146,-99.6851416
7403391097,Innominada,19.9758951,-99.6851385
8021481625,Innominada,19.9748531,-99.6848841
7403391094,Innominada,19.9738031,-99.6850879
8021481616,Innominada,19.9724779,-99.6861677
3015749339,Innominada,19.9715058,-99.6868153
8021481611,Innominada,19.970574,-99.6869682
2997156152,Innominada,19.9692612,-99.6869143
3015749341,Innominada,19.9674284,-99.6864156
6467127513,Innominada,19.9648829,-99.685219
8021478868,Innominada,19.9640238,-99.6835296
3015749344,Innominada,19.9629645,-99.6815458
8021478865,Innominada,19.962278,-99.6805899
8021478861,Innominada,19.9614321,-99.6799958
3015749349,Innominada,19.9609317,-99.6793534
8021478856,Innominada,19.9625149,-99.677791
8021478857,Innominada,19.9610036,-99.6792756
3015749345,Innominada,19.9622087,-99.6805096
8021478866,Innominada,19.9629044,-99.6814576
5624758243,Innominada,19.9645985,-99.6847278
3015749340,Innominada,19.9683739,-99.6868443
7403391116,Innominada,19.9731621,-99.6854801
7403391096,Innominada,19.9743924,-99.684872
8021481626,Innominada,19.9753567,-99.6850625
6467127595,Innominada,19.9766229,-99.682286
2997156146,Innominada,19.977065,-99.680374
8021481636,Innominada,19.9776144,-99.6796247
2997156145,Innominada,19.9792893,-99.6776991
6467127661,Innominada,19.9804962,-99.6763534
2997156144,Innominada,19.9829194,-99.6735662
8021320156,Innominada,19.9835525,-99.6728111
7431802941,Innominada,19.9842678,-99.6717094
2995228119,Carretera Palmito Huapango,19.9858231,-99.6693487
7377190999,Carretera Palmito Huapango,19.9894358,-99.6638714
7936838783,Innominada,19.9876617,-99.6584335
2995228101,Carretera a Llano Grande,19.9877386,-99.6564929
7936838776,Carretera a Llano Grande,19.9875716,-99.654041
7377132882,Carretera a Llano Grande,19.9882566,-99.6527928
7936838764,Carretera a Llano Grande,19.988576,-99.6516499
7936838762,Carretera a Llano Grande,19.9886882,-99.6496275
7377171993,Carretera a Llano Grande,19.9888344,-99.6476081
7936838755,Carretera a Llano Grande,19.9908682,-99.6416053
7940953930,Carretera a Llano Grande,19.992085,-99.6349769
2995228093,Carretera a Llano Grande,19.9923217,-99.6338993
7940953932,Carretera a Llano Grande,19.9929953,-99.6303846
2995228089,Carretera a Llano Grande,19.9923444,-99.6281252
7377172005,Carretera a Llano Grande,19.9922467,-99.6267439
7357463086,Carretera a Llano Grande,19.9923992,-99.6256877
4005038893,Carretera a Llano Grande,19.9936141,-99.6199277
7357418972,Carretera a Llano Grande,19.9939531,-99.6183425
7357418970,Avenida Independencia,19.9934049,-99.6175633
7941229576,Avenida Independencia,19.9961503,-99.6186125
7941229573,Avenida Independencia,19.9973041,-99.6190573
2995375858,Avenida Independencia,19.9989456,-99.619687
2995723245,Avenida Independencia,20.0015599,-99.6197872
7364409328,Avenida Independencia,20.0026147,-99.6204574
7940953907,Avenida Independencia,20.0058421,-99.6250239
7364409330,Avenida Independencia,20.0072094,-99.6271925
2995375866,Avenida Independencia,20.0089522,-99.6298586
7975563592,Carretera Palmito Huapango,20.0093019,-99.631476
3015749386,Carretera Palmito Huapango,20.009134,-99.632621
3015749387,Carretera Palmito Huapango,20.0087556,-99.635274
3015749389,Carretera Palmito Huapango,20.0083045,-99.6362624
7377191005,Carretera Palmito Huapango,20.0057917,-99.6391082
3015749391,Carretera Palmito Huapango,20.0039392,-99.6406209
3015749392,Carretera Palmito Huapango,19.9999928,-99.6439248
7377191004,Carretera Palmito Huapango,19.9988029,-99.6448448
7936890233,Carretera Palmito Huapango,19.9965587,-99.6478649
3015749394,Carretera Palmito Huapango,19.9948691,-99.6502842
7387182665,Carretera Palmito Huapango,19.9935946,-99.6521404
3015749396,Carretera Palmito Huapango,19.992587,-99.6529551
7936890243,Carretera Palmito Huapango,19.9920334,-99.6548055
7936890241,Carretera Palmito Huapango,19.9917268,-99.6557479
7936890248,Carretera Palmito Huapango,19.9910929,-99.6565425
3015749403,Carretera Palmito Huapango,19.9904463,-99.6604861
3015749404,Carretera Palmito Huapango,19.9905194,-99.6615905
3015749407,Carretera Palmito Huapango,19.989486,-99.6637986
3015749405,Carretera Palmito Huapango,19.99036,-99.6624421
7377191001,Carretera Palmito Huapango,19.9904319,-99.6608461
7936890250,Carretera Palmito Huapango,19.9910349,-99.6567303
3015749400,Carretera Palmito Huapango,19.9916569,-99.6558572
3015749399,Carretera Palmito Huapango,19.9920022,-99.6549198
3015749398,Carretera Palmito Huapango,19.99219,-99.6536055
7936890240,Carretera Palmito Huapango,19.9934502,-99.65231
3015749393,Carretera Palmito Huapango,19.9982695,-99.6454382
7936890235,Carretera Palmito Huapango,19.9998057,-99.6440743
7975563589,Carretera Palmito Huapango,20.0094625,-99.630503
2995375865,Avenida Independencia,20.0072711,-99.6272853
7364409332,Avenida Independencia,20.003122,-99.620896
2995723244,Avenida Independencia,20.0017105,-99.6198405
2995375859,Avenida Independencia,19.9991551,-99.6197265
2995228083,Avenida Independencia,19.9974768,-99.6191204
7975638560,Avenida Independencia,20.0176949,-99.6357482
7382926153,Avenida Independencia,20.0222878,-99.6387903
7975434011,Avenida Independencia,20.0232467,-99.6394327
7975434012,Avenida Independencia,20.0243908,-99.6401878
7975434014,Avenida Independencia,20.0259293,-99.641203
2995375869,Avenida Independencia,20.0273103,-99.6421123
2995375870,Avenida Independencia,20.0283422,-99.6423671
7975563684,Carretera a El Saltillo,20.0286875,-99.6429364
7975563686,Carretera a El Saltillo,20.0284027,-99.6444941
5492445011,Carretera a El Saltillo,20.0275246,-99.649578
7382949274,Carretera a El Saltillo,20.0268034,-99.653572
2996940920,Carretera a El Saltillo,20.0260308,-99.657968
7975615210,Carretera a El Saltillo,20.0252092,-99.6626607
2996940923,Carretera a El Saltillo,20.0224447,-99.6678039
7391161956,Carretera a El Saltillo,20.0217594,-99.6690973
7391161963,Carretera a El Saltillo,20.0213214,-99.6699697
2996940924,Carretera a El Saltillo,20.0206923,-99.6711245
7975970494,Carretera a El Saltillo,20.0197828,-99.6723508
2996940926,Carretera a El Saltillo,20.0192495,-99.6732951
7845134055,Carretera a El Saltillo,20.0185725,-99.6751336
7431791618,Carretera a El Saltillo,20.0185517,-99.6761119
7845134049,Carretera a El Saltillo,20.0175317,-99.6772834
7845134048,Carretera a El Saltillo,20.0174038,-99.6800092
7431791617,Carretera a El Saltillo,20.0163491,-99.6805054
7845235594,Carretera a El Saltillo,20.0154091,-99.6808916
7431791615,Carretera a El Saltillo,20.0126141,-99.6819565
7431791614,Carretera a El Saltillo,20.0110364,-99.6825626
7431801116,Innominada,20.0120773,-99.6854004
7431791605,Innominada,20.0126192,-99.686535
7431791607,Innominada,20.0162155,-99.6894157
7431791610,Innominada,20.0174429,-99.6874872
7431778964,Innominada,20.020389,-99.6887377
7845134013,Innominada,20.0222084,-99.6896517
5492446285,Innominada,20.0234834,-99.6902663
5492446286,Innominada,20.0243247,-99.6854353
5492446287,Innominada,20.0247128,-99.6830803
5492446291,Innominada,20.0242762,-99.6806594
5492446294,Innominada,20.0252642,-99.6802873
5492446296,Innominada,20.0258262,-99.6792696
5492446297,Innominada,20.0263198,-99.6774479
5492446300,Innominada,20.0266685,-99.6745563
5492446304,Innominada,20.0239604,-99.6727332
5492446303,Innominada,20.0217762,-99.671712
7431791620,Innominada,20.0208154,-99.6712692
7391161952,Carretera a El Saltillo,20.0222576,-99.6681813
2996940922,Carretera a El Saltillo,20.0249103,-99.6634221
7976235436,Carretera a El Saltillo,20.0259602,-99.6583714
5490054053,Carretera a El Saltillo,20.0267808,-99.6536972
7382926131,Carretera a El Saltillo,20.0283145,-99.6450198
7975563685,Carretera a El Saltillo,20.0285237,-99.6438155
2996940918,Avenida Independencia y Carretera a El Saltillo,20.0288059,-99.6423161
7382924565,Avenida Independencia,20.0277639,-99.6423469
7975434015,Avenida Independencia,20.0264724,-99.6415664
7975434013,Avenida Independencia,20.025036,-99.6406089
2995723247,Avenida Independencia,20.0239649,-99.6399102
3015749385,Avenida Independencia y Carretera Palmito Huapango,20.0095023,-99.630322
7975434020,Avenida Independencia,20.0297811,-99.642233
7975434021,Avenida Independencia,20.0308017,-99.6421391
7975434023,Avenida Independencia,20.0320856,-99.6420251
7975434025,Avenida Independencia,20.033105,-99.6418078
2995723248,Avenida Independencia,20.0341205,-99.6414645
7975434027,Avenida Independencia,20.0348714,-99.6409133
7383039118,Avenida Independencia,20.0357767,-99.6402448
7959369311,Avenida Independencia,20.0373484,-99.6390814
2995723251,Avenida Independencia,20.0383261,-99.6383545
7959369309,Avenida Independencia,20.0393643,-99.6377376
7959369308,Avenida Independencia,20.0408359,-99.6369731
7382999395,Avenida Independencia,20.0416876,-99.636544
7959369307,Avenida Independencia,20.042635,-99.6360612
7382999392,Avenida Independencia,20.0435754,-99.6355865
4020946414,Avenida Independencia,20.04455,-99.6350715
7959369305,Avenida Independencia,20.0456335,-99.6345377
7959369306,Avenida Independencia,20.046465,-99.6341139
7383446622,Avenida Independencia,20.0476278,-99.6335183
7959369303,Avenida Independencia,20.0484883,-99.6330732
4020946284,Avenida Independencia,20.0494458,-99.6325904
7959369302,Avenida Independencia,20.0506477,-99.6319923
7959369300,Avenida Independencia,20.0520209,-99.6312869
7959369299,Avenida Independencia,20.0530388,-99.6307638
7959369294,Avenida Independencia,20.0539156,-99.6307477
7959369291,Avenida Independencia,20.0547395,-99.6315712
2995723254,Avenida Independencia,20.0554072,-99.6323758
7959369283,Avenida Independencia,20.0566065,-99.6329767
7383446608,Avenida Independencia,20.0574014,-99.6334541
2995375878,Avenida Independencia,20.0578723,-99.633782
7383460972,Avenida Independencia,20.0570953,-99.6332248
2995723257,Avenida Independencia,20.0561228,-99.6328372
7959369292,Avenida Independencia,20.0550696,-99.6319708
7959369293,Avenida Independencia,20.0543238,-99.6310857
7959369298,Avenida Independencia,20.0534974,-99.6306646
2995723252,Avenida Independencia,20.0397272,-99.6375418
7959369310,Avenida Independencia,20.0386285,-99.6381533
2995723250,Avenida Independencia,20.0362914,-99.6398673
7975434028,Avenida Independencia,20.0353792,-99.6405405
7975602809,Avenida Independencia,20.0344702,-99.6412078
2996935955,Avenida Independencia,20.0335396,-99.6416885
7975434024,Avenida Independencia,20.0325103,-99.6419674
7975434022,Avenida Independencia,20.0314796,-99.6420734
4020946427,Avenida Independencia,20.0303028,-99.642186
7975434019,Avenida Independencia,20.0291625,-99.6422839
7975434018,Avenida Independencia,20.028123,-99.6423845
4316403085,Ixtlahuaca - Jilotepec,19.9533217,-99.5480816
6476936869,Ixtlahuaca - Jilotepec,19.9524116,-99.5480172
8374050109,Ixtlahuaca - Jilotepec,19.9513251,-99.5493012
5184023194,Carretera Jilotepec - Ixtlahuaca,19.9486743,-99.5526859
4333430835,Carretera Jilotepec - Ixtlahuaca,19.948062,-99.5534768
9934326120,Carretera Jilotepec - Ixtlahuaca,19.9474623,-99.5542355
6467005298,Carretera Jilotepec - Ixtlahuaca,19.9445993,-99.5579016
8027303444,Carretera Jilotepec - Ixtlahuaca,19.9439476,-99.5587331
7333691508,Carretera Jilotepec - Ixtlahuaca,19.9429882,-99.5599696
7324121016,Carretera Jilotepec - Ixtlahuaca,19.9417338,-99.5615843
4333431340,Carretera Jilotepec - Ixtlahuaca,19.939926,-99.5639299
8032248280,Carretera Jilotepec - Ixtlahuaca,19.9392821,-99.5647512
8027652580,Carretera Jilotepec - Ixtlahuaca,19.9385518,-99.5656693
12598185077,Carretera Jilotepec - Ixtlahuaca,19.9378559,-99.5663291
1935973955,Carretera Jilotepec - Ixtlahuaca,19.936382,-99.5667891
8027652584,Carretera Jilotepec - Ixtlahuaca,19.9353356,-99.567166
1935973950,Carretera Jilotepec - Ixtlahuaca,19.9346284,-99.5677896
302001976,Carretera Jilotepec - Ixtlahuaca,19.9339041,-99.5689838
12598185079,Carretera Jilotepec - Ixtlahuaca,19.9328192,-99.5708647
7407298762,Carretera Jilotepec - Ixtlahuaca,19.9317197,-99.5727436
7407649828,Carretera Jilotepec - Ixtlahuaca,19.9309949,-99.5739895
7407649835,Carretera Jilotepec - Ixtlahuaca,19.9300758,-99.5755505
7333644917,Carretera Jilotepec - Ixtlahuaca,19.929255,-99.5769681
8027660487,Carretera Jilotepec - Ixtlahuaca,19.9285943,-99.5780624
7408900221,Carretera Jilotepec - Ixtlahuaca,19.9279791,-99.5791769
8035767116,Carretera Jilotepec - Ixtlahuaca,19.9271168,-99.5806368
5319088371,Carretera Jilotepec - Ixtlahuaca,19.9264346,-99.5818363
7412637690,Carretera Jilotepec - Ixtlahuaca,19.9257184,-99.5830701
7415062337,Carretera Jilotepec - Ixtlahuaca,19.9249897,-99.5843254
7426549986,Carretera Jilotepec - Ixtlahuaca,19.9239255,-99.5861533
7426549992,Carretera Jilotepec - Ixtlahuaca,19.9232793,-99.5872866
7427189682,Carretera Jilotepec - Ixtlahuaca,19.9221112,-99.5892674
7427419488,Carretera Jilotepec - Ixtlahuaca,19.9214581,-99.5904234
7427870120,Carretera Jilotepec - Ixtlahuaca,19.9175954,-99.597014
7427870116,Carretera Jilotepec - Ixtlahuaca,19.9169378,-99.598145
7430777252,Carretera Jilotepec - Ixtlahuaca,19.9159844,-99.5997821
7430777243,Carretera Jilotepec - Ixtlahuaca,19.9149299,-99.601633
6336193555,Carretera Jilotepec - Ixtlahuaca,19.9135473,-99.6040624
8064308887,Carretera Jilotepec - Ixtlahuaca,19.9127015,-99.6054927
7403611760,Carretera Jilotepec - Ixtlahuaca,19.9122209,-99.6063054
8035767129,Carretera Jilotepec - Ixtlahuaca,19.9114076,-99.6076893
302001975,Carretera Jilotepec - Ixtlahuaca,19.9109044,-99.6085632
3627246647,Carretera Jilotepec - Ixtlahuaca,19.9103685,-99.6094148
3627246648,Carretera Jilotepec - Ixtlahuaca,19.9094312,-99.6104108
7403591753,Carretera Jilotepec - Ixtlahuaca,19.9084562,-99.6112407
7403611764,Carretera Jilotepec - Ixtlahuaca,19.9077116,-99.611865
7403611780,Carretera Jilotepec - Ixtlahuaca,19.9066322,-99.6127622
8064299282,Carretera Jilotepec - Ixtlahuaca,19.9049751,-99.6141847
7403622285,Carretera Jilotepec - Ixtlahuaca,19.903889,-99.6151279
8062450085,Carretera Jilotepec - Ixtlahuaca,19.9009981,-99.6175325
8062450086,Carretera Jilotepec - Ixtlahuaca,19.9001583,-99.6182138
7403622333,Carretera Jilotepec - Ixtlahuaca,19.8989,-99.6192275
8062450088,Carretera Jilotepec - Ixtlahuaca,19.896558,-99.6212125
7403622363,Carretera Jilotepec - Ixtlahuaca,19.8952188,-99.6223229
8062450089,Carretera Jilotepec - Ixtlahuaca,19.8944029,-99.6230243
3627217793,Carretera Jilotepec - Ixtlahuaca,19.8937118,-99.6236479
5624758384,Innominada,19.8945014,-99.6246093
7412645523,Innominada,19.8958531,-99.6254262
5624758386,Innominada,19.8968031,-99.6260059
5624758393,Innominada,19.9000839,-99.6321291
5624758394,Innominada,19.9012396,-99.6345675
7412631106,Innominada,19.9019589,-99.6352353
8080067274,Innominada,19.9031251,-99.6359177
5624758398,Innominada,19.9039519,-99.6364093
5624758402,Innominada,19.904827,-99.6368572
5624758400,Innominada,19.9057905,-99.6372528
8081218887,Carretera a Xhimójay,19.9068674,-99.6377435
5624758684,Carretera a Xhimójay,19.9078031,-99.6381325
5624758412,Carretera a Xhimójay,19.9095834,-99.6388664
8081218870,Carretera a Xhimójay,19.9105165,-99.6392664
5624758415,Carretera a Xhimójay,19.9113858,-99.6396221
7403521102,Carretera a Xhimójay,19.9135138,-99.6388728
5624758420,Carretera a Xhimójay,19.9143401,-99.6384828
8083259811,Carretera a Xhimójay,19.9161312,-99.6371231
8080067268,Carretera a Xhimójay,19.9170891,-99.6363294
5624758523,Carretera a Xhimójay,19.9180632,-99.6355449
5624758524,Carretera a Xhimójay,19.9192169,-99.6345947
5624758685,Carretera a Xhimójay,19.9200523,-99.6338046
5624758528,Carretera a Xhimójay,19.9208736,-99.6327527
5624758532,Carretera a Xhimójay,19.9215293,-99.6315514
7403521106,Carretera a Xhimójay,19.9225588,-99.6316446
7364512995,Carretera a Xhimójay,19.9228551,-99.6306217
8080067251,Carretera a Xhimójay,19.9230965,-99.6293476
6396713721,Carretera a Xhimójay,19.923384,-99.6274469
7364512998,Carretera a Xhimójay,19.9245793,-99.6262745
7403555769,Carretera a Xhimójay,19.9246922,-99.6261815
6396713722,Carretera a Xhimójay,19.9238934,-99.62672
7364512996,Carretera a Xhimójay,19.923157,-99.6286117
7364512994,Carretera a Xhimójay,19.9230284,-99.629815
8080067254,Carretera a Xhimójay,19.9228141,-99.631085
5624758535,Carretera a Xhimójay,19.9220885,-99.6314223
8080067265,Carretera a Xhimójay,19.9212923,-99.6320292
5624758527,Carretera a Xhimójay,19.9206448,-99.6331108
5624758522,Carretera a Xhimójay,19.916173,-99.6370885
5624758521,Carretera a Xhimójay,19.9149759,-99.6380802
8081139501,Carretera a Xhimójay,19.9139578,-99.6386633
8080067271,Carretera a Xhimójay,19.9122126,-99.639477
5624758413,Carretera a Xhimójay,19.911074,-99.6395212
5624758408,Carretera a Xhimójay,19.9059065,-99.637344
5624758554,Innominada,19.9047523,-99.6369056
7403509198,Innominada,19.9001139,-99.6321896
8062436074,Innominada,19.8973437,-99.6264656
5624758383,Carretera Jilotepec - Ixtlahuaca,19.8934722,-99.6239604
8035722356,Carretera Jilotepec - Ixtlahuaca,19.8948316,-99.6225254
8035722355,Carretera Jilotepec - Ixtlahuaca,19.8960612,-99.6215236
8062435484,Carretera Jilotepec - Ixtlahuaca,19.8972566,-99.620503
8035722354,Carretera Jilotepec - Ixtlahuaca,19.8988481,-99.6191727
8062435483,Carretera Jilotepec - Ixtlahuaca,19.8998153,-99.6183841
8062435482,Carretera Jilotepec - Ixtlahuaca,19.9006362,-99.6177189
8035722353,Carretera Jilotepec - Ixtlahuaca,19.9037749,-99.6150441
8035722352,Carretera Jilotepec - Ixtlahuaca,19.9058857,-99.6132477
8035722351,Carretera Jilotepec - Ixtlahuaca,19.9066612,-99.6126066
8035428418,Carretera Jilotepec - Ixtlahuaca,19.9076114,-99.6118167
8035767127,Carretera Jilotepec - Ixtlahuaca,19.9083894,-99.6111562
8035722348,Carretera Jilotepec - Ixtlahuaca,19.9093698,-99.61032
8035767122,Carretera Jilotepec - Ixtlahuaca,19.9100923,-99.6095958
8064299284,Carretera Jilotepec - Ixtlahuaca,19.9107505,-99.6086048
8064308886,Carretera Jilotepec - Ixtlahuaca,19.9112696,-99.6077133
8035722344,Carretera Jilotepec - Ixtlahuaca,19.9121252,-99.6062428
8035934051,Carretera Jilotepec - Ixtlahuaca,19.9125989,-99.6054282
8035722343,Carretera Jilotepec - Ixtlahuaca,19.9133115,-99.6042515
8035767118,Carretera Jilotepec - Ixtlahuaca,19.9148227,-99.6016049
8035722341,Carretera Jilotepec - Ixtlahuaca,19.9155149,-99.6003878
8035722338,Carretera Jilotepec - Ixtlahuaca,19.9168634,-99.5980892
8035722336,Carretera Jilotepec - Ixtlahuaca,19.9175178,-99.5969908
8035722335,Carretera Jilotepec - Ixtlahuaca,19.921344,-99.5903943
8035722334,Carretera Jilotepec - Ixtlahuaca,19.9220343,-99.5891963
8035722333,Carretera Jilotepec - Ixtlahuaca,19.9227656,-99.5879719
8035722332,Carretera Jilotepec - Ixtlahuaca,19.9235044,-99.5866951
8035722330,Carretera Jilotepec - Ixtlahuaca,19.9249493,-99.5842101
8035722327,Carretera Jilotepec - Ixtlahuaca,19.9256516,-99.5830124
8035722325,Carretera Jilotepec - Ixtlahuaca,19.9262164,-99.5820206
8084587554,Carretera Jilotepec - Ixtlahuaca,19.9268911,-99.5808818
12598185085,Innominada,19.9275857,-99.5796973
9943562253,Innominada,19.9281067,-99.5787961
12598185082,Innominada,19.9286725,-99.577821
9943562251,Innominada,19.9291993,-99.5769302
9943562269,Innominada,19.9298338,-99.5758348
12598185080,Innominada,19.9304918,-99.574699
9943562248,Innominada,19.9311366,-99.573615
9943562267,Innominada,19.9316578,-99.5727176
9943562247,Innominada,19.9321973,-99.5717821
12598185078,Innominada,19.9329768,-99.570449
9943562246,Innominada,19.9337571,-99.5691116
9943562244,Innominada,19.9343754,-99.5680656
9943562241,Innominada,19.935109,-99.5672579
9943562238,Innominada,19.9359402,-99.566815
9943562235,Innominada,19.9371762,-99.5664961
9943562231,Innominada,19.9380682,-99.5660658
9943562228,Innominada,19.9390259,-99.5649847
9943562257,Innominada,19.9398875,-99.5638517
9943562256,Innominada,19.941675,-99.561538
9943562255,Innominada,19.9445533,-99.5578391
9943562012,Innominada,19.9469008,-99.5548256
9943562011,Innominada,19.948019,-99.5534107
9943562015,Ixtlahuaca - Jilotepec,19.9486341,-99.5525939
9943562008,Ixtlahuaca - Jilotepec,19.9501551,-99.5506521
6476936875,Ixtlahuaca - Jilotepec,19.9512891,-99.5491587
6476936888,Ixtlahuaca - Jilotepec,19.9520783,-99.5481976
2587966418,Avenida Vicente Guerrero Poniente,19.9525687,-99.5473389
8393856625,Ixtlahuaca - Jilotepec,19.9643931,-99.5302614
7333687120,Innominada,19.9278858,-99.5823526
7412582884,Innominada,19.9287834,-99.5826289
7412455681,Innominada,19.9296383,-99.5829387
7333687105,Innominada,19.9305082,-99.5832217
8027139348,Innominada,19.9317879,-99.583628
5319088373,Innominada,19.9330209,-99.5841014
7357044921,Innominada,19.9339621,-99.5841417
5319088374,Innominada,19.9350003,-99.5841269
8027139354,Innominada,19.9360039,-99.5843737
8027139355,Innominada,19.9369683,-99.584481
7353001477,Innominada,19.9388216,-99.5849919
8027139357,Innominada,19.9415056,-99.5858301
8027139359,Innominada,19.9425116,-99.5861278
7353001478,Innominada,19.9435441,-99.5865986
7911754155,Innominada,19.9444165,-99.5871216
7911706469,Innominada,19.9451641,-99.5876554
7353001482,Innominada,19.9445439,-99.5882387
7911706479,Innominada,19.9431206,-99.5883085
7911706480,Innominada,19.9422015,-99.58822
7911706483,Innominada,19.9411577,-99.5883715
7911722585,Innominada,19.9397621,-99.5887417
7911722586,Innominada,19.9364212,-99.5896
7911722588,Innominada,19.9355771,-99.5899212
7333686078,Innominada,19.9353331,-99.5908418
7911754137,Innominada,19.934467,-99.5923841
7911754140,Innominada,19.9336021,-99.5936085
7333686079,Innominada,19.9330449,-99.5943636
7333686080,Innominada,19.9319076,-99.593583
7333686081,Innominada,19.9307478,-99.5928079
7427608120,Innominada,19.929823,-99.5921608
7911722665,Innominada,19.9283447,-99.5911583
7333686082,Innominada,19.9268664,-99.5901056
7426549993,Innominada,19.9259857,-99.5894605
8035738457,Innominada,19.9248611,-99.5886666
7426544183,Innominada,19.9236091,-99.5880108
8035384974,Carretera Jilotepec - Ixtlahuaca,19.9231734,-99.5872658
8035722331,Carretera Jilotepec - Ixtlahuaca,19.9238675,-99.5860702
5299878404,Innominada,19.9343762,-99.5643765
7406303963,Innominada,19.9321636,-99.561713
8027303450,Innominada,19.9309293,-99.5602378
7406298735,Innominada,19.9302144,-99.5593862
7323891340,Innominada,19.9295916,-99.5586446
7390870641,Innominada,19.9288982,-99.5578292
7390870653,Innominada,19.92805,-99.5575534
7390870640,Innominada,19.9276735,-99.5564566
5299878401,Innominada,19.9274475,-99.5554116
7390689020,Innominada,19.9269072,-99.5546485
5299878398,Innominada,19.9250515,-99.5553321
7390875903,Innominada,19.9233176,-99.5554118
7390875891,Innominada,19.9220586,-99.5554696
5299878396,Innominada,19.9209008,-99.5556647
5299878395,Innominada,19.9195996,-99.5556969
7403187169,Innominada,19.9172328,-99.5554456
5299878393,Innominada,19.9156404,-99.5553321
7402912385,Innominada,19.9141327,-99.5551528
5299878391,Innominada,19.9121855,-99.5552355
7380696520,Innominada,19.9109986,-99.5554722
7380696504,Innominada,19.9099117,-99.5557648
5299878389,Innominada,19.9083573,-99.5563567
5299878365,Innominada,19.905243,-99.5577649
7386126627,Innominada,19.9035761,-99.5585154
7383133940,Innominada,19.9007024,-99.5598038
8013004576,Innominada,19.8977434,-99.5611625
8013004578,Innominada,19.8954231,-99.5615655
5299878386,Tlalnepantla - Villa del Carbón,19.8949568,-99.5619727
5299878388,Innominada,19.8973588,-99.5612651
7380696509,Innominada,19.9080089,-99.5565139
5299878392,Innominada,19.9139709,-99.5551336
7402912386,Innominada,19.9148731,-99.5552538
7403187173,Innominada,19.9169576,-99.5554226
7403217985,Innominada,19.9194225,-99.5556781
7403187184,Innominada,19.920542,-99.5557277
7403187177,Innominada,19.9217055,-99.5555134
7390875895,Innominada,19.9242962,-99.5553696
7390689019,Innominada,19.9265404,-99.5544886
5299878403,Innominada,19.9279129,-99.5574926
7333662553,Innominada,19.9316883,-99.5611431
8027597706,Innominada,19.9343184,-99.5643069
8032151961,Innominada,19.9362439,-99.5666089
7936638277,Innominada,19.9595344,-99.5805006
7936638267,Innominada,19.9594746,-99.5815129
7335825133,Innominada,19.9593044,-99.5827349
7335825135,Innominada,19.9591152,-99.5839875
7936649838,Innominada,19.9590195,-99.5851113
5319088541,Innominada,19.9591619,-99.5872893
7940957597,Innominada,19.9592426,-99.5884596
7940935120,Innominada,19.9593464,-99.5898298
5319088542,Innominada,19.9594077,-99.5909894
7937198087,Innominada,19.9589879,-99.591849
7940935139,Innominada,19.9593099,-99.5931502
7335825129,Innominada,19.9597909,-99.5944696
5319088544,Innominada,19.960062,-99.5954459
7937198093,Innominada,19.9602709,-99.5971115
7937198096,Innominada,19.9606475,-99.598118
5319088547,Innominada,19.9607414,-99.5992566
5319088548,Innominada,19.9609128,-99.6002296
5319088533,Innominada,19.9607664,-99.601632
5319088532,Innominada,19.9594443,-99.6016062
7357129872,Innominada,19.9579279,-99.602095
5319088530,Innominada,19.9570516,-99.6025584
7940842512,Innominada,19.9560723,-99.602834
7353001434,Innominada,19.95491,-99.6039082
7911575975,Innominada,19.9540275,-99.6046029
7353001451,Innominada,19.9524758,-99.6047156
6336193452,Innominada,19.9509881,-99.605368
7353001453,Innominada,19.9501374,-99.6057194
7912001386,Innominada,19.9489914,-99.6065354
7912001389,Innominada,19.9480674,-99.607096
5319088521,Innominada,19.9472719,-99.6076995
7912001393,Innominada,19.9464462,-99.6080804
7364513026,Innominada,19.9460377,-99.6096817
7911986566,Innominada,19.945877,-99.6117852
7364513018,Innominada,19.9448704,-99.6126106
7364513017,Innominada,19.9437622,-99.6125677
7364513016,Innominada,19.9426106,-99.6120789
7911986573,Innominada,19.9412522,-99.6118811
7911986575,Innominada,19.9400079,-99.6116437
7911986576,Innominada,19.9391002,-99.6114278
7911986580,Innominada,19.9381635,-99.6112883
7364513012,Innominada,19.9372558,-99.6111676
7364513003,Innominada,19.9390788,-99.6073575
7912033792,Innominada,19.9392855,-99.6062565
7912033787,Innominada,19.9399739,-99.6056986
7364513010,Innominada,19.9404353,-99.6044688
7353001385,Innominada,19.9411451,-99.6045117
7912001411,Innominada,19.9424272,-99.6049744
7912001406,Innominada,19.9429794,-99.6057589
7912001403,Innominada,19.9437093,-99.6066038
5319088414,Innominada,19.94379,-99.606868
2995314961,Calle Vicente Guerrero Oriente,19.9542822,-99.5275853
4316403102,Toluca - Palmillas,19.954458,-99.5257769
4316403107,Toluca - Palmillas,19.954225,-99.5237949
4316403111,Toluca - Palmillas,19.9541327,-99.5226172
8360227738,Toluca - Palmillas,19.9544043,-99.5210882
7330243814,Toluca - Palmillas,19.9546982,-99.519263
8377886786,Toluca - Palmillas,19.9549569,-99.5178509
4316403121,Toluca - Palmillas,19.9553177,-99.515846
4316403124,Toluca - Palmillas,19.9556304,-99.5140253
4316403128,Toluca - Palmillas,19.956035,-99.5128298
4316403130,Toluca - Palmillas,19.9566401,-99.511926
8437195927,Toluca - Palmillas,19.9578301,-99.5107222
4316403135,Toluca - Palmillas,19.9585612,-99.5098848
8437220481,Toluca - Palmillas,19.9593807,-99.5084994
8437184620,Toluca - Palmillas,19.9601035,-99.5072729
3485311686,Toluca - Palmillas,19.9606014,-99.5064278
3485312599,Ixtlahuaca - Jilotepec,19.9614264,-99.505189
3485311684,Innominada,19.9622088,-99.5039172
3485312602,Innominada,19.9627443,-99.5026095
7313983658,Innominada,19.9629587,-99.5011005
3485312628,Innominada,19.9631843,-99.4995381
7313972352,Innominada,19.9635687,-99.4984344
7313983649,Innominada,19.9637326,-99.496479
7313777153,Innominada,19.9636897,-99.494812
12964523797,Innominada,19.9636673,-99.4933341
3485312600,Innominada,19.9636179,-99.4900458
8080737290,Innominada,19.9636633,-99.48893
8080737297,Innominada,19.9639839,-99.4878162
5717655665,Innominada,19.9659045,-99.4883654
5717655659,Innominada,19.9668252,-99.4883017
5717655654,Innominada,19.9685187,-99.4884297
6476936763,Avenida Revolución,19.9694691,-99.486571
8080036297,Avenida Revolución,19.9710283,-99.4866742
8080036298,Avenida Revolución,19.972319,-99.4868512
8080036299,Avenida Revolución,19.9732656,-99.4869947
8080036300,Avenida Revolución,19.9746722,-99.4872764
6476936768,Avenida Revolución,19.9756352,-99.4871664
6476936770,Avenida Revolución,19.9765629,-99.4870343
6476936773,Avenida Revolución,19.9776241,-99.4870497
6476936776,Avenida Revolución,19.9785102,-99.4868888
6476936779,Avenida Revolución,19.9788366,-99.4877753
6476936781,Avenida Revolución,19.9791896,-99.4888897
6476936729,Avenida Revolución,19.9793654,-99.4900035
7364513011,Innominada,19.9404731,-99.6041724
7353001386,Innominada,19.9415497,-99.6046807
7353001457,Innominada,19.944027,-99.6075895
7912001399,Innominada,19.9449183,-99.6075463
7912001395,Innominada,19.9458638,-99.6080683
7912001391,Innominada,19.9469958,-99.6078806
5319088522,Innominada,19.9478531,-99.6073039
6036109213,Innominada,19.949855,-99.6059789
7911575979,Innominada,19.9518997,-99.6048631
7911575976,Innominada,19.9534691,-99.6047558
7911575973,Innominada,19.9543037,-99.6044219
5319088529,Innominada,19.9557962,-99.6030526
7940842527,Innominada,19.9592331,-99.6016082
7937198094,Innominada,19.9607007,-99.598296
5319088545,Innominada,19.960326,-99.5973418
7937198091,Innominada,19.9601725,-99.596224
7937198089,Innominada,19.9599876,-99.5951233
7937198088,Innominada,19.9589829,-99.5922446
7940935125,Innominada,19.9592747,-99.5913452
7936684387,Innominada,19.9590683,-99.5859116
7936649839,Innominada,19.9590207,-99.5847586
7335825134,Innominada,19.9592351,-99.5831855
6476936784,Avenida Revolución,19.9828396,-99.4909135
8080737292,Avenida Revolución,19.9809946,-99.4906744
8080036309,Avenida Revolución,19.9800567,-99.4904897
8079961062,Innominada,19.9793024,-99.4900572
6476936732,Innominada,19.9779701,-99.4911079
7313707316,Innominada,19.976936,-99.4917946
6476936736,Innominada,19.9756289,-99.4925925
6476936738,Innominada,19.9742122,-99.4935246
7313803482,Innominada,19.9733122,-99.4941495
6476936742,Innominada,19.9724135,-99.4943775
6476936743,Innominada,19.9716522,-99.4948952
6476936746,Innominada,19.9702418,-99.4947986
6476936748,Innominada,19.9693204,-99.4947168
8079961073,Innominada,19.9682458,-99.4948194
6476936758,Innominada,19.9680889,-99.493084
4717202176,Innominada,19.967562,-99.4922304
5717655679,Innominada,19.9664988,-99.4918375
8080737294,Innominada,19.964946,-99.4915464
4717202178,Innominada,19.9637225,-99.4913171
8080744526,Innominada,19.9637499,-99.4930914
297559330,Innominada,19.9638196,-99.4976029
7314009189,Innominada,19.9633544,-99.499239
2587954097,Innominada,19.9631565,-99.5001805
297559328,Innominada,19.9628465,-99.502556
2587954071,Innominada,19.9623215,-99.5039041
3485312598,Innominada,19.9617029,-99.5049325
4316403304,Ixtlahuaca - Jilotepec,19.9612252,-99.5060251
3485312621,Toluca - Palmillas,19.960658,-99.5065341
8437220482,Toluca - Palmillas,19.959449,-99.5085504
8436849890,Toluca - Palmillas,19.9589085,-99.5094824
4316403150,Toluca - Palmillas,19.9580739,-99.5106085
4316403153,Toluca - Palmillas,19.9566771,-99.5120193
4316403157,Toluca - Palmillas,19.9561296,-99.5128099
4316402789,Toluca - Palmillas,19.9557143,-99.5140828
4316403163,Toluca - Palmillas,19.9554216,-99.5158117
8377886787,Toluca - Palmillas,19.9550675,-99.5178964
7330230795,Toluca - Palmillas,19.9548196,-99.5192817
8360227739,Toluca - Palmillas,19.9544922,-99.5211091
5914093115,Toluca - Palmillas,19.9542999,-99.5222176
7144658576,Toluca - Palmillas,19.9543109,-99.5238313
4316403178,Toluca - Palmillas,19.9545553,-99.5257308
7330156141,Toluca - Palmillas,19.9544562,-99.526729
2995314960,Avenida Reforma Oriente y Constituyentes,19.9551539,-99.5281334
5184051103,Calle Emiliano Zapata y Calle Constituyentes y Constituyentes,19.9558562,-99.5289059
5184051097,Calle Constituyentes,19.9567362,-99.5291598
5184051093,Calle Constituyentes,19.9575197,-99.5295154
7327163249,Calle Constituyentes,19.9580854,-99.5303687
5184051085,Constituyentes,19.9584824,-99.5317329
7327163254,Avenida Andrés Molina Enríquez,19.9588859,-99.5326593
5184051075,Avenida Reforma Oriente,19.9552856,-99.5306755
2995314958,Avenida Reforma Oriente y Avenida Andrés Molina Enríquez,19.9551348,-99.5322389
2267011461,Avenida Andrés Molina Enríquez,19.9562078,-99.5323583
7330163480,Avenida Andrés Molina Enríquez,19.9572408,-99.5325279
8428779017,Avenida Andrés Molina Enríquez,19.9582786,-99.5326652
2587954126,Avenida Andrés Molina Enríquez,19.9592192,-99.5326256
8393856619,Innominada,19.9653397,-99.5318097
6476936606,Avenida Andrés Molina Enríquez,19.9675615,-99.5315885
6467004414,Avenida Andrés Molina Enríquez,19.9685342,-99.5314056
8428623008,Avenida Andrés Molina Enríquez,19.970434,-99.5312513
7330346781,Avenida Andrés Molina Enríquez,19.9725559,-99.5309939
8475490551,Avenida Andrés Molina Enríquez,19.9738519,-99.5308441
8475490537,Avenida Andrés Molina Enríquez,19.9749571,-99.5306987
8475071553,Avenida Andrés Molina Enríquez,19.9761822,-99.5302936
8475071549,Avenida Andrés Molina Enríquez,19.9771994,-99.5296687
8482715574,Jilotepec - San Agustín,19.9780114,-99.5292142
7330432937,Jilotepec - San Agustín,19.9790673,-99.5285771
7333553714,Jilotepec - San Agustín,19.979867,-99.5281192
8475071531,Jilotepec - San Agustín,19.9810234,-99.5274505
12253642426,Jilotepec - San Agustín,19.9820586,-99.5268401
8475071528,Jilotepec - San Agustín,19.9832644,-99.5261429
8475071526,Jilotepec - San Agustín,19.9842172,-99.5255904
4316481886,Jilotepec - San Agustín,19.9851687,-99.5250379
8475071523,Jilotepec - San Agustín,19.9860296,-99.5245282
8475071538,Jilotepec - San Agustín,19.9869194,-99.5237504
8475071537,Jilotepec - San Agustín,19.9875205,-99.522931
4316482793,Jilotepec - San Agustín,19.9881709,-99.5220083
8475071535,Jilotepec - San Agustín,19.9891161,-99.5213217
4316482795,Jilotepec - San Agustín,19.9900683,-99.5212458
8475071532,Jilotepec - San Agustín,19.9917375,-99.5211808
4316482798,Jilotepec - San Agustín,19.9928111,-99.5211423
7333622986,Jilotepec - San Agustín,19.9943413,-99.521091
12953477133,Jilotepec - San Agustín,19.996631,-99.5209867
4316482800,Jilotepec - San Agustín,19.9976278,-99.5209413
7333622987,Jilotepec - San Agustín,19.999899,-99.5208362
4316482803,Jilotepec - San Agustín,20.0009273,-99.5208201
4316482804,Jilotepec - San Agustín,20.0017943,-99.5212036
7333595225,Jilotepec - San Agustín,20.0035813,-99.5221236
8377987889,Jilotepec - San Agustín,20.0052146,-99.5229608
4316482810,Jilotepec - San Agustín,20.0068949,-99.5238144
4316482859,Avenida 16 de Septiembre,20.0085322,-99.5246525
4316482830,Avenida 16 de Septiembre,20.009552,-99.5251934
4316482845,Avenida 16 de Septiembre,20.0105555,-99.5257191
4316482835,Avenida 16 de Septiembre,20.0125251,-99.5267634
4316482839,Avenida 16 de Septiembre,20.0143631,-99.5278065
2587733164,Calle Álvaro Obregón,20.0152279,-99.5269559
8154694804,Calle Álvaro Obregón,20.0151596,-99.5257728
2587733078,Calle Álvaro Obregón,20.0150515,-99.5242616
4316482925,Calle Álvaro Obregón,20.0154456,-99.5231082
2587733116,Calle Álvaro Obregón,20.0158989,-99.5221132
5631625214,Calle Álvaro Obregón,20.0161333,-99.521177
2587733090,Calle Álvaro Obregón,20.0166128,-99.5203295
5631625234,Calle Álvaro Obregón,20.0174114,-99.5198179
2587733085,Calle Álvaro Obregón,20.0185016,-99.5191761
2587733162,Calle Álvaro Obregón,20.0196785,-99.5186718
2587733048,Calle Álvaro Obregón,20.0238745,-99.5168774
8153536264,Calle Álvaro Obregón,20.0250061,-99.5170458
2587733153,Calle Álvaro Obregón,20.0259158,-99.5174942
2587733212,Álvaro Obregón,20.0257941,-99.5184036
5631625569,Álvaro Obregón,20.0268866,-99.5190023
5631625559,Álvaro Obregón,20.0280182,-99.5193632
5631625567,Álvaro Obregón,20.0293127,-99.5197983
2587733173,Jilotepec - San Agustín,20.030226,-99.5199486
5631625999,Jilotepec - San Agustín,20.0311127,-99.518442
7314067371,Jilotepec - San Agustín,20.0320452,-99.5167594
7314067380,Jilotepec - San Agustín,20.0337853,-99.5135352
2587733107,Jilotepec - San Agustín,20.0365018,-99.5084551
2587733210,Jilotepec - San Agustín,20.0368951,-99.5074455
7896427324,Jilotepec - San Agustín,20.0376584,-99.5053424
7314061466,Jilotepec - San Agustín,20.0384035,-99.5032197
7896427323,Jilotepec - San Agustín,20.0389952,-99.5015484
7314061460,Jilotepec - San Agustín,20.0395369,-99.5000464
7307698810,Jilotepec - San Agustín,20.0400144,-99.4987093
2587733177,Jilotepec - San Agustín,20.0417403,-99.493797
7307693460,Jilotepec - San Agustín,20.0420463,-99.4924181
7950745541,Jilotepec - San Agustín,20.042383,-99.4903167
7950745555,Jilotepec - San Agustín,20.0425804,-99.4892263
7950745544,Jilotepec - San Agustín,20.0428549,-99.4878732
2587733081,Jilotepec - San Agustín,20.0431238,-99.4866642
2587733191,Jilotepec - San Agustín,20.0437616,-99.4859396
2587733036,Jilotepec - San Agustín,20.0446899,-99.4857489
7889347904,Jilotepec - San Agustín,20.0460026,-99.4863765
7919774394,Jilotepec - San Agustín,20.0469648,-99.4867023
5138372199,Jilotepec - San Agustín,20.0482815,-99.4870379
7889347905,Jilotepec - San Agustín,20.0517991,-99.4880033
2587733093,Jilotepec - San Agustín,20.0535314,-99.4884686
7919520449,Jilotepec - San Agustín,20.0552837,-99.4895804
2587733082,Jilotepec - San Agustín,20.0568484,-99.490656
7889347910,Innominada,20.0565303,-99.4920494
7889347897,Innominada,20.0569882,-99.4928983
7352978505,Innominada,20.0578165,-99.4934756
7919650623,Innominada,20.0585739,-99.4939932
7889347915,Innominada,20.0592961,-99.4945666
5138372243,Innominada,20.0599556,-99.4955134
5138372241,Innominada,20.0612689,-99.496699
7889347919,Innominada,20.06223,-99.497285
5138372239,Innominada,20.0632114,-99.4983137
5138372238,Innominada,20.0640302,-99.4995153
7352972399,Innominada,20.0640982,-99.5006391
5138372236,Innominada,20.0640239,-99.5022485
7352939644,Innominada,20.0640151,-99.503379
5138372235,Innominada,20.0639861,-99.5055905
4333431650,Innominada,20.0645278,-99.5060505
5319089673,Innominada,20.0657163,-99.506542
7954331197,Innominada,20.0692849,-99.508612
7953942121,Innominada,20.070156,-99.5091002
4333431455,Innominada,20.0715505,-99.5086482
4333431637,Innominada,20.0727119,-99.5082325
7953942133,Innominada,20.0739841,-99.5082244
7953942134,Innominada,20.0758811,-99.508443
7953851483,Innominada,20.0768586,-99.5089111
7953851484,Innominada,20.077904,-99.5099223
7953907287,Innominada,20.0787832,-99.5096487
4333431616,Innominada,20.0792795,-99.5102307
4333431612,Innominada,20.0786547,-99.5116657
7953907299,Innominada,20.0793538,-99.5127708
7953907302,Innominada,20.0803955,-99.5129304
7953907306,Innominada,20.0811638,-99.5138893
7953907311,Innominada,20.0819649,-99.5147301
7364301904,Innominada,20.0827509,-99.5152961
4333431485,Innominada,20.0836477,-99.5150279
7953907317,Innominada,20.0845823,-99.5146175
4333431479,Innominada,20.0856353,-99.5147663
5633564328,Innominada,20.0863582,-99.5154034
7954244111,Innominada,20.0864662,-99.518178
7954353475,Innominada,20.0865052,-99.5192688
7953907331,Innominada,20.0865673,-99.5204325
4333431470,Innominada,20.0866328,-99.5214759
7954244089,Innominada,20.0866837,-99.5225472
7953907334,Innominada,20.0867172,-99.5235291
7953907337,Innominada,20.0866404,-99.5245269
7953907341,Innominada,20.0868633,-99.5255971
4333431459,Innominada,20.0871303,-99.5298672
4333431456,Innominada,20.0873004,-99.531974
7852379247,Innominada,20.0875762,-99.5324059
7364562600,Innominada,20.088677,-99.5315181
4333439222,Innominada,20.0900083,-99.5305029
4333439230,Innominada,20.0959075,-99.5269711
5216962524,Innominada,20.0970596,-99.5262971
5319089577,Innominada,20.0979906,-99.5257642
4333439234,Innominada,20.0989619,-99.5252699
7373428238,Innominada,20.100031,-99.5254728
7958061919,Innominada,20.1009637,-99.5257158
7958061918,Innominada,20.1026677,-99.5259096
7958553066,Innominada,20.1041286,-99.5261761
4333439244,Innominada,20.1060744,-99.5265479
4333439251,Innominada,20.1078553,-99.5248816
7376297035,Innominada,20.1088343,-99.5278113
7958486454,Innominada,20.1094551,-99.5297974
4333439262,Innominada,20.1097926,-99.5307925
7878281610,Innominada,20.1099318,-99.5320075
7877522458,Innominada,20.1100483,-99.5331394
4333439266,Innominada,20.110183,-99.5341815
4333439268,Innominada,20.110373,-99.5352144
4333439271,Innominada,20.1109802,-99.5378642
5216962523,Innominada,20.1117649,-99.5391031
7431655126,Innominada,20.113927,-99.54163
4333439279,Innominada,20.1147657,-99.542613
4333439281,Innominada,20.1153588,-99.5434552
7373482359,Innominada,20.1159923,-99.5445482
7877522463,Innominada,20.1166307,-99.5456439
7877522464,Innominada,20.1170362,-99.5466122
7877522465,Innominada,20.1176633,-99.5481531
7877726219,Innominada,20.1179945,-99.549057
4333439395,Innominada,20.1185536,-99.5497477
4333439403,Innominada,20.1187879,-99.5489658
4333439407,Innominada,20.1189604,-99.5480324
4333439411,Innominada,20.1186531,-99.5468295
8133058947,Innominada,20.1187255,-99.5459712
4333439422,Innominada,20.1209324,-99.5469609
4333439427,Innominada,20.1218328,-99.5473015
8133058951,Innominada,20.123126,-99.5462622
7373495687,Innominada,20.1235667,-99.5476757
5319089768,Innominada,20.1235856,-99.5481531
7373495702,Innominada,20.1234433,-99.5463708
4333439428,Innominada,20.1219553,-99.5472386
4333439423,Innominada,20.1210533,-99.5470266
8133267983,Innominada,20.1195546,-99.5462867
7373495713,Innominada,20.1186619,-99.545994
4333439409,Innominada,20.1189831,-99.5477387
4333439405,Innominada,20.1187513,-99.5487124
7373495704,Innominada,20.1187623,-99.5496508
4333439389,Innominada,20.118065,-99.5492448
4333439273,Innominada,20.111154,-99.5383416
5633564194,Innominada,20.1079688,-99.5250799
4333439247,Innominada,20.1066184,-99.5263508
7958486405,Innominada,20.1046703,-99.5262797
4333439241,Innominada,20.1032634,-99.5260108
7373469222,Innominada,20.0990957,-99.5252665
7364560355,Innominada,20.0982629,-99.5256011
4333439224,Innominada,20.0906822,-99.5301086
4333439221,Innominada,20.0893559,-99.5309588
4333431462,Innominada,20.0868759,-99.5257473
7953907338,Innominada,20.0866542,-99.5246074
5319089602,Innominada,20.0864678,-99.5182545
7953907327,Innominada,20.0864111,-99.5157896
7953907322,Innominada,20.085925,-99.5149192
7953907320,Innominada,20.0850143,-99.5146054
7953907308,Innominada,20.081252,-99.5140649
7953907305,Innominada,20.0808338,-99.5131114
4333431604,Innominada,20.0797292,-99.5129035
4333431608,Innominada,20.0787794,-99.5122504
4333431614,Innominada,20.079083,-99.5109308
4333431618,Innominada,20.079306,-99.5099236
4333431625,Innominada,20.0781799,-99.5099813
7953942135,Innominada,20.0759945,-99.5084631
5319089711,Innominada,20.0747449,-99.5083062
4333431635,Innominada,20.073484,-99.5081829
4333431638,Innominada,20.0722118,-99.5083693
4333431641,Innominada,20.0706045,-99.5090827
7953942118,Innominada,20.0647545,-99.506084
5138372234,Innominada,20.0639244,-99.5059365
8067260465,Innominada,20.0640787,-99.4995958
7919520483,Innominada,20.0635641,-99.4988045
7889347920,Innominada,20.0628952,-99.4978832
5138372242,Innominada,20.0603026,-99.4960814
7889347916,Innominada,20.0598378,-99.4952439
5138372245,Innominada,20.0588079,-99.4941609
5138372246,Innominada,20.0580527,-99.4936358
7889347912,Innominada,20.0572257,-99.4931987
5138372248,Innominada,20.0566115,-99.4923846
2587733206,Jilotepec - San Agustín,20.0540164,-99.4887315
2587733138,Jilotepec - San Agustín,20.0469839,-99.4867079
2587732997,Jilotepec - San Agustín,20.045025,-99.4858602
2587733183,Jilotepec - San Agustín,20.0439919,-99.4858401
2587733202,Jilotepec - San Agustín,20.0432479,-99.4863973
7950745558,Jilotepec - San Agustín,20.0429827,-99.4875044
7950745548,Jilotepec - San Agustín,20.0428001,-99.4885893
7950745553,Jilotepec - San Agustín,20.0424133,-99.4906412
7950745554,Jilotepec - San Agustín,20.0422322,-99.4915793
2587733122,Jilotepec - San Agustín,20.0419348,-99.4930406
7307698809,Jilotepec - San Agustín,20.0401757,-99.4982506
7307698811,Jilotepec - San Agustín,20.038415,-99.5031697
7314067379,Jilotepec - San Agustín,20.032417,-99.5160203
2587733118,Jilotepec - San Agustín,20.0304555,-99.519675
7314067357,Álvaro Obregón,20.0294271,-99.5198424
5631627169,Álvaro Obregón,20.0283445,-99.5194644
5631627167,Álvaro Obregón,20.02736,-99.5191584
2587733105,Álvaro Obregón,20.0259788,-99.5187362
2587733221,Calle Álvaro Obregón,20.0260767,-99.5178753
8153536271,Calle Álvaro Obregón,20.0254543,-99.5172662
2587733156,Calle Álvaro Obregón,20.0244239,-99.5168185
7333778327,Calle Álvaro Obregón,20.01761,-99.519718
2587733152,Calle Álvaro Obregón,20.0166027,-99.5204166
7333770713,Calle Álvaro Obregón,20.0161261,-99.5217106
4316482934,Calle Álvaro Obregón,20.0156578,-99.5229713
4316482909,Calle Álvaro Obregón,20.0152012,-99.5239629
7348390865,Calle Álvaro Obregón,20.015226,-99.5249938
7348308777,Calle Álvaro Obregón,20.0152957,-99.5261644
7259907573,Calle Álvaro Obregón,20.0151101,-99.5281203
4316482979,Avenida 16 de Septiembre,20.0129129,-99.5270552
7256172845,Avenida 16 de Septiembre,20.0119116,-99.5265574
4316482846,Avenida 16 de Septiembre,20.0108193,-99.5260004
5631624877,Avenida 16 de Septiembre,20.0098532,-99.5254872
4316482825,Avenida 16 de Septiembre,20.0086725,-99.5248583
4316482806,Avenida 16 de Septiembre,20.006963,-99.5239792
8377987890,Jilotepec - San Agustín,20.0051747,-99.5230708
7333595220,Jilotepec - San Agustín,20.0042768,-99.5225989
8377987915,Jilotepec - San Agustín,19.9983678,-99.520907
12583513652,Jilotepec - San Agustín,19.9973262,-99.520955
12953477134,Jilotepec - San Agustín,19.9963703,-99.5210709
12953477135,Jilotepec - San Agustín,19.9943387,-99.5211487
12953477136,Jilotepec - San Agustín,19.9906159,-99.5213002
12953477131,Jilotepec - San Agustín,19.9896962,-99.5213421
12953477139,Jilotepec - San Agustín,19.9884179,-99.5218192
12953477141,Jilotepec - San Agustín,19.9869609,-99.5238027
7330432934,Jilotepec - San Agustín,19.9861505,-99.524539
7330432933,Jilotepec - San Agustín,19.9852129,-99.5250915
8475071540,Jilotepec - San Agustín,19.9837231,-99.5259592
8475071541,Jilotepec - San Agustín,19.9827438,-99.5265265
8475071543,Jilotepec - San Agustín,19.981583,-99.5272024
8475071545,Jilotepec - San Agustín,19.9802206,-99.5280017
8475071547,Jilotepec - San Agustín,19.9793547,-99.528518
6476936600,Jilotepec - San Agustín,19.9782286,-99.5290799
8475071550,Avenida Andrés Molina Enríquez,19.9772145,-99.5297465
1751631081,Avenida Andrés Molina Enríquez,19.9766617,-99.530579
8475071556,Avenida Andrés Molina Enríquez,19.9754424,-99.5307979
8475071559,Avenida Andrés Molina Enríquez,19.9740168,-99.5308998
8475071560,Avenida Andrés Molina Enríquez,19.9728244,-99.5310473
8354166610,Avenida Andrés Molina Enríquez,19.9702553,-99.5313769
6467004417,Avenida Andrés Molina Enríquez,19.9689309,-99.5315342
7330346775,Avenida Andrés Molina Enríquez,19.9677561,-99.5316851
7330346771,Avenida Andrés Molina Enríquez,19.9655855,-99.531935
9809434129,Innominada,19.9647019,-99.5322463
9809434124,Innominada,19.9645545,-99.5331877
7330217081,Ixtlahuaca - Jilotepec,19.9643692,-99.5345664
8395937616,Avenida Andrés Molina Enríquez,19.9582626,-99.5327343
8428766810,Avenida Andrés Molina Enríquez,19.9578777,-99.5326684
7330367406,Innominada,19.9643444,-99.5317489
8428766814,Avenida Andrés Molina Enríquez,19.9572323,-99.5325877
7959369281,Avenida Independencia,20.058282,-99.6338242
7959369276,Avenida Independencia,20.0596967,-99.6338765
7959369275,Avenida Independencia,20.0608443,-99.6339221
7959369273,Avenida Independencia,20.0618281,-99.633953
7959369274,Avenida Independencia,20.0630816,-99.6339758
7928179805,Avenida Independencia,20.0653869,-99.6340574
4020945004,Avenida Independencia,20.0673822,-99.6341246
7383566012,Avenida Independencia,20.0691559,-99.6341917
7383566016,Avenida Independencia,20.0705264,-99.6342292
7386270833,Avenida Independencia,20.0714535,-99.6342534
2996952343,Avenida Independencia,20.074071,-99.6343365
2996952344,Avenida Independencia,20.0776912,-99.6344546
7383588116,Avenida Independencia,20.0787039,-99.6340174
7933372133,Avenida Independencia,20.0819952,-99.6298613
5203368950,Innominada,20.0822168,-99.628901
5203368947,Innominada,20.0832535,-99.628319
7928176052,Innominada,20.0839714,-99.627694
2554654294,Innominada,20.0851705,-99.6272689
7383607897,Innominada,20.090526,-99.626821
7383607898,Innominada,20.0920563,-99.626703
7377110065,Innominada,20.0958813,-99.6263918
7383596915,Innominada,20.0982188,-99.6262068
7383596914,Innominada,20.099705,-99.6260727
5229036411,Innominada,20.100642,-99.6259654
2554697054,Innominada,20.1017654,-99.6256998
2554697058,Innominada,20.1026772,-99.6254477
7927221702,Innominada,20.1048433,-99.6248844
2554697059,Innominada,20.1075283,-99.6241629
2554697060,Innominada,20.1085761,-99.6238652
7927347452,Innominada,20.1097257,-99.6235559
7927347425,Innominada,20.1117965,-99.6230052
2554872506,Innominada,20.1142607,-99.6223551
7927221693,Innominada,20.1166471,-99.62826
7927221687,Innominada,20.1173938,-99.628893
7883815748,Innominada,20.1248642,-99.630505
7390836203,Innominada,20.1267375,-99.6309033
7882686575,Innominada,20.1281314,-99.6311903
7882686577,Innominada,20.1292647,-99.6312614
7882686578,Innominada,20.1302745,-99.6314237
7883655106,Innominada,20.1317837,-99.6314289
7390836191,Innominada,20.1327929,-99.6311836
7882686583,Innominada,20.1341553,-99.6303052
7882715085,Innominada,20.1349095,-99.630741
7882715088,Innominada,20.1356165,-99.6314163
7390826980,Innominada,20.1360792,-99.6326092
7390826978,Innominada,20.136802,-99.6334018
7390826976,Innominada,20.1396816,-99.6351975
7390826974,Innominada,20.1394298,-99.6363348
5229036531,Innominada,20.1396161,-99.637928
5229036530,Innominada,20.1397029,-99.6390332
5229036529,Innominada,20.1397369,-99.6404036
5229036527,Innominada,20.1394864,-99.6413063
7882640964,Innominada,20.1389828,-99.6422155
7390836251,Innominada,20.1387876,-99.643161
5229036521,Innominada,20.1382361,-99.6440085
7882640961,Innominada,20.1372326,-99.644533
5229036516,Innominada,20.1364507,-99.6449299
7882640958,Innominada,20.1359772,-99.6457855
5229036512,Innominada,20.1354283,-99.6468169
5229036510,Innominada,20.1341528,-99.6475088
7882686921,Innominada,20.1335528,-99.6483712
7882686920,Innominada,20.1327526,-99.6491913
5229036486,Innominada,20.1314544,-99.649487
7882686918,Innominada,20.1303853,-99.6496707
7390823819,Innominada,20.1295026,-99.6498545
7882686913,Innominada,20.1285583,-99.6494897
5229036491,Innominada,20.1276567,-99.6485603
7390823815,Innominada,20.126789,-99.6478052
7882686909,Innominada,20.1257288,-99.6471347
5229036494,Innominada,20.1248902,-99.6466224
7882686904,Innominada,20.123976,-99.6462576
5229036496,Innominada,20.1224057,-99.6460081
5229036497,Innominada,20.121377,-99.646165
5229036499,Innominada,20.1204867,-99.6463462
5229036500,Innominada,20.1195435,-99.6460081
5229036501,Innominada,20.1179907,-99.64585
5229036502,Innominada,20.1170261,-99.6458969
5229036503,Innominada,20.1159079,-99.6463046
5229036504,Innominada,20.1139912,-99.6469831
5229036505,Innominada,20.1128981,-99.6462294
5229036506,Innominada,20.1120922,-99.6456394
7927011007,Innominada,20.1100546,-99.645626
7390810998,Innominada,20.1090345,-99.6457225
5229036480,Innominada,20.1072613,-99.6456447
7383618772,Innominada,20.1055083,-99.6460176
7926990020,Innominada,20.1035121,-99.6464789
5229036477,Innominada,20.1026558,-99.6461141
7926990031,Innominada,20.1017213,-99.6457681
7390810988,Innominada,20.1006067,-99.6455361
7926990035,Innominada,20.0994732,-99.645575
7383618776,Innominada,20.0984531,-99.6455227
5229036471,Innominada,20.0977201,-99.6461168
7926990060,Innominada,20.0967201,-99.6466962
7391021610,Innominada,20.0950041,-99.648549
7926990064,Innominada,20.0941835,-99.6492603
5229036466,Innominada,20.0935387,-99.6476725
5229036465,Innominada,20.0937276,-99.6462121
5229036440,Innominada,20.0939694,-99.6451619
5229036439,Innominada,20.0947427,-99.6446335
7927021650,Innominada,20.0952944,-99.6438476
5229036435,Innominada,20.0956823,-99.642866
7927209243,Innominada,20.0961521,-99.6420331
7927209248,Innominada,20.0963448,-99.6407859
7927209254,Innominada,20.0963548,-99.6398096
7927209256,Innominada,20.0966281,-99.638624
7927209259,Innominada,20.0970186,-99.6376973
7927209262,Innominada,20.0975098,-99.6364836
7927209263,Innominada,20.0978334,-99.6354926
7927209267,Innominada,20.0978939,-99.6344545
7927209270,Innominada,20.0979128,-99.6333683
7927209273,Innominada,20.0980702,-99.6323691
7927209274,Innominada,20.0978888,-99.6314102
7927209278,Innominada,20.0990815,-99.6294656
7927209281,Innominada,20.0998296,-99.6286328
5229036413,Innominada,20.1004669,-99.6277906
7383596917,Innominada,20.1008422,-99.626876
7390718444,Innominada,20.1004959,-99.6259922
2554958300,Innominada,20.0842221,-99.6273396
7928176055,Innominada,20.0837774,-99.6281929
5203368946,Innominada,20.0828277,-99.6283847
5203368943,Avenida Independencia,20.082194,-99.6296064
7928153022,Avenida Independencia,20.0778297,-99.6344519
7383566048,Avenida Independencia,20.065698,-99.634067
2995723264,Avenida Independencia,20.0634847,-99.6339919
7383566278,Avenida Independencia,20.062424,-99.6339718
7959369277,Avenida Independencia,20.0586889,-99.633847
7959369286,Avenida Independencia,20.0576496,-99.6336257
2995723258,Avenida Independencia,20.0568282,-99.6330598
7959369289,Avenida Independencia,20.0558683,-99.6327567
7376660982,Innominada,20.0840835,-99.6274687
2554958304,Innominada,20.0833719,-99.6283029
2554958306,Innominada,20.0823995,-99.6285
8035722358,Carretera Jilotepec - Ixtlahuaca,19.8933637,-99.6239188
7927221685,Innominada,20.1008561,-99.6269739
5229036414,Innominada,20.1000148,-99.6284571
7927209277,Innominada,20.0980551,-99.6309033
5229036418,Innominada,20.0980538,-99.632172
7927209260,Innominada,20.0971483,-99.6374103
7927209258,Innominada,20.0966924,-99.6383183
7927209252,Innominada,20.0963863,-99.6395628
5229036431,Innominada,20.0963523,-99.6406464
5229036433,Innominada,20.0963523,-99.641663
7927021649,Innominada,20.0953208,-99.6437913
3015745586,Innominada,20.0936974,-99.6457145
4097785285,Carretera México - Querétaro (Cuota),20.0808175,-99.646503
5229036407,Innominada,20.0829638,-99.6475893
7383596900,Innominada,20.0861378,-99.6491732
7383596901,Innominada,20.08758,-99.6494347
7927769478,Innominada,20.0884981,-99.6494288
7383596902,Innominada,20.0897778,-99.6492174
7926999492,Innominada,20.0916268,-99.6476483
5229036463,Innominada,20.0929593,-99.6463957
5229036467,Innominada,20.0935689,-99.6495098
5229036468,Innominada,20.094516,-99.6490485
7926990061,Innominada,20.0961558,-99.6473104
7383618777,Innominada,20.0969342,-99.6465111
7926990057,Innominada,20.0978158,-99.6460658
5229036473,Innominada,20.0993372,-99.645575
5229036474,Innominada,20.1003473,-99.6454999
7926990026,Innominada,20.1026104,-99.6460658
5229036479,Innominada,20.1033547,-99.6465017
7383618771,Innominada,20.1067878,-99.6456957
5299878427,Innominada,20.1083041,-99.6456957
5229036481,Innominada,20.1092839,-99.6457252
7882686893,Innominada,20.1190259,-99.6458861
7882686891,Innominada,20.1199288,-99.6461651
7882686898,Innominada,20.1208594,-99.6463917
7882686897,Innominada,20.1217509,-99.6460417
7882686905,Innominada,20.1231902,-99.6461383
5229036495,Innominada,20.1242178,-99.6463099
7390823814,Innominada,20.1253561,-99.6469282
7390823816,Innominada,20.1263988,-99.6475571
7882686910,Innominada,20.1273179,-99.6481311
5229036490,Innominada,20.1279488,-99.6491061
7882686914,Innominada,20.1288617,-99.6495755
7882686916,Innominada,20.129728,-99.649888
7882686919,Innominada,20.1307077,-99.6496023
5229036485,Innominada,20.1323522,-99.6493314
5229036484,Innominada,20.1331801,-99.6489587
5229036509,Innominada,20.1338191,-99.647541
5229036511,Innominada,20.1348705,-99.6472245
7882640957,Innominada,20.135602,-99.6465446
5229036515,Innominada,20.1361611,-99.6455087
7882640959,Innominada,20.1366849,-99.6446416
5229036520,Innominada,20.1377941,-99.6443948
5229036522,Innominada,20.138459,-99.643735
5229036524,Innominada,20.1388518,-99.6424784
7882640965,Innominada,20.1394373,-99.6415061
5229036532,Innominada,20.1396047,-99.6365253
7390826975,Innominada,20.1395783,-99.6356025
7390826977,Innominada,20.1371722,-99.6336473
7882715090,Innominada,20.1363298,-99.6329686
7882715089,Innominada,20.1358463,-99.6319507
7390826984,Innominada,20.1352922,-99.6312145
7390836186,Innominada,20.134839,-99.6304326
7390836190,Innominada,20.1332386,-99.6309181
7882686580,Innominada,20.1323585,-99.6313767
7390836193,Innominada,20.1306233,-99.6314478
7390836195,Innominada,20.1295644,-99.6312949
7390836196,Innominada,20.128479,-99.6312252
7390836197,Innominada,20.118157,-99.6290673
7390836198,Innominada,20.1172616,-99.6288554
7390836201,Innominada,20.1144446,-99.6228111
7313777143,Innominada,19.9644234,-99.4863242
3485312615,Innominada,19.9650622,-99.4841766
7313814468,Innominada,19.9654494,-99.4829232
3485311674,Innominada,19.9657015,-99.4816773
7313814465,Innominada,19.9658503,-99.479498
7313781197,Innominada,19.9660595,-99.4777277
7313781214,Innominada,19.9662461,-99.4753888
3485311691,Innominada,19.966512,-99.4730446
8090582200,Innominada,19.9667975,-99.4720059
7313781207,Innominada,19.9671984,-99.4710544
8090582195,Innominada,19.9675028,-99.4701337
8090582193,Innominada,19.9677315,-99.4690716
8090582192,Innominada,19.9679401,-99.468106
7313678080,Innominada,19.9681815,-99.46697
7313768119,Innominada,19.9686347,-99.4659843
8090347568,Innominada,19.9692643,-99.464841
8090582187,Innominada,19.9696361,-99.4635764
7313749591,Innominada,19.9698428,-99.4623955
8090582184,Innominada,19.9699563,-99.461434
7313678078,Innominada,19.9700565,-99.4603101
8090582180,Innominada,19.9698807,-99.4589858
3485311677,Innominada,19.9697754,-99.4580021
8090723738,Innominada,19.9697354,-99.4568809
7313678072,Innominada,19.9697559,-99.4559039
8090582173,Innominada,19.9698498,-99.4546279
3485311681,Carretera Corrales-Jilotepec,19.9699664,-99.453496
4316403306,Carretera Corrales-Jilotepec y Ixtlahuaca - Jilotepec,19.9705881,-99.4521689
3485311676,Ixtlahuaca - Jilotepec,19.9710661,-99.4513039
8033387370,Ixtlahuaca - Jilotepec,19.9715766,-99.4503947
8033387362,Ixtlahuaca - Jilotepec,19.972515,-99.4487518
8047759666,Ixtlahuaca - Jilotepec,19.9725787,-99.4488041
7310661090,Ixtlahuaca - Jilotepec,19.9719289,-99.4499541
8090645922,Ixtlahuaca - Jilotepec,19.9712407,-99.4511738
4316403305,Ixtlahuaca - Jilotepec y Carretera Corrales-Jilotepec,19.9706552,-99.4521991
8090645920,Carretera Corrales-Jilotepec,19.970209,-99.4530742
8090631616,Innominada,19.9699755,-99.4539965
8090631614,Innominada,19.9698504,-99.4555821
297560430,Innominada,19.9698346,-99.4567763
2587954087,Innominada,19.9698611,-99.4578009
7313678077,Innominada,19.9699386,-99.4588201
8090631605,Innominada,19.9701157,-99.4599145
8090631602,Innominada,19.9700672,-99.4611161
8090631599,Innominada,19.9698977,-99.4625075
8090631597,Innominada,19.9696739,-99.4637125
5717655543,Innominada,19.9693784,-99.4647706
8090631592,Innominada,19.9688923,-99.4657211
2587954111,Innominada,19.9683971,-99.4665697
8090631586,Innominada,19.9681204,-99.4676419
8090631584,Innominada,19.9678475,-99.4688757
8090631581,Innominada,19.9676496,-99.4698199
297560008,Innominada,19.9674013,-99.4707734
8090631569,Innominada,19.9669614,-99.4717075
3485312614,Innominada,19.9665922,-99.4730606
7313781200,Innominada,19.9664225,-99.4744608
5717655616,Innominada,19.9661717,-99.4771175
7313781195,Innominada,19.9660078,-99.479506
7313814467,Innominada,19.9658767,-99.4807499
297559335,Innominada,19.9657746,-99.4817604
297559333,Innominada,19.9651399,-99.4842028
8080737300,Innominada,19.9643121,-99.4869878
5717655662,Innominada,19.964015,-99.4879872
2587954090,Innominada,19.9637074,-99.4891888
4717202177,Innominada,19.9637225,-99.4912072
8080744518,Innominada,19.9637372,-99.4922707
5638869849,Tlalnepantla - Villa del Carbón,19.8584015,-99.5403072
3050479772,Tlalnepantla - Villa del Carbón,19.8605272,-99.5411466
7364388118,Tlalnepantla - Villa del Carbón,19.863451,-99.5422474
7364387167,Tlalnepantla - Villa del Carbón,19.8654095,-99.5429848
3050479771,Tlalnepantla - Villa del Carbón,19.8668505,-99.54359
7364387138,Tlalnepantla - Villa del Carbón,19.8683256,-99.5441788
7364387120,Tlalnepantla - Villa del Carbón,19.869264,-99.5445462
7376201825,Tlalnepantla - Villa del Carbón,19.8716407,-99.5454348
3050479770,Tlalnepantla - Villa del Carbón,19.8729988,-99.5459746
3050479769,Tlalnepantla - Villa del Carbón,19.8738739,-99.5465451
3050479768,Tlalnepantla - Villa del Carbón,19.8762679,-99.5499228
3050479767,Tlalnepantla - Villa del Carbón,19.8774632,-99.5515896
8128610879,Tlalnepantla - Villa del Carbón,19.8785567,-99.5531984
5299878364,Tlalnepantla - Villa del Carbón,19.8791598,-99.554478
7376141586,Tlalnepantla - Villa del Carbón,19.8796141,-99.555733
3050479765,Tlalnepantla - Villa del Carbón,19.8800856,-99.5567306
7376760885,Tlalnepantla - Villa del Carbón,19.8808738,-99.5572397
4316501536,Tlalnepantla - Villa del Carbón,19.8818617,-99.557778
8013004570,Tlalnepantla - Villa del Carbón,19.8823327,-99.5586828
4316501542,Tlalnepantla - Villa del Carbón,19.8839249,-99.5595531
8013004571,Tlalnepantla - Villa del Carbón,19.884763,-99.5599549
8013004573,Tlalnepantla - Villa del Carbón,19.8862057,-99.5602432
7376065772,Tlalnepantla - Villa del Carbón,19.8872184,-99.5602097
3050479760,Tlalnepantla - Villa del Carbón,19.8898529,-99.5599884
4316501547,Tlalnepantla - Villa del Carbón,19.8909242,-99.5599013
6336193632,Tlalnepantla - Villa del Carbón,19.8919109,-99.5600841
3050479758,Tlalnepantla - Villa del Carbón,19.8933953,-99.5609956
7383110000,Tlalnepantla - Villa del Carbón,19.8947211,-99.5618285
7383107288,Tlalnepantla - Villa del Carbón,19.8957735,-99.5624778
8013004574,Tlalnepantla - Villa del Carbón,19.8967226,-99.5630709
7383141186,Tlalnepantla - Villa del Carbón,19.8980767,-99.5639265
8013004575,Tlalnepantla - Villa del Carbón,19.9004256,-99.5653649
3050479757,Tlalnepantla - Villa del Carbón,19.9016047,-99.5660985
5299878372,Tlalnepantla - Villa del Carbón,19.9026463,-99.5667462
8083524472,Tlalnepantla - Villa del Carbón,19.9040649,-99.567626
7386165701,Tlalnepantla - Villa del Carbón,19.9050321,-99.5682362
3050479756,Tlalnepantla - Villa del Carbón,19.9062817,-99.5690033
6336193720,Tlalnepantla - Villa del Carbón,19.9079109,-99.5700172
7383461098,Tlalnepantla - Villa del Carbón,19.9092223,-99.5708433
7383461103,Tlalnepantla - Villa del Carbón,19.910458,-99.571597
8083524471,Tlalnepantla - Villa del Carbón,19.9117454,-99.5724083
3050479755,Tlalnepantla - Villa del Carbón,19.9127958,-99.5730548
7411627774,Tlalnepantla - Villa del Carbón,19.9140642,-99.573846
8083524470,Tlalnepantla - Villa del Carbón,19.9154638,-99.5747057
7411576668,Tlalnepantla - Villa del Carbón,19.9163553,-99.5752582
3050479754,Tlalnepantla - Villa del Carbón,19.9172732,-99.5758362
7412067845,Tlalnepantla - Villa del Carbón,19.9182895,-99.5764638
7412076751,Tlalnepantla - Villa del Carbón,19.9193083,-99.5771129
8083524469,Tlalnepantla - Villa del Carbón,19.920143,-99.5776159
3050479753,Tlalnepantla - Villa del Carbón,19.9218741,-99.5787115
6336193671,Tlalnepantla - Villa del Carbón,19.9230316,-99.5794304
7409046877,Tlalnepantla - Villa del Carbón,19.9243479,-99.580231
3050479752,Tlalnepantla - Villa del Carbón,19.9261086,-99.58133
7412637692,Tlalnepantla - Villa del Carbón,19.924764,-99.5804858
8083524468,Tlalnepantla - Villa del Carbón,19.9235813,-99.5797616
7412067848,Tlalnepantla - Villa del Carbón,19.9207759,-99.5780303
7412067837,Tlalnepantla - Villa del Carbón,19.9195062,-99.577235
7411642398,Tlalnepantla - Villa del Carbón,19.9144728,-99.5740901
7411642399,Tlalnepantla - Villa del Carbón,19.9133304,-99.5734008
7383461104,Tlalnepantla - Villa del Carbón,19.9107013,-99.5717606
7386154683,Tlalnepantla - Villa del Carbón,19.905399,-99.5684655
7383087583,Tlalnepantla - Villa del Carbón,19.8921001,-99.5601895
3050479759,Tlalnepantla - Villa del Carbón,19.8911808,-99.5598958
7376065778,Tlalnepantla - Villa del Carbón,19.8902059,-99.5599542
8013004572,Tlalnepantla - Villa del Carbón,19.885275,-99.5600997
4316501544,Tlalnepantla - Villa del Carbón,19.8844086,-99.5598033
3050479762,Tlalnepantla - Villa del Carbón,19.8828113,-99.5590281
7376760918,Tlalnepantla - Villa del Carbón,19.8821257,-99.5582696
3050479766,Tlalnepantla - Villa del Carbón,19.8791877,-99.5545671
4316501534,Tlalnepantla - Villa del Carbón,19.8786717,-99.5533897
7376136362,Tlalnepantla - Villa del Carbón,19.8765498,-99.5503159
8128610878,Tlalnepantla - Villa del Carbón,19.8742724,-99.5470387
7376136375,Tlalnepantla - Villa del Carbón,19.8734906,-99.5462577
7364387097,Tlalnepantla - Villa del Carbón,19.8672904,-99.5437754
7364387154,Tlalnepantla - Villa del Carbón,19.8612702,-99.5414263
7364388107,Tlalnepantla - Villa del Carbón,19.8585181,-99.5403532
5631625228,Innominada,20.0172677,-99.5196889
2587733000,Innominada,20.0165155,-99.5186558
2587733014,Innominada,20.0168771,-99.5197729
5631625402,Carretera México - Querétaro (Cuota),20.0222203,-99.528632
30880802,Carretera México - Querétaro (Cuota),20.0256369,-99.5342237
7963105914,Carretera México - Querétaro (Cuota),20.0261738,-99.5352303
7963105913,Carretera México - Querétaro (Cuota),20.0265694,-99.5361342
7962724729,Carretera México - Querétaro (Cuota),20.0270646,-99.5374243
7962724732,Carretera México - Querétaro (Cuota),20.0276518,-99.5388834
7962724728,Carretera México - Querétaro (Cuota),20.0286938,-99.5415777
7963105912,Carretera México - Querétaro (Cuota),20.029422,-99.5435236
7963105911,Carretera México - Querétaro (Cuota),20.0300205,-99.5450941
7963105910,Carretera México - Querétaro (Cuota),20.0310512,-99.5477441
6956234269,Carretera México - Querétaro (Cuota),20.0316358,-99.5492515
6956234270,Carretera México - Querétaro (Cuota),20.0339917,-99.5553209
7893543348,Carretera México - Querétaro (Cuota),20.0351436,-99.5583174
7893543347,Carretera México - Querétaro (Cuota),20.0360658,-99.5606938
4005041421,Carretera México - Querétaro (Cuota),20.0365937,-99.5620845
7864807130,Innominada,20.0377327,-99.5621234
7864807128,Innominada,20.0397977,-99.5626304
7864807127,Innominada,20.041743,-99.5630971
7864807126,Innominada,20.0426778,-99.5632996
4005041427,Innominada,20.0438306,-99.5625043
5319088906,Innominada,20.0449796,-99.5620523
7365233704,Innominada,20.0464058,-99.5616809
5319089431,Innominada,20.0473557,-99.5614167
7365233751,Innominada,20.0482502,-99.5611753
7864825581,Innominada,20.0504826,-99.5605825
7864825580,Innominada,20.0519932,-99.5601748
7864825578,Innominada,20.0547559,-99.5594439
5319088873,Innominada,20.0556579,-99.5591086
7864825572,Innominada,20.0562349,-99.5583348
7962968860,Innominada,20.0577302,-99.5563325
4005041429,Innominada,20.0587636,-99.5549542
7962968858,Innominada,20.0594914,-99.5539762
4333431348,Innominada,20.0603202,-99.5532704
7962968855,Innominada,20.0618433,-99.5526445
7852982180,Innominada,20.0633757,-99.552039
4333431356,Innominada,20.0656741,-99.5511036
5319089658,Innominada,20.0667436,-99.5510539
4333431365,Innominada,20.0674893,-99.5517312
4333431368,Innominada,20.0682854,-99.5522945
7852379218,Innominada,20.0697265,-99.5529006
4333431375,Innominada,20.0725368,-99.5541894
4333431379,Innominada,20.0734702,-99.5541036
4333431408,Innominada,20.0746857,-99.553079
7365256235,Innominada,20.07557,-99.5522945
4333431385,Innominada,20.0766457,-99.5513584
7852379225,Innominada,20.0784305,-99.5498134
7852379226,Innominada,20.079857,-99.5485776
5319089532,Innominada,20.0822041,-99.5465632
7852379232,Innominada,20.0841251,-99.5449023
7852379233,Innominada,20.0851529,-99.543419
7852379234,Innominada,20.08593,-99.5421785
7852379235,Innominada,20.0865232,-99.5411982
4333431401,Innominada,20.0871392,-99.5401977
7852379239,Innominada,20.087347,-99.5386165
7852379240,Innominada,20.0873495,-99.5375986
7852379242,Innominada,20.0873501,-99.5355971
7852379244,Innominada,20.0873432,-99.5340085
4333431407,Innominada,20.0873331,-99.5326567
5216962286,Innominada,20.123913,-99.5452872
5216962289,Innominada,20.1246698,-99.5447052
5216962292,Innominada,20.1253397,-99.5438442
5216962294,Innominada,20.1270875,-99.5429081
5216962295,Innominada,20.1286048,-99.5421892
5216962296,Innominada,20.129616,-99.541693
5216962297,Innominada,20.1305075,-99.5411324
5216962299,Innominada,20.1313814,-99.5412048
8133569154,Innominada,20.1325373,-99.5419183
7377219364,Innominada,20.1335395,-99.5434284
7377219363,Innominada,20.1340382,-99.544504
7377219361,Innominada,20.1347735,-99.5457405
7377219360,Innominada,20.1351714,-99.546977
8133569150,Innominada,20.1358463,-99.5477736
7377219356,Innominada,20.1365766,-99.5483154
7377219355,Innominada,20.1366798,-99.5492917
7377219352,Innominada,20.1374001,-99.55015
7377219349,Innominada,20.138775,-99.5511639
7377219347,Innominada,20.1392711,-99.5519659
7377219345,Innominada,20.1396111,-99.5531648
7377219342,Innominada,20.1407392,-99.5537335
7377219339,Innominada,20.1413159,-99.5529959
7377219338,Innominada,20.1413184,-99.5514885
8133569149,Innominada,20.1378571,-99.5503163
7377219353,Innominada,20.1369493,-99.5497933
8133569151,Innominada,20.1352155,-99.5470467
8133569152,Innominada,20.1341465,-99.5447052
7377219365,Innominada,20.1329855,-99.5424226
5216962293,Innominada,20.1257679,-99.543584
5216962291,Innominada,20.1249065,-99.5441553
5216962287,Innominada,20.1239596,-99.545204
5216962284,Innominada,20.1233829,-99.5461804
7852379241,Innominada,20.0873444,-99.5366451
7852379237,Innominada,20.0873004,-99.5397525
4333431399,Innominada,20.0868935,-99.5406081
4333431394,Innominada,20.0845237,-99.5444088
7852379229,Innominada,20.0828252,-99.5460342
7852379227,Innominada,20.0804396,-99.5480911
7852479664,Innominada,20.0787737,-99.5495161
7852379224,Innominada,20.0770702,-99.5509708
7365256244,Innominada,20.074857,-99.5529288
7365256247,Innominada,20.0741214,-99.5535618
7852379223,Innominada,20.0733278,-99.5541948
5319089465,Innominada,20.0637455,-99.5518827
5319088874,Innominada,20.056682,-99.5577451
7864825573,Innominada,20.0558985,-99.5588082
7365233713,Innominada,20.0528284,-99.5599495
7365233705,Innominada,20.0509198,-99.5604725
7364780787,Innominada,20.0451459,-99.5620067
7364378188,Innominada,20.0441821,-99.5622937
7864807123,Innominada,20.0433846,-99.5628905
7364378192,Innominada,20.0425607,-99.5632942
7364378193,Innominada,20.0404718,-99.5627873
4005038824,Innominada,20.0371343,-99.5617224
7866972945,Innominada,20.036493,-99.5604001
2996969713,Innominada,20.0358378,-99.5598798
7892698645,Innominada,20.0353666,-99.5606603
7892698642,Innominada,20.0358894,-99.5614609
7893543349,Carretera México - Querétaro (Cuota),20.0350251,-99.558768
6956234271,Carretera México - Querétaro (Cuota),20.0313309,-99.5492287
7963105909,Carretera México - Querétaro (Cuota),20.030978,-99.5482937
5631625035,Carretera México - Querétaro (Cuota),20.0290806,-99.5433667
5631625107,Carretera México - Querétaro (Cuota),20.0271219,-99.5382977
5631625114,Carretera México - Querétaro (Cuota),20.0267643,-99.5373516
300743062,Carretera México - Querétaro (Cuota),20.0262279,-99.5359638
5631625588,Carretera México - Querétaro (Cuota),20.0257851,-99.5350551
5631624929,Carretera México - Querétaro (Cuota),20.0240418,-99.5321042
8153527631,Carretera México - Querétaro (Cuota),20.017675,-99.5217038
2587733024,Carretera México - Querétaro (Cuota),20.0168692,-99.5203874
2587733054,Carretera de Cuota México-Queretaro,20.0161816,-99.5194472
2587733098,Calle Álvaro Obregón y Carretera de Cuota México-Queretaro,20.0164613,-99.5204489
7377219336,Innominada,20.1423383,-99.5475644
7377219335,Innominada,20.1427361,-99.5462984
7377219333,Innominada,20.1436477,-99.5452255
7376634173,Innominada,20.144383,-99.5443592
7376634176,Innominada,20.1443075,-99.5426935
7376634178,Innominada,20.1445794,-99.5416045
8134298528,Innominada,20.1449823,-99.5407075
7376634182,Innominada,20.1452744,-99.5360926
7376634183,Innominada,20.1455514,-99.5320103
7376645285,Innominada,20.1457503,-99.5281693
7376645288,Innominada,20.1468054,-99.527016
7376645289,Innominada,20.1478781,-99.5261604
7376645293,Innominada,20.1482961,-99.524433
7376634172,Innominada,20.1482779,-99.5232124
7376645292,Innominada,20.1482634,-99.5256159
7376645287,Innominada,20.1458838,-99.5278153
7376634184,Innominada,20.1455489,-99.5315731
7376634181,Innominada,20.145073,-99.5398772
7376634175,Innominada,20.1442923,-99.5439488
7377219337,Innominada,20.1414267,-99.5509332
7975529939,Innominada,20.0336694,-99.6427962
7975529942,Innominada,20.0339378,-99.6437135
2996935957,Innominada,20.0343485,-99.6446174
7975970516,Innominada,20.035354,-99.6459304
2996935958,Innominada,20.0363712,-99.6472148
2996935959,Innominada,20.037868,-99.6487464
7382985484,Innominada,20.0385958,-99.6494883
2996935960,Innominada,20.0410305,-99.651949
7382985483,Innominada,20.0427912,-99.6537316
7382985482,Innominada,20.0435446,-99.6544638
7391178090,Innominada,20.0445551,-99.6554697
2996935962,Innominada,20.0462312,-99.6558516
2996935964,Innominada,20.046977,-99.6564846
7391178105,Innominada,20.0479793,-99.6569395
2996935966,Innominada,20.0499754,-99.6573214
2996935968,Innominada,20.0509178,-99.6577935
2996935970,Innominada,20.0519559,-99.6591615
2996935969,Innominada,20.0512453,-99.6581422
2996935967,Innominada,20.050497,-99.6575039
2996935965,Innominada,20.0485367,-99.6570506
7391178112,Innominada,20.047461,-99.6566854
2996935963,Innominada,20.0465915,-99.6560796
2996935961,Innominada,20.0447824,-99.6555619
7383039110,Innominada,20.0416665,-99.6525929
7382991985,Innominada,20.0366555,-99.6475638
7864518418,Carretera México - Querétaro (Cuota),20.0371204,-99.5634954
7864518419,Carretera México - Querétaro (Cuota),20.0375752,-99.5646139
7864518422,Carretera México - Querétaro (Cuota),20.0382241,-99.5662822
7864518423,Carretera México - Querétaro (Cuota),20.0389863,-99.5682362
7864518424,Carretera México - Querétaro (Cuota),20.0394021,-99.569297
7864518425,Carretera México - Querétaro (Cuota),20.0397612,-99.5702679
7864518426,Carretera México - Querétaro (Cuota),20.0409754,-99.5735086
30880805,Carretera México - Querétaro (Cuota),20.0418563,-99.5757597
7864518427,Carretera México - Querétaro (Cuota),20.0430495,-99.5787853
30880806,Carretera México - Querétaro (Cuota),20.0437034,-99.5804791
6956234273,Carretera México - Querétaro (Cuota),20.0441506,-99.5814943
7864518432,Carretera México - Querétaro (Cuota),20.044797,-99.5823728
7864518433,Carretera México - Querétaro (Cuota),20.0457406,-99.5832874
7364780888,Carretera México - Querétaro (Cuota),20.0468203,-99.5842516
7864518434,Carretera México - Querétaro (Cuota),20.0476165,-99.5849088
7864518435,Carretera México - Querétaro (Cuota),20.0487945,-99.5859723
7364916050,Carretera México - Querétaro (Cuota),20.0498111,-99.5868802
7364915991,Carretera México - Querétaro (Cuota),20.0528259,-99.5896
7364916008,Carretera México - Querétaro (Cuota),20.05577,-99.5921588
30880808,Carretera México - Querétaro (Cuota),20.0577192,-99.593885
7916444361,Carretera México - Querétaro (Cuota),20.0609426,-99.5967534
6956234277,Carretera México - Querétaro (Cuota),20.0620839,-99.5979792
30880809,Carretera México - Querétaro (Cuota),20.0642716,-99.6007081
12468219861,Carretera México - Querétaro (Cuota),20.0649738,-99.6014345
6897158572,Carretera México - Querétaro (Cuota),20.0658818,-99.6021148
7364780833,Carretera México - Querétaro (Cuota),20.0669833,-99.6025905
300741506,Carretera México - Querétaro (Cuota),20.068351,-99.6030183
6897158567,Carretera México - Querétaro (Cuota),20.0693624,-99.6036297
30880811,Carretera México - Querétaro (Cuota),20.0702461,-99.6047212
30880812,Carretera México - Querétaro (Cuota),20.0714889,-99.6072984
6897158565,Carretera México - Querétaro (Cuota),20.0722433,-99.6088693
30880813,Carretera México - Querétaro (Cuota),20.0730859,-99.6103933
7373608573,Carretera México - Querétaro (Cuota),20.07562,-99.6133822
7373608560,Carretera México - Querétaro (Cuota),20.0762611,-99.6141306
30880814,Carretera México - Querétaro (Cuota),20.0791775,-99.6175888
6956234279,Carretera México - Querétaro (Cuota),20.0804723,-99.619115
7928064285,Carretera México - Querétaro (Cuota),20.0811601,-99.6199948
6897158560,Carretera México - Querétaro (Cuota),20.081747,-99.621006
30880815,Carretera México - Querétaro (Cuota),20.0821325,-99.6220252
30880816,Carretera México - Querétaro (Cuota),20.0827597,-99.6253994
12468219847,Carretera México - Querétaro (Cuota),20.0829466,-99.6264816
2554953843,Carretera México - Querétaro (Cuota),20.0831502,-99.6278429
7928064289,Carretera México - Querétaro (Cuota),20.0832736,-99.6290419
7383588112,Carretera México - Querétaro (Cuota),20.0832459,-99.6302059
7928179821,Carretera México - Querétaro (Cuota),20.0826068,-99.6344556
30880818,Carretera México - Querétaro (Cuota),20.0824207,-99.635682
7383599706,Carretera México - Querétaro (Cuota),20.0820065,-99.6384591
30880819,Carretera México - Querétaro (Cuota),20.0814926,-99.642009
30880820,Carretera México - Querétaro (Cuota),20.0806537,-99.6475518
7927746094,Carretera México - Querétaro (Cuota),20.0804799,-99.6488258
7927746091,Carretera México - Querétaro (Cuota),20.0804094,-99.6498236
30880821,Carretera México - Querétaro (Cuota),20.0804673,-99.6511486
7927746087,Carretera México - Querétaro (Cuota),20.0806361,-99.652302
30880822,Carretera México - Querétaro (Cuota),20.0821702,-99.6582431
7927746086,Carretera México - Querétaro (Cuota),20.0836389,-99.6640125
30880823,Carretera México - Querétaro (Cuota),20.0848531,-99.6686822
7927746085,Carretera México - Querétaro (Cuota),20.0857915,-99.6721409
30880824,Carretera México - Querétaro (Cuota),20.0866882,-99.6756989
8087462486,Carretera México - Querétaro (Cuota),20.0874112,-99.6785125
30880825,Carretera México - Querétaro (Cuota),20.088148,-99.6813154
300741509,Carretera México - Querétaro (Cuota),20.0885523,-99.6824406
30880826,Carretera México - Querétaro (Cuota),20.0891619,-99.6836704
6956257771,Carretera México - Querétaro (Cuota),20.0897867,-99.6846561
300741510,Carretera México - Querétaro (Cuota),20.0906482,-99.6856686
8083617016,Carretera México - Querétaro (Cuota),20.0915386,-99.6866088
7391224117,Carretera México - Querétaro (Cuota),20.0922792,-99.6873879
8083622517,Carretera México - Querétaro (Cuota),20.0935034,-99.6886593
30880827,Carretera México - Querétaro (Cuota),20.0977478,-99.6931158
8083622518,Carretera México - Querétaro (Cuota),20.0987616,-99.694178
300741511,Carretera México - Querétaro (Cuota),20.0997453,-99.6951073
8083622519,Carretera México - Querétaro (Cuota),20.1008069,-99.6959013
2013701010,Carretera México - Querétaro (Cuota),20.1017477,-99.6965544
2013701026,Innominada,20.1026457,-99.6970519
7390014427,Innominada,20.1024974,-99.6964572
2013700994,Entronque El Rosal,20.101623,-99.6968561
2013700965,Entronque El Rosal,20.1015185,-99.6970291
7402574037,Innominada,20.1007074,-99.6961963
300742849,Carretera México - Querétaro (Cuota),20.0996155,-99.6952884
8083622525,Carretera México - Querétaro (Cuota),20.0986004,-99.6943134
300742854,Carretera México - Querétaro (Cuota),20.0976672,-99.6933371
8083622524,Carretera México - Querétaro (Cuota),20.0959783,-99.6915574
7391224108,Carretera México - Querétaro (Cuota),20.09172,-99.6871063
8083622523,Carretera México - Querétaro (Cuota),20.0907728,-99.6861219
300742860,Carretera México - Querétaro (Cuota),20.0898912,-99.6851376
300742865,Carretera México - Querétaro (Cuota),20.0891468,-99.6840955
8087462479,Carretera México - Querétaro (Cuota),20.0886443,-99.6831809
7391201224,Carretera México - Querétaro (Cuota),20.0881594,-99.6821094
8087462481,Carretera México - Querétaro (Cuota),20.0870573,-99.6779814
8087462482,Carretera México - Querétaro (Cuota),20.0867852,-99.6769166
300742886,Carretera México - Querétaro (Cuota),20.0846573,-99.6687614
7927746101,Carretera México - Querétaro (Cuota),20.0831376,-99.6628645
7391118144,Carretera México - Querétaro (Cuota),20.0825909,-99.6607697
300742891,Carretera México - Querétaro (Cuota),20.0819561,-99.6583182
6897158557,Carretera México - Querétaro (Cuota),20.0805731,-99.652994
7927746099,Carretera México - Querétaro (Cuota),20.0803287,-99.6520123
7927746097,Carretera México - Querétaro (Cuota),20.0801398,-99.6509421
7927746095,Carretera México - Querétaro (Cuota),20.0801297,-99.6497512
300742909,Carretera México - Querétaro (Cuota),20.0804597,-99.6474257
7927769467,Carretera México - Querétaro (Cuota),20.0807948,-99.645165
300742914,Carretera México - Querétaro (Cuota),20.0812407,-99.6421525
7928063184,Carretera México - Querétaro (Cuota),20.0814296,-99.6409106
7383575381,Carretera México - Querétaro (Cuota),20.0821268,-99.6362392
5203368935,Carretera México - Querétaro (Cuota),20.0829915,-99.6305466
300742926,Carretera México - Querétaro (Cuota),20.0830721,-99.6293476
7383588110,Carretera México - Querétaro (Cuota),20.0829461,-99.6279261
12468219846,Carretera México - Querétaro (Cuota),20.0827068,-99.6264367
300742930,Carretera México - Querétaro (Cuota),20.0825531,-99.6254799
6956234283,Carretera México - Querétaro (Cuota),20.0823164,-99.6241897
6897158561,Carretera México - Querétaro (Cuota),20.0820569,-99.6230525
7928063180,Carretera México - Querétaro (Cuota),20.0816941,-99.6219125
300742940,Carretera México - Querétaro (Cuota),20.0810694,-99.6205661
7928063176,Carretera México - Querétaro (Cuota),20.080291,-99.6193564
300742947,Carretera México - Querétaro (Cuota),20.0790011,-99.6177766
7373608561,Carretera México - Querétaro (Cuota),20.0759976,-99.6142447
300742952,Carretera México - Querétaro (Cuota),20.072951,-99.6106265
6897158564,Carretera México - Querétaro (Cuota),20.0720986,-99.609141
300742957,Carretera México - Querétaro (Cuota),20.0713317,-99.6074897
300742968,Carretera México - Querétaro (Cuota),20.0697918,-99.6044699
6956234278,Carretera México - Querétaro (Cuota),20.0691056,-99.6037162
300742983,Carretera México - Querétaro (Cuota),20.0682599,-99.6032728
7916444357,Carretera México - Querétaro (Cuota),20.0669061,-99.602834
6897158571,Carretera México - Querétaro (Cuota),20.065829,-99.602391
300743006,Carretera México - Querétaro (Cuota),20.064947,-99.6017733
300743017,Carretera México - Querétaro (Cuota),20.0641912,-99.6009769
6956234276,Carretera México - Querétaro (Cuota),20.0618483,-99.5980737
300743031,Carretera México - Querétaro (Cuota),20.060993,-99.5971906
7365100056,Carretera México - Querétaro (Cuota),20.0598416,-99.5961513
300743044,Carretera México - Querétaro (Cuota),20.0575765,-99.5941557
12695685407,Carretera México - Querétaro (Cuota),20.0556903,-99.5924715
12468219869,Carretera México - Querétaro (Cuota),20.0549607,-99.59182
7864518401,Carretera México - Querétaro (Cuota),20.0497078,-99.5871297
7864518402,Carretera México - Querétaro (Cuota),20.0488688,-99.5863961
7864518403,Carretera México - Querétaro (Cuota),20.0476127,-99.5852695
7364780890,Carretera México - Querétaro (Cuota),20.0469173,-99.584662
7364615671,Carretera México - Querétaro (Cuota),20.045825,-99.5836991
7864518406,Carretera México - Querétaro (Cuota),20.0447831,-99.5827697
7864518404,Carretera México - Querétaro (Cuota),20.0441065,-99.5819289
300743050,Carretera México - Querétaro (Cuota),20.0436102,-99.5809565
7864518410,Carretera México - Querétaro (Cuota),20.0424246,-99.5778626
300743053,Carretera México - Querétaro (Cuota),20.0417501,-99.5761796
7364644297,Carretera México - Querétaro (Cuota),20.0410186,-99.5742483
7864518411,Carretera México - Querétaro (Cuota),20.0406519,-99.5732975
7864518412,Carretera México - Querétaro (Cuota),20.039775,-99.5710297
7864518414,Carretera México - Querétaro (Cuota),20.0391149,-99.5693225
7864518413,Carretera México - Querétaro (Cuota),20.0386121,-99.5680243
7864518417,Carretera México - Querétaro (Cuota),20.0373447,-99.56476
7864518416,Carretera México - Querétaro (Cuota),20.0368382,-99.5634699
7893543351,Carretera México - Querétaro (Cuota),20.0362662,-99.5619732
7893543350,Carretera México - Querétaro (Cuota),20.035805,-99.5608011
7895910977,Innominada,20.0638148,-99.5061095
7352972433,Innominada,20.0629632,-99.5074117
7895910981,Innominada,20.0624574,-99.5082653
7895913585,Innominada,20.0612172,-99.5090331
7359948963,Innominada,20.0583425,-99.5104953
4333431663,Innominada,20.057481,-99.5109409
7895913587,Innominada,20.0563583,-99.511537
4333431664,Innominada,20.0552507,-99.5122049
4333431667,Innominada,20.05378,-99.5131081
7895913593,Innominada,20.0536007,-99.5140073
4333431677,Innominada,20.0535001,-99.5150561
4333431679,Innominada,20.0527397,-99.5158939
7895913600,Innominada,20.0522313,-99.5166747
4333431685,Innominada,20.051209,-99.5171878
7895913603,Innominada,20.0502735,-99.5176055
7895913605,Innominada,20.0478912,-99.5176658
7895913613,Innominada,20.0468581,-99.5182197
7352946957,Innominada,20.045728,-99.5189312
7895913614,Innominada,20.0445966,-99.5195125
4333431798,Innominada,20.0427067,-99.5204287
4333431800,Innominada,20.0415084,-99.5211475
7895913618,Innominada,20.0405171,-99.5216569
7895913621,Innominada,20.0379494,-99.5221035
7895913623,Innominada,20.0370549,-99.5223261
4333431809,Innominada,20.0356786,-99.5228239
4333431812,Innominada,20.0346423,-99.5231084
4333431817,Innominada,20.0320698,-99.5219054
4333431819,Innominada,20.0302923,-99.5209702
2587733132,Jilotepec - San Agustín,20.0301134,-99.5200071
7928176048,Innominada,20.0833057,-99.6273467
7849188374,Innominada,20.1153299,-99.6217234
7927221694,Innominada,20.1167365,-99.6205071
7883815771,Innominada,20.1200826,-99.6176853
7852109846,Innominada,20.1218623,-99.6161659
2554872507,Innominada,20.1231461,-99.6150662
2554872508,Innominada,20.1248109,-99.613654
7852109851,Innominada,20.1254493,-99.6124738
10046742221,Innominada,20.1280369,-99.6088777
2554872519,Innominada,20.1290065,-99.6076459
7849188369,Innominada,20.1301524,-99.6062095
7849188366,Innominada,20.1309545,-99.6054384
2554544782,Innominada,20.132089,-99.6049503
7849188364,Innominada,20.133753,-99.604737
7377375594,Innominada,20.1353301,-99.6045721
7849188363,Innominada,20.1363474,-99.6044339
2554916764,Innominada,20.1382286,-99.6031827
7377147022,Innominada,20.1390596,-99.6026167
2554916759,Innominada,20.1399573,-99.6020293
7849188360,Innominada,20.1410464,-99.6014728
2554916750,Innominada,20.1421444,-99.6010597
2554916744,Innominada,20.1429766,-99.6015774
7377147023,Innominada,20.143581,-99.60088
2554889399,Innominada,20.1440216,-99.5998862
2554889397,Innominada,20.1447097,-99.5991171
7377259667,Innominada,20.1454532,-99.5982662
7377259660,Innominada,20.1467916,-99.5967588
2554889347,Innominada,20.1478026,-99.5967521
2554889338,Innominada,20.1486153,-99.5970907
7377147024,Innominada,20.1498334,-99.5972094
7849188345,Innominada,20.1524358,-99.5964074
7849188343,Innominada,20.1534468,-99.5960829
2554721630,Innominada,20.158985,-99.5964557
2554721646,Innominada,20.1541833,-99.5960453
7849188342,Innominada,20.1531899,-99.5961539
7849188346,Innominada,20.1503616,-99.5971309
2554889332,Innominada,20.1487292,-99.5971182
2554889371,Innominada,20.1468671,-99.5967011
7849188356,Innominada,20.1432612,-99.6017008
7849188357,Innominada,20.1425202,-99.6010637
7849188359,Innominada,20.1415463,-99.6012756
2554916757,Innominada,20.1406309,-99.6016565
7377375624,Innominada,20.1369399,-99.6041181
2554916777,Innominada,20.1357959,-99.6045238
7849188365,Innominada,20.132327,-99.6049073
2554872526,Innominada,20.1313562,-99.6052064
2554872524,Innominada,20.1305163,-99.6057911
2554872518,Innominada,20.1283417,-99.6084881
2554872513,Innominada,20.125759,-99.6117899
2554872510,Innominada,20.1252314,-99.6131055
7927221696,Innominada,20.1145667,-99.6222505
5203368949,Innominada,20.0822823,-99.6290606
5203368953,Carretera México - Querétaro (Cuota),20.0830444,-99.6287575
7851992691,Innominada,20.1356171,-99.605598
7377344483,Innominada,20.1359382,-99.6064375
7377344481,Innominada,20.1374328,-99.6060687
7377344477,Innominada,20.1383368,-99.6062632
7377344473,Innominada,20.1392207,-99.6065462
7377344470,Innominada,20.1397042,-99.6076043
7851967089,Innominada,20.1403262,-99.6085598
7377344469,Innominada,20.1406586,-99.6090198
7851967090,Innominada,20.1399133,-99.6080361
7377344471,Innominada,20.139504,-99.6067534
7377344475,Innominada,20.1387303,-99.6066642
7377344479,Innominada,20.1381442,-99.6059199
7377344482,Innominada,20.1361548,-99.6063866
